[
  {
    "id": 1,
    "name": "0K+000 北向 德安路交流道到基隆港交流道",
    "region": "其他",
    "city": "台北市/新北市/基隆市",
    "lat": 25.1492,
    "lng": 121.746,
    "url": "https://cctvn.freeway.gov.tw/abs2mjpg/bmjpg?camera=95000",
    "map": "https://www.google.com/maps?q=25.1492,121.746",
    "source": "第三方"
  },
  {
    "id": 2,
    "name": "0K+000 南向 基隆港交流道到德安路交流道",
    "region": "其他",
    "city": "台北市/新北市/基隆市",
    "lat": 25.1498,
    "lng": 121.7449,
    "url": "https://cctvn.freeway.gov.tw/abs2mjpg/bmjpg?camera=94000",
    "map": "https://www.google.com/maps?q=25.1498,121.7449",
    "source": "第三方"
  },
  {
    "id": 3,
    "name": "0K+270 北向 德安路交流道到基隆港交流道",
    "region": "其他",
    "city": "台北市/新北市/基隆市",
    "lat": 25.1525,
    "lng": 121.7366,
    "url": "https://cctvn.freeway.gov.tw/abs2mjpg/bmjpg?camera=95020",
    "map": "https://www.google.com/maps?q=25.1525,121.7366",
    "source": "第三方"
  },
  {
    "id": 4,
    "name": "0K+270 南向 基隆港交流道到德安路交流道",
    "region": "其他",
    "city": "台北市/新北市/基隆市",
    "lat": 25.153,
    "lng": 121.7368,
    "url": "https://cctvn.freeway.gov.tw/abs2mjpg/bmjpg?camera=94020",
    "map": "https://www.google.com/maps?q=25.153,121.7368",
    "source": "第三方"
  },
  {
    "id": 6,
    "name": "0K+524 北向 德安路交流道到基隆港交流道",
    "region": "其他",
    "city": "台北市/新北市/基隆市",
    "lat": 25.1527,
    "lng": 121.737,
    "url": "https://cctvn.freeway.gov.tw/abs2mjpg/bmjpg?camera=95050",
    "map": "https://www.google.com/maps?q=25.1527,121.737",
    "source": "第三方"
  },
  {
    "id": 9,
    "name": "1K+092 北向 德安路交流道到基隆港交流道",
    "region": "其他",
    "city": "台北市/新北市/基隆市",
    "lat": 25.1529,
    "lng": 121.732,
    "url": "https://cctvn.freeway.gov.tw/abs2mjpg/bmjpg?camera=95100",
    "map": "https://www.google.com/maps?q=25.1529,121.732",
    "source": "第三方"
  },
  {
    "id": 16,
    "name": "2K+140 南向 基隆港交流道到德安路交流道",
    "region": "其他",
    "city": "台北市/新北市/基隆市",
    "lat": 25.1486,
    "lng": 121.7233,
    "url": "https://cctvn.freeway.gov.tw/abs2mjpg/bmjpg?camera=94210",
    "map": "https://www.google.com/maps?q=25.1486,121.7233",
    "source": "第三方"
  },
  {
    "id": 17,
    "name": "2K+345 南向 基隆港交流道到德安路交流道",
    "region": "其他",
    "city": "台北市/新北市/基隆市",
    "lat": 25.1433,
    "lng": 121.7189,
    "url": "https://cctvn.freeway.gov.tw/abs2mjpg/bmjpg?camera=94230",
    "map": "https://www.google.com/maps?q=25.1433,121.7189",
    "source": "第三方"
  },
  {
    "id": 18,
    "name": "2K+381 北向 德安路交流道到基隆港交流道",
    "region": "其他",
    "city": "台北市/新北市/基隆市",
    "lat": 25.1468,
    "lng": 121.7226,
    "url": "https://cctvn.freeway.gov.tw/abs2mjpg/bmjpg?camera=95230",
    "map": "https://www.google.com/maps?q=25.1468,121.7226",
    "source": "第三方"
  },
  {
    "id": 19,
    "name": "2K+520 北向 中和路交流道到德安路交流道",
    "region": "其他",
    "city": "台北市/新北市/基隆市",
    "lat": 25.1459,
    "lng": 121.7219,
    "url": "https://cctvn.freeway.gov.tw/abs2mjpg/bmjpg?camera=95250",
    "map": "https://www.google.com/maps?q=25.1459,121.7219",
    "source": "第三方"
  },
  {
    "id": 20,
    "name": "2K+730 南向 德安路交流道到中和路交流道",
    "region": "其他",
    "city": "台北市/新北市/基隆市",
    "lat": 25.1444,
    "lng": 121.7203,
    "url": "https://cctvn.freeway.gov.tw/abs2mjpg/bmjpg?camera=94270",
    "map": "https://www.google.com/maps?q=25.1444,121.7203",
    "source": "第三方"
  },
  {
    "id": 22,
    "name": "3K+000 南向 德安路交流道到中和路交流道",
    "region": "其他",
    "city": "台北市/新北市/基隆市",
    "lat": 25.1405,
    "lng": 121.7158,
    "url": "https://cctvn.freeway.gov.tw/abs2mjpg/bmjpg?camera=94300",
    "map": "https://www.google.com/maps?q=25.1405,121.7158",
    "source": "第三方"
  },
  {
    "id": 23,
    "name": "3K+110 南向 中和路交流道到基金交流道",
    "region": "其他",
    "city": "台北市/新北市/基隆市",
    "lat": 25.1424,
    "lng": 121.7185,
    "url": "https://cctvn.freeway.gov.tw/abs2mjpg/bmjpg?camera=94310",
    "map": "https://www.google.com/maps?q=25.1424,121.7185",
    "source": "第三方"
  },
  {
    "id": 24,
    "name": "3K+139 北向 基金交流道到中和路交流道",
    "region": "其他",
    "city": "台北市/新北市/基隆市",
    "lat": 25.14,
    "lng": 121.7158,
    "url": "https://cctvn.freeway.gov.tw/abs2mjpg/bmjpg?camera=95310",
    "map": "https://www.google.com/maps?q=25.14,121.7158",
    "source": "第三方"
  },
  {
    "id": 26,
    "name": "3K+200 南向 中和路交流道到基金交流道",
    "region": "其他",
    "city": "台北市/新北市/基隆市",
    "lat": 25.1402,
    "lng": 121.7158,
    "url": "https://cctvn.freeway.gov.tw/abs2mjpg/bmjpg?camera=94320",
    "map": "https://www.google.com/maps?q=25.1402,121.7158",
    "source": "第三方"
  },
  {
    "id": 345,
    "name": "台北市政府 水利工程處 三合橋",
    "region": "其他",
    "city": "台北市/新北市/基隆市",
    "lat": 25.127,
    "lng": 121.5029,
    "url": "https://heocctv1.gov.taipei/channel26",
    "map": "https://www.google.com/maps?q=25.127,121.5029",
    "source": "第三方"
  },
  {
    "id": 346,
    "name": "台北市政府 水利工程處 內溝溪",
    "region": "其他",
    "city": "台北市/新北市/基隆市",
    "lat": 25.079,
    "lng": 121.624,
    "url": "https://heocctv1.gov.taipei/channel29",
    "map": "https://www.google.com/maps?q=25.079,121.624",
    "source": "第三方"
  },
  {
    "id": 347,
    "name": "台北市政府 水利工程處 內溝溪1號(內)",
    "region": "其他",
    "city": "台北市/新北市/基隆市",
    "lat": 25.0673,
    "lng": 121.6169,
    "url": "https://heocctv2.gov.taipei/channel61",
    "map": "https://www.google.com/maps?q=25.0673,121.6169",
    "source": "第三方"
  },
  {
    "id": 348,
    "name": "台北市政府 水利工程處 內溝溪1號(外)",
    "region": "其他",
    "city": "台北市/新北市/基隆市",
    "lat": 25.0673,
    "lng": 121.6169,
    "url": "https://heocctv2.gov.taipei/channel62",
    "map": "https://www.google.com/maps?q=25.0673,121.6169",
    "source": "第三方"
  },
  {
    "id": 349,
    "name": "台北市政府 水利工程處 內溝溪2號(內)",
    "region": "其他",
    "city": "台北市/新北市/基隆市",
    "lat": 25.0658,
    "lng": 121.6181,
    "url": "https://heocctv1.gov.taipei/channel2",
    "map": "https://www.google.com/maps?q=25.0658,121.6181",
    "source": "第三方"
  },
  {
    "id": 350,
    "name": "台北市政府 水利工程處 內溝溪2號(外)",
    "region": "其他",
    "city": "台北市/新北市/基隆市",
    "lat": 25.0658,
    "lng": 121.6181,
    "url": "https://heocctv1.gov.taipei/channel3",
    "map": "https://www.google.com/maps?q=25.0658,121.6181",
    "source": "第三方"
  },
  {
    "id": 351,
    "name": "台北市政府 水利工程處 分洪入口1",
    "region": "其他",
    "city": "台北市/新北市/基隆市",
    "lat": 25.1375,
    "lng": 121.5015,
    "url": "https://heocctv3.gov.taipei/channel8",
    "map": "https://www.google.com/maps?q=25.1375,121.5015",
    "source": "第三方"
  },
  {
    "id": 352,
    "name": "台北市政府 水利工程處 分洪入口3",
    "region": "其他",
    "city": "台北市/新北市/基隆市",
    "lat": 25.1378,
    "lng": 121.5013,
    "url": "https://heocctv3.gov.taipei/channel10",
    "map": "https://www.google.com/maps?q=25.1378,121.5013",
    "source": "第三方"
  },
  {
    "id": 353,
    "name": "台北市政府 水利工程處 分洪入口4",
    "region": "其他",
    "city": "台北市/新北市/基隆市",
    "lat": 25.1373,
    "lng": 121.5017,
    "url": "https://heocctv2.gov.taipei/channel22",
    "map": "https://www.google.com/maps?q=25.1373,121.5017",
    "source": "第三方"
  },
  {
    "id": 354,
    "name": "台北市政府 水利工程處 南深橋2",
    "region": "其他",
    "city": "台北市/新北市/基隆市",
    "lat": 25.049,
    "lng": 121.6256,
    "url": "https://heocctv3.gov.taipei/channel93",
    "map": "https://www.google.com/maps?q=25.049,121.6256",
    "source": "第三方"
  },
  {
    "id": 355,
    "name": "台北市政府 水利工程處 南深橋3",
    "region": "其他",
    "city": "台北市/新北市/基隆市",
    "lat": 25.039,
    "lng": 121.6356,
    "url": "https://heocctv3.gov.taipei/channel94",
    "map": "https://www.google.com/maps?q=25.039,121.6356",
    "source": "第三方"
  },
  {
    "id": 356,
    "name": "台北市政府 水利工程處 南深橋4",
    "region": "其他",
    "city": "台北市/新北市/基隆市",
    "lat": 25.029,
    "lng": 121.6156,
    "url": "https://heocctv3.gov.taipei/channel95",
    "map": "https://www.google.com/maps?q=25.029,121.6156",
    "source": "第三方"
  },
  {
    "id": 357,
    "name": "台北市政府 水利工程處 南港公園1",
    "region": "其他",
    "city": "台北市/新北市/基隆市",
    "lat": 25.043,
    "lng": 121.593,
    "url": "https://heocctv1.gov.taipei/channel62",
    "map": "https://www.google.com/maps?q=25.043,121.593",
    "source": "第三方"
  },
  {
    "id": 358,
    "name": "台北市政府 水利工程處 南港公園2",
    "region": "其他",
    "city": "台北市/新北市/基隆市",
    "lat": 25.043,
    "lng": 121.593,
    "url": "https://heocctv1.gov.taipei/channel63",
    "map": "https://www.google.com/maps?q=25.043,121.593",
    "source": "第三方"
  },
  {
    "id": 359,
    "name": "台北市政府 水利工程處 南港公園閘門",
    "region": "其他",
    "city": "台北市/新北市/基隆市",
    "lat": 25.0435,
    "lng": 121.5925,
    "url": "https://heocctv3.gov.taipei/channel1",
    "map": "https://www.google.com/maps?q=25.0435,121.5925",
    "source": "第三方"
  },
  {
    "id": 360,
    "name": "台北市政府 水利工程處 南湖大橋",
    "region": "其他",
    "city": "台北市/新北市/基隆市",
    "lat": 25.0631,
    "lng": 121.6117,
    "url": "https://heocctv3.gov.taipei/channel87",
    "map": "https://www.google.com/maps?q=25.0631,121.6117",
    "source": "第三方"
  },
  {
    "id": 361,
    "name": "台北市政府 水利工程處 合江公園",
    "region": "其他",
    "city": "台北市/新北市/基隆市",
    "lat": 25.0587,
    "lng": 121.5393,
    "url": "https://heocctv3.gov.taipei/channel20",
    "map": "https://www.google.com/maps?q=25.0587,121.5393",
    "source": "第三方"
  },
  {
    "id": 362,
    "name": "台北市政府 水利工程處 四分右1號閘門",
    "region": "其他",
    "city": "台北市/新北市/基隆市",
    "lat": 25.0342,
    "lng": 121.6123,
    "url": "https://heocctv1.gov.taipei/channel17",
    "map": "https://www.google.com/maps?q=25.0342,121.6123",
    "source": "第三方"
  },
  {
    "id": 363,
    "name": "台北市政府 水利工程處 四分右9號閘門",
    "region": "其他",
    "city": "台北市/新北市/基隆市",
    "lat": 25.0375,
    "lng": 121.6161,
    "url": "https://heocctv1.gov.taipei/channel19",
    "map": "https://www.google.com/maps?q=25.0375,121.6161",
    "source": "第三方"
  },
  {
    "id": 364,
    "name": "台北市政府 水利工程處 四分左1號閘門",
    "region": "其他",
    "city": "台北市/新北市/基隆市",
    "lat": 25.0338,
    "lng": 121.61,
    "url": "https://heocctv1.gov.taipei/channel14",
    "map": "https://www.google.com/maps?q=25.0338,121.61",
    "source": "第三方"
  },
  {
    "id": 365,
    "name": "台北市政府 水利工程處 四維路44巷26號",
    "region": "其他",
    "city": "台北市/新北市/基隆市",
    "lat": 25.0356,
    "lng": 121.5465,
    "url": "https://heocctv2.gov.taipei/channel9",
    "map": "https://www.google.com/maps?q=25.0356,121.5465",
    "source": "第三方"
  },
  {
    "id": 366,
    "name": "台北市政府 水利工程處 基隆河10號-2",
    "region": "其他",
    "city": "台北市/新北市/基隆市",
    "lat": 25.073,
    "lng": 121.5296,
    "url": "https://heocctv3.gov.taipei/channel101",
    "map": "https://www.google.com/maps?q=25.073,121.5296",
    "source": "第三方"
  },
  {
    "id": 367,
    "name": "台北市政府 水利工程處 基隆河左岸洲美橋下",
    "region": "其他",
    "city": "台北市/新北市/基隆市",
    "lat": 25.0972,
    "lng": 121.4973,
    "url": "https://heocctv4.gov.taipei/channel2",
    "map": "https://www.google.com/maps?q=25.0972,121.4973",
    "source": "第三方"
  },
  {
    "id": 368,
    "name": "台北市政府 水利工程處 士林橋",
    "region": "其他",
    "city": "台北市/新北市/基隆市",
    "lat": 25.1,
    "lng": 121.5231,
    "url": "https://heocctv2.gov.taipei/channel6",
    "map": "https://www.google.com/maps?q=25.1,121.5231",
    "source": "第三方"
  },
  {
    "id": 369,
    "name": "台北市政府 水利工程處 士林橋右岸陸閘",
    "region": "其他",
    "city": "台北市/新北市/基隆市",
    "lat": 25.1001,
    "lng": 121.523,
    "url": "https://heocctv2.gov.taipei/channel99",
    "map": "https://www.google.com/maps?q=25.1001,121.523",
    "source": "第三方"
  },
  {
    "id": 370,
    "name": "台北市政府 水利工程處 士林橋左岸陸閘",
    "region": "其他",
    "city": "台北市/新北市/基隆市",
    "lat": 25.0984,
    "lng": 121.5234,
    "url": "https://heocctv3.gov.taipei/channel72",
    "map": "https://www.google.com/maps?q=25.0984,121.5234",
    "source": "第三方"
  },
  {
    "id": 371,
    "name": "台北市政府 水利工程處 大佳河濱公園巨蛋廣場",
    "region": "其他",
    "city": "台北市/新北市/基隆市",
    "lat": 25.0753,
    "lng": 121.5387,
    "url": "https://heocctv4.gov.taipei/channel11",
    "map": "https://www.google.com/maps?q=25.0753,121.5387",
    "source": "第三方"
  },
  {
    "id": 372,
    "name": "台北市政府 水利工程處 大佳河濱公園網球場旁廣場",
    "region": "其他",
    "city": "台北市/新北市/基隆市",
    "lat": 25.0743,
    "lng": 121.5303,
    "url": "https://heocctv4.gov.taipei/channel12",
    "map": "https://www.google.com/maps?q=25.0743,121.5303",
    "source": "第三方"
  },
  {
    "id": 373,
    "name": "台北市政府 水利工程處 大坑右6號閘門",
    "region": "其他",
    "city": "台北市/新北市/基隆市",
    "lat": 25.0389,
    "lng": 121.6241,
    "url": "https://heocctv1.gov.taipei/channel9",
    "map": "https://www.google.com/maps?q=25.0389,121.6241",
    "source": "第三方"
  },
  {
    "id": 374,
    "name": "台北市政府 水利工程處 大坑左2號閘門",
    "region": "其他",
    "city": "台北市/新北市/基隆市",
    "lat": 25.0392,
    "lng": 121.6238,
    "url": "https://heocctv1.gov.taipei/channel4",
    "map": "https://www.google.com/maps?q=25.0392,121.6238",
    "source": "第三方"
  },
  {
    "id": 375,
    "name": "台北市政府 水利工程處 大坑左3號閘門",
    "region": "其他",
    "city": "台北市/新北市/基隆市",
    "lat": 25.0392,
    "lng": 121.6229,
    "url": "https://heocctv1.gov.taipei/channel5",
    "map": "https://www.google.com/maps?q=25.0392,121.6229",
    "source": "第三方"
  },
  {
    "id": 376,
    "name": "台北市政府 水利工程處 大坑左5號閘門",
    "region": "其他",
    "city": "台北市/新北市/基隆市",
    "lat": 25.0411,
    "lng": 121.6208,
    "url": "https://heocctv1.gov.taipei/channel6",
    "map": "https://www.google.com/maps?q=25.0411,121.6208",
    "source": "第三方"
  },
  {
    "id": 377,
    "name": "台北市政府 水利工程處 大坑左9號閘門",
    "region": "其他",
    "city": "台北市/新北市/基隆市",
    "lat": 25.043,
    "lng": 121.6194,
    "url": "https://heocctv1.gov.taipei/channel7",
    "map": "https://www.google.com/maps?q=25.043,121.6194",
    "source": "第三方"
  },
  {
    "id": 378,
    "name": "台北市政府 水利工程處 大坑溪監測站(十河局)",
    "region": "其他",
    "city": "台北市/新北市/基隆市",
    "lat": 25.0489,
    "lng": 121.6155,
    "url": "https://heocctv3.gov.taipei/channel17",
    "map": "https://www.google.com/maps?q=25.0489,121.6155",
    "source": "第三方"
  },
  {
    "id": 379,
    "name": "台北市政府 水利工程處 大安路1段84巷",
    "region": "其他",
    "city": "台北市/新北市/基隆市",
    "lat": 25.041,
    "lng": 121.545,
    "url": "https://heocctv2.gov.taipei/channel1",
    "map": "https://www.google.com/maps?q=25.041,121.545",
    "source": "第三方"
  },
  {
    "id": 380,
    "name": "台北市政府 水利工程處 大湖1號閘門1",
    "region": "其他",
    "city": "台北市/新北市/基隆市",
    "lat": 25.077,
    "lng": 121.607,
    "url": "https://heocctv2.gov.taipei/channel14",
    "map": "https://www.google.com/maps?q=25.077,121.607",
    "source": "第三方"
  },
  {
    "id": 381,
    "name": "台北市政府 水利工程處 大湖1號閘門2",
    "region": "其他",
    "city": "台北市/新北市/基隆市",
    "lat": 25.077,
    "lng": 121.607,
    "url": "https://heocctv2.gov.taipei/channel15",
    "map": "https://www.google.com/maps?q=25.077,121.607",
    "source": "第三方"
  },
  {
    "id": 382,
    "name": "台北市政府 水利工程處 大湖2號閘門1",
    "region": "其他",
    "city": "台北市/新北市/基隆市",
    "lat": 25.079,
    "lng": 121.607,
    "url": "https://heocctv2.gov.taipei/channel16",
    "map": "https://www.google.com/maps?q=25.079,121.607",
    "source": "第三方"
  },
  {
    "id": 383,
    "name": "台北市政府 水利工程處 大湖2號閘門2",
    "region": "其他",
    "city": "台北市/新北市/基隆市",
    "lat": 25.079,
    "lng": 121.607,
    "url": "https://heocctv2.gov.taipei/channel17",
    "map": "https://www.google.com/maps?q=25.079,121.607",
    "source": "第三方"
  },
  {
    "id": 384,
    "name": "台北市政府 水利工程處 大湖公園清疏閘門",
    "region": "其他",
    "city": "台北市/新北市/基隆市",
    "lat": 25.0784,
    "lng": 121.6069,
    "url": "https://heocctv3.gov.taipei/channel4",
    "map": "https://www.google.com/maps?q=25.0784,121.6069",
    "source": "第三方"
  },
  {
    "id": 385,
    "name": "台北市政府 水利工程處 大湖國小公車站",
    "region": "其他",
    "city": "台北市/新北市/基隆市",
    "lat": 25.0881,
    "lng": 121.5994,
    "url": "https://heocctv3.gov.taipei/channel77",
    "map": "https://www.google.com/maps?q=25.0881,121.5994",
    "source": "第三方"
  },
  {
    "id": 386,
    "name": "台北市政府 水利工程處 大湖山莊街243巷",
    "region": "其他",
    "city": "台北市/新北市/基隆市",
    "lat": 25.0893,
    "lng": 121.5993,
    "url": "https://heocctv3.gov.taipei/channel76",
    "map": "https://www.google.com/maps?q=25.0893,121.5993",
    "source": "第三方"
  },
  {
    "id": 387,
    "name": "台北市政府 水利工程處 大溝溪園區渠首工",
    "region": "其他",
    "city": "台北市/新北市/基隆市",
    "lat": 25.092,
    "lng": 121.5972,
    "url": "https://heocctv2.gov.taipei/channel18",
    "map": "https://www.google.com/maps?q=25.092,121.5972",
    "source": "第三方"
  },
  {
    "id": 388,
    "name": "台北市政府 水利工程處 大溝溪園區溢流明渠",
    "region": "其他",
    "city": "台北市/新北市/基隆市",
    "lat": 25.0906,
    "lng": 121.5967,
    "url": "https://heocctv3.gov.taipei/channel5",
    "map": "https://www.google.com/maps?q=25.0906,121.5967",
    "source": "第三方"
  },
  {
    "id": 389,
    "name": "台北市政府 水利工程處 大溝溪園區滯洪池",
    "region": "其他",
    "city": "台北市/新北市/基隆市",
    "lat": 25.0893,
    "lng": 121.5983,
    "url": "https://heocctv3.gov.taipei/channel3",
    "map": "https://www.google.com/maps?q=25.0893,121.5983",
    "source": "第三方"
  },
  {
    "id": 390,
    "name": "台北市政府 水利工程處 大溝溪園區滯洪池2",
    "region": "其他",
    "city": "台北市/新北市/基隆市",
    "lat": 25.0904,
    "lng": 121.5964,
    "url": "https://heocctv2.gov.taipei/channel20",
    "map": "https://www.google.com/maps?q=25.0904,121.5964",
    "source": "第三方"
  },
  {
    "id": 391,
    "name": "台北市政府 水利工程處 大溝溪園區滯洪池3",
    "region": "其他",
    "city": "台北市/新北市/基隆市",
    "lat": 25.0906,
    "lng": 121.5963,
    "url": "https://heocctv2.gov.taipei/channel21",
    "map": "https://www.google.com/maps?q=25.0906,121.5963",
    "source": "第三方"
  },
  {
    "id": 392,
    "name": "台北市政府 水利工程處 大溝溪園區豎井(井內)",
    "region": "其他",
    "city": "台北市/新北市/基隆市",
    "lat": 25.0892,
    "lng": 121.5985,
    "url": "https://heocctv2.gov.taipei/channel19",
    "map": "https://www.google.com/maps?q=25.0892,121.5985",
    "source": "第三方"
  },
  {
    "id": 393,
    "name": "台北市政府 水利工程處 大直堤防4號閘門",
    "region": "其他",
    "city": "台北市/新北市/基隆市",
    "lat": 25.0763,
    "lng": 121.5259,
    "url": "https://heocctv2.gov.taipei/channel23",
    "map": "https://www.google.com/maps?q=25.0763,121.5259",
    "source": "第三方"
  },
  {
    "id": 394,
    "name": "台北市政府 水利工程處 大直堤防8號閘門",
    "region": "其他",
    "city": "台北市/新北市/基隆市",
    "lat": 25.0773,
    "lng": 121.5442,
    "url": "https://heocctv2.gov.taipei/channel24",
    "map": "https://www.google.com/maps?q=25.0773,121.5442",
    "source": "第三方"
  },
  {
    "id": 395,
    "name": "台北市政府 水利工程處 大直橋",
    "region": "其他",
    "city": "台北市/新北市/基隆市",
    "lat": 25.0764,
    "lng": 121.5442,
    "url": "https://heocctv3.gov.taipei/dzc02024608552022",
    "map": "https://www.google.com/maps?q=25.0764,121.5442",
    "source": "第三方"
  },
  {
    "id": 397,
    "name": "台北市政府 水利工程處 延平河濱公園大稻埕碼頭廣場",
    "region": "其他",
    "city": "台北市/新北市/基隆市",
    "lat": 25.057,
    "lng": 121.508,
    "url": "https://heocctv2.gov.taipei/channel25",
    "map": "https://www.google.com/maps?q=25.057,121.508",
    "source": "第三方"
  },
  {
    "id": 398,
    "name": "台北市政府 水利工程處 彩虹橋(松山分局)",
    "region": "其他",
    "city": "台北市/新北市/基隆市",
    "lat": 25.0517,
    "lng": 121.5768,
    "url": "https://heocctv3.gov.taipei/channel55",
    "map": "https://www.google.com/maps?q=25.0517,121.5768",
    "source": "第三方"
  },
  {
    "id": 399,
    "name": "台北市政府 水利工程處 忠三街",
    "region": "其他",
    "city": "台北市/新北市/基隆市",
    "lat": 25.08,
    "lng": 121.624,
    "url": "https://heocctv1.gov.taipei/channel30",
    "map": "https://www.google.com/maps?q=25.08,121.624",
    "source": "第三方"
  },
  {
    "id": 403,
    "name": "台北市政府 水利工程處 憲兵滯洪池(池內)",
    "region": "其他",
    "city": "台北市/新北市/基隆市",
    "lat": 25.0029,
    "lng": 121.5564,
    "url": "https://heocctv3.gov.taipei/channel79",
    "map": "https://www.google.com/maps?q=25.0029,121.5564",
    "source": "第三方"
  },
  {
    "id": 405,
    "name": "台北市政府 水利工程處 敦化北路155巷100弄",
    "region": "其他",
    "city": "台北市/新北市/基隆市",
    "lat": 25.0543,
    "lng": 121.5522,
    "url": "https://heocctv2.gov.taipei/channel10",
    "map": "https://www.google.com/maps?q=25.0543,121.5522",
    "source": "第三方"
  },
  {
    "id": 411,
    "name": "台北市政府 水利工程處 東吳大學網球場",
    "region": "其他",
    "city": "台北市/新北市/基隆市",
    "lat": 25.096,
    "lng": 121.544,
    "url": "https://heocctv2.gov.taipei/channel33",
    "map": "https://www.google.com/maps?q=25.096,121.544",
    "source": "第三方"
  },
  {
    "id": 412,
    "name": "台北市政府 水利工程處 東湖國中1",
    "region": "其他",
    "city": "台北市/新北市/基隆市",
    "lat": 25.073,
    "lng": 121.621,
    "url": "https://heocctv2.gov.taipei/channel31",
    "map": "https://www.google.com/maps?q=25.073,121.621",
    "source": "第三方"
  },
  {
    "id": 413,
    "name": "台北市政府 水利工程處 東湖國中2",
    "region": "其他",
    "city": "台北市/新北市/基隆市",
    "lat": 25.073,
    "lng": 121.621,
    "url": "https://heocctv1.gov.taipei/channel47",
    "map": "https://www.google.com/maps?q=25.073,121.621",
    "source": "第三方"
  },
  {
    "id": 414,
    "name": "台北市政府 水利工程處 永福橋",
    "region": "其他",
    "city": "台北市/新北市/基隆市",
    "lat": 25.0113,
    "lng": 121.5277,
    "url": "https://heocctv4.gov.taipei/channel14",
    "map": "https://www.google.com/maps?q=25.0113,121.5277",
    "source": "第三方"
  },
  {
    "id": 415,
    "name": "台北市政府 水利工程處 泰順街50巷口",
    "region": "其他",
    "city": "台北市/新北市/基隆市",
    "lat": 25.023,
    "lng": 121.5313,
    "url": "https://heocctv2.gov.taipei/channel4",
    "map": "https://www.google.com/maps?q=25.023,121.5313",
    "source": "第三方"
  },
  {
    "id": 416,
    "name": "台北市政府 水利工程處 猴狪坑溪沉砂池",
    "region": "其他",
    "city": "台北市/新北市/基隆市",
    "lat": 25.1006,
    "lng": 121.5505,
    "url": "https://heocctv3.gov.taipei/channel96",
    "map": "https://www.google.com/maps?q=25.1006,121.5505",
    "source": "第三方"
  },
  {
    "id": 417,
    "name": "台北市政府 水利工程處 百齡右岸三腳渡碼頭",
    "region": "其他",
    "city": "台北市/新北市/基隆市",
    "lat": 25.081,
    "lng": 121.518,
    "url": "https://heocctv1.gov.taipei/channel37",
    "map": "https://www.google.com/maps?q=25.081,121.518",
    "source": "第三方"
  },
  {
    "id": 418,
    "name": "台北市政府 水利工程處 百齡橋停車場",
    "region": "其他",
    "city": "台北市/新北市/基隆市",
    "lat": 25.0915,
    "lng": 121.511,
    "url": "https://heocctv3.gov.taipei/channel48",
    "map": "https://www.google.com/maps?q=25.0915,121.511",
    "source": "第三方"
  },
  {
    "id": 419,
    "name": "台北市政府 水利工程處 百齡橋越堤自行車牽引道",
    "region": "其他",
    "city": "台北市/新北市/基隆市",
    "lat": 25.0906,
    "lng": 121.5151,
    "url": "https://heocctv4.gov.taipei/channel20",
    "map": "https://www.google.com/maps?q=25.0906,121.5151",
    "source": "第三方"
  },
  {
    "id": 420,
    "name": "台北市政府 水利工程處 百齡橋陸閘",
    "region": "其他",
    "city": "台北市/新北市/基隆市",
    "lat": 25.0883,
    "lng": 121.5119,
    "url": "https://heocctv3.gov.taipei/channel69",
    "map": "https://www.google.com/maps?q=25.0883,121.5119",
    "source": "第三方"
  },
  {
    "id": 421,
    "name": "台北市政府 水利工程處 碧湖公園1",
    "region": "其他",
    "city": "台北市/新北市/基隆市",
    "lat": 25.08,
    "lng": 121.583,
    "url": "https://heocctv2.gov.taipei/channel34",
    "map": "https://www.google.com/maps?q=25.08,121.583",
    "source": "第三方"
  },
  {
    "id": 422,
    "name": "台北市政府 水利工程處 碧湖公園2",
    "region": "其他",
    "city": "台北市/新北市/基隆市",
    "lat": 25.08,
    "lng": 121.583,
    "url": "https://heocctv2.gov.taipei/channel35",
    "map": "https://www.google.com/maps?q=25.08,121.583",
    "source": "第三方"
  },
  {
    "id": 423,
    "name": "台北市政府 水利工程處 碧湖公園3",
    "region": "其他",
    "city": "台北市/新北市/基隆市",
    "lat": 25.08,
    "lng": 121.583,
    "url": "https://heocctv2.gov.taipei/channel36",
    "map": "https://www.google.com/maps?q=25.08,121.583",
    "source": "第三方"
  },
  {
    "id": 424,
    "name": "台北市政府 水利工程處 碧湖公園4",
    "region": "其他",
    "city": "台北市/新北市/基隆市",
    "lat": 25.08,
    "lng": 121.583,
    "url": "https://heocctv2.gov.taipei/channel37",
    "map": "https://www.google.com/maps?q=25.08,121.583",
    "source": "第三方"
  },
  {
    "id": 425,
    "name": "台北市政府 水利工程處 碧湖公園5",
    "region": "其他",
    "city": "台北市/新北市/基隆市",
    "lat": 25.08,
    "lng": 121.583,
    "url": "https://heocctv2.gov.taipei/channel38",
    "map": "https://www.google.com/maps?q=25.08,121.583",
    "source": "第三方"
  },
  {
    "id": 426,
    "name": "台北市政府 水利工程處 碧湖公園6",
    "region": "其他",
    "city": "台北市/新北市/基隆市",
    "lat": 25.08,
    "lng": 121.583,
    "url": "https://heocctv2.gov.taipei/channel39",
    "map": "https://www.google.com/maps?q=25.08,121.583",
    "source": "第三方"
  },
  {
    "id": 427,
    "name": "台北市政府 水利工程處 碧湖公園溢流口",
    "region": "其他",
    "city": "台北市/新北市/基隆市",
    "lat": 25.0802,
    "lng": 121.5834,
    "url": "https://heocctv3.gov.taipei/channel2",
    "map": "https://www.google.com/maps?q=25.0802,121.5834",
    "source": "第三方"
  },
  {
    "id": 428,
    "name": "台北市政府 水利工程處 磺捷橋",
    "region": "其他",
    "city": "台北市/新北市/基隆市",
    "lat": 25.138,
    "lng": 121.491,
    "url": "https://heocctv2.gov.taipei/channel27",
    "map": "https://www.google.com/maps?q=25.138,121.491",
    "source": "第三方"
  },
  {
    "id": 429,
    "name": "台北市政府 水利工程處 社子島(十河局)",
    "region": "其他",
    "city": "台北市/新北市/基隆市",
    "lat": 25.1096,
    "lng": 121.4664,
    "url": "https://heocctv3.gov.taipei/channel14",
    "map": "https://www.google.com/maps?q=25.1096,121.4664",
    "source": "第三方"
  },
  {
    "id": 430,
    "name": "台北市政府 水利工程處 社子島島頭公園入口",
    "region": "其他",
    "city": "台北市/新北市/基隆市",
    "lat": 25.109,
    "lng": 121.468,
    "url": "https://heocctv1.gov.taipei/channel42",
    "map": "https://www.google.com/maps?q=25.109,121.468",
    "source": "第三方"
  },
  {
    "id": 431,
    "name": "台北市政府 水利工程處 福德宮",
    "region": "其他",
    "city": "台北市/新北市/基隆市",
    "lat": 25.1143,
    "lng": 121.4831,
    "url": "https://heocctv3.gov.taipei/channel71",
    "map": "https://www.google.com/maps?q=25.1143,121.4831",
    "source": "第三方"
  },
  {
    "id": 432,
    "name": "台北市政府 水利工程處 美堤河濱公園1",
    "region": "其他",
    "city": "台北市/新北市/基隆市",
    "lat": 25.077,
    "lng": 121.558,
    "url": "https://heocctv1.gov.taipei/channel39",
    "map": "https://www.google.com/maps?q=25.077,121.558",
    "source": "第三方"
  },
  {
    "id": 433,
    "name": "台北市政府 水利工程處 美堤河濱公園2",
    "region": "其他",
    "city": "台北市/新北市/基隆市",
    "lat": 25.077,
    "lng": 121.558,
    "url": "https://heocctv1.gov.taipei/channel40",
    "map": "https://www.google.com/maps?q=25.077,121.558",
    "source": "第三方"
  },
  {
    "id": 434,
    "name": "台北市政府 水利工程處 臺北大橋下",
    "region": "其他",
    "city": "台北市/新北市/基隆市",
    "lat": 25.063,
    "lng": 121.509,
    "url": "https://heocctv2.gov.taipei/channel29",
    "map": "https://www.google.com/maps?q=25.063,121.509",
    "source": "第三方"
  },
  {
    "id": 435,
    "name": "台北市政府 水利工程處 華中遊戲區",
    "region": "其他",
    "city": "台北市/新北市/基隆市",
    "lat": 25.0176,
    "lng": 121.4925,
    "url": "https://heocctv4.gov.taipei/channel24",
    "map": "https://www.google.com/maps?q=25.0176,121.4925",
    "source": "第三方"
  },
  {
    "id": 436,
    "name": "台北市政府 水利工程處 金瑞治水園區滯洪池",
    "region": "其他",
    "city": "台北市/新北市/基隆市",
    "lat": 25.0912,
    "lng": 121.582,
    "url": "https://heocctv3.gov.taipei/channel81",
    "map": "https://www.google.com/maps?q=25.0912,121.582",
    "source": "第三方"
  },
  {
    "id": 437,
    "name": "台北市政府 水利工程處 金瑞治水園區進水口",
    "region": "其他",
    "city": "台北市/新北市/基隆市",
    "lat": 25.0912,
    "lng": 121.5809,
    "url": "https://heocctv3.gov.taipei/channel82",
    "map": "https://www.google.com/maps?q=25.0912,121.5809",
    "source": "第三方"
  },
  {
    "id": 438,
    "name": "台北市政府 水利工程處 關渡碼頭停車場",
    "region": "其他",
    "city": "台北市/新北市/基隆市",
    "lat": 25.121,
    "lng": 121.462,
    "url": "https://heocctv3.gov.taipei/channel28",
    "map": "https://www.google.com/maps?q=25.121,121.462",
    "source": "第三方"
  },
  {
    "id": 439,
    "name": "台北市政府 水利工程處 雙溪右岸士林橋下游",
    "region": "其他",
    "city": "台北市/新北市/基隆市",
    "lat": 25.1,
    "lng": 121.523,
    "url": "https://heocctv1.gov.taipei/channel43",
    "map": "https://www.google.com/maps?q=25.1,121.523",
    "source": "第三方"
  },
  {
    "id": 440,
    "name": "台北市政府 水利工程處 雙溪右岸復興橋",
    "region": "其他",
    "city": "台北市/新北市/基隆市",
    "lat": 25.1011,
    "lng": 121.5366,
    "url": "https://heocctv4.gov.taipei/channel1",
    "map": "https://www.google.com/maps?q=25.1011,121.5366",
    "source": "第三方"
  },
  {
    "id": 441,
    "name": "台北市政府 水利工程處 雙溪橡皮壩1(農田水利會)",
    "region": "其他",
    "city": "台北市/新北市/基隆市",
    "lat": 25.0973,
    "lng": 121.511,
    "url": "https://heocctv3.gov.taipei/channel90",
    "map": "https://www.google.com/maps?q=25.0973,121.511",
    "source": "第三方"
  },
  {
    "id": 442,
    "name": "台北市政府 水利工程處 雙溪橡皮壩2(農田水利會)",
    "region": "其他",
    "city": "台北市/新北市/基隆市",
    "lat": 25.0974,
    "lng": 121.511,
    "url": "https://heocctv3.gov.taipei/channel91",
    "map": "https://www.google.com/maps?q=25.0974,121.511",
    "source": "第三方"
  },
  {
    "id": 443,
    "name": "台北市政府 水利工程處 雙溪橡皮壩3(農田水利會)",
    "region": "其他",
    "city": "台北市/新北市/基隆市",
    "lat": 25.0973,
    "lng": 121.511,
    "url": "https://heocctv3.gov.taipei/channel92",
    "map": "https://www.google.com/maps?q=25.0973,121.511",
    "source": "第三方"
  },
  {
    "id": 444,
    "name": "台北市道路 002-環快忠孝橋",
    "region": "其他",
    "city": "台北市/新北市/基隆市",
    "lat": 25.0493,
    "lng": 121.506,
    "url": "https://c01.第三方.com/cam/snapshot/tpe-000002.jpg",
    "map": "https://www.google.com/maps?q=25.0493,121.506",
    "source": "第三方"
  },
  {
    "id": 445,
    "name": "台北市道路 003-環快中興橋",
    "region": "其他",
    "city": "台北市/新北市/基隆市",
    "lat": 25.0442,
    "lng": 121.5007,
    "url": "https://c01.第三方.com/cam/snapshot/tpe-000003.jpg",
    "map": "https://www.google.com/maps?q=25.0442,121.5007",
    "source": "第三方"
  },
  {
    "id": 446,
    "name": "台北市道路 004-環快華江橋",
    "region": "其他",
    "city": "台北市/新北市/基隆市",
    "lat": 25.0353,
    "lng": 121.4904,
    "url": "https://c01.第三方.com/cam/snapshot/tpe-000004.jpg",
    "map": "https://www.google.com/maps?q=25.0353,121.4904",
    "source": "第三方"
  },
  {
    "id": 447,
    "name": "台北市道路 005-環快光復橋",
    "region": "其他",
    "city": "台北市/新北市/基隆市",
    "lat": 25.0248,
    "lng": 121.4913,
    "url": "https://c01.第三方.com/cam/snapshot/tpe-000005.jpg",
    "map": "https://www.google.com/maps?q=25.0248,121.4913",
    "source": "第三方"
  },
  {
    "id": 448,
    "name": "台北市道路 006-環快華中橋",
    "region": "其他",
    "city": "台北市/新北市/基隆市",
    "lat": 25.0167,
    "lng": 121.4953,
    "url": "https://c01.第三方.com/cam/snapshot/tpe-000006.jpg",
    "map": "https://www.google.com/maps?q=25.0167,121.4953",
    "source": "第三方"
  },
  {
    "id": 449,
    "name": "台北市道路 008-水源快師大",
    "region": "其他",
    "city": "台北市/新北市/基隆市",
    "lat": 25.0205,
    "lng": 121.5223,
    "url": "https://c01.第三方.com/cam/snapshot/tpe-000008.jpg",
    "map": "https://www.google.com/maps?q=25.0205,121.5223",
    "source": "第三方"
  },
  {
    "id": 450,
    "name": "台北市道路 009-辛亥快汀州",
    "region": "其他",
    "city": "台北市/新北市/基隆市",
    "lat": 25.0188,
    "lng": 121.5269,
    "url": "https://c01.第三方.com/cam/snapshot/tpe-000009.jpg",
    "map": "https://www.google.com/maps?q=25.0188,121.5269",
    "source": "第三方"
  },
  {
    "id": 451,
    "name": "台北市道路 010-辛亥快泰順",
    "region": "其他",
    "city": "台北市/新北市/基隆市",
    "lat": 25.0199,
    "lng": 121.5295,
    "url": "https://c01.第三方.com/cam/snapshot/tpe-000010.jpg",
    "map": "https://www.google.com/maps?q=25.0199,121.5295",
    "source": "第三方"
  },
  {
    "id": 452,
    "name": "台北市道路 011-辛亥快新生南",
    "region": "其他",
    "city": "台北市/新北市/基隆市",
    "lat": 25.0226,
    "lng": 121.5345,
    "url": "https://c01.第三方.com/cam/snapshot/tpe-000011.jpg",
    "map": "https://www.google.com/maps?q=25.0226,121.5345",
    "source": "第三方"
  },
  {
    "id": 453,
    "name": "台北市道路 012-建國快辛亥",
    "region": "其他",
    "city": "台北市/新北市/基隆市",
    "lat": 25.0224,
    "lng": 121.5364,
    "url": "https://c01.第三方.com/cam/snapshot/tpe-000012.jpg",
    "map": "https://www.google.com/maps?q=25.0224,121.5364",
    "source": "第三方"
  },
  {
    "id": 454,
    "name": "台北市道路 013-建國快和平",
    "region": "其他",
    "city": "台北市/新北市/基隆市",
    "lat": 25.0258,
    "lng": 121.5375,
    "url": "https://c01.第三方.com/cam/snapshot/tpe-000013.jpg",
    "map": "https://www.google.com/maps?q=25.0258,121.5375",
    "source": "第三方"
  },
  {
    "id": 455,
    "name": "台北市道路 014-建國快信義",
    "region": "其他",
    "city": "台北市/新北市/基隆市",
    "lat": 25.0335,
    "lng": 121.5377,
    "url": "https://c01.第三方.com/cam/snapshot/tpe-000014.jpg",
    "map": "https://www.google.com/maps?q=25.0335,121.5377",
    "source": "第三方"
  },
  {
    "id": 456,
    "name": "台北市道路 015-建國快仁愛",
    "region": "其他",
    "city": "台北市/新北市/基隆市",
    "lat": 25.0381,
    "lng": 121.538,
    "url": "https://c01.第三方.com/cam/snapshot/tpe-000015.jpg",
    "map": "https://www.google.com/maps?q=25.0381,121.538",
    "source": "第三方"
  },
  {
    "id": 457,
    "name": "台北市道路 016-建國快忠孝",
    "region": "其他",
    "city": "台北市/新北市/基隆市",
    "lat": 25.0416,
    "lng": 121.537,
    "url": "https://c01.第三方.com/cam/snapshot/tpe-000016.jpg",
    "map": "https://www.google.com/maps?q=25.0416,121.537",
    "source": "第三方"
  },
  {
    "id": 458,
    "name": "台北市道路 017-建國快長安",
    "region": "其他",
    "city": "台北市/新北市/基隆市",
    "lat": 25.0485,
    "lng": 121.5368,
    "url": "https://c01.第三方.com/cam/snapshot/tpe-000017.jpg",
    "map": "https://www.google.com/maps?q=25.0485,121.5368",
    "source": "第三方"
  },
  {
    "id": 459,
    "name": "台北市道路 018-建國快南京",
    "region": "其他",
    "city": "台北市/新北市/基隆市",
    "lat": 25.0519,
    "lng": 121.5366,
    "url": "https://c01.第三方.com/cam/snapshot/tpe-000018.jpg",
    "map": "https://www.google.com/maps?q=25.0519,121.5366",
    "source": "第三方"
  },
  {
    "id": 460,
    "name": "台北市道路 019-建國快民生",
    "region": "其他",
    "city": "台北市/新北市/基隆市",
    "lat": 25.058,
    "lng": 121.537,
    "url": "https://c01.第三方.com/cam/snapshot/tpe-000019.jpg",
    "map": "https://www.google.com/maps?q=25.058,121.537",
    "source": "第三方"
  },
  {
    "id": 461,
    "name": "台北市道路 020-建國快民權",
    "region": "其他",
    "city": "台北市/新北市/基隆市",
    "lat": 25.0623,
    "lng": 121.5369,
    "url": "https://c01.第三方.com/cam/snapshot/tpe-000020.jpg",
    "map": "https://www.google.com/maps?q=25.0623,121.5369",
    "source": "第三方"
  },
  {
    "id": 462,
    "name": "台北市道路 021-民族松江",
    "region": "其他",
    "city": "台北市/新北市/基隆市",
    "lat": 25.0683,
    "lng": 121.533,
    "url": "https://c01.第三方.com/cam/snapshot/tpe-000021.jpg",
    "map": "https://www.google.com/maps?q=25.0683,121.533",
    "source": "第三方"
  },
  {
    "id": 463,
    "name": "台北市道路 022-建國快圓山匝道",
    "region": "其他",
    "city": "台北市/新北市/基隆市",
    "lat": 25.0712,
    "lng": 121.5336,
    "url": "https://c01.第三方.com/cam/snapshot/tpe-000022.jpg",
    "map": "https://www.google.com/maps?q=25.0712,121.5336",
    "source": "第三方"
  },
  {
    "id": 464,
    "name": "台北市道路 023-水源快永福橋",
    "region": "其他",
    "city": "台北市/新北市/基隆市",
    "lat": 25.012,
    "lng": 121.5281,
    "url": "https://heocctv4.gov.taipei/channel14",
    "map": "https://www.google.com/maps?q=25.012,121.5281",
    "source": "第三方"
  },
  {
    "id": 465,
    "name": "台北市道路 024-水源快福和橋",
    "region": "其他",
    "city": "台北市/新北市/基隆市",
    "lat": 25.0086,
    "lng": 121.5324,
    "url": "https://c01.第三方.com/cam/snapshot/tpe-000024.jpg",
    "map": "https://www.google.com/maps?q=25.0086,121.5324",
    "source": "第三方"
  },
  {
    "id": 466,
    "name": "台北市道路 025-基隆快羅斯",
    "region": "其他",
    "city": "台北市/新北市/基隆市",
    "lat": 25.0113,
    "lng": 121.5372,
    "url": "https://c01.第三方.com/cam/snapshot/tpe-000025.jpg",
    "map": "https://www.google.com/maps?q=25.0113,121.5372",
    "source": "第三方"
  },
  {
    "id": 467,
    "name": "台北市道路 026-基隆快辛亥",
    "region": "其他",
    "city": "台北市/新北市/基隆市",
    "lat": 25.019,
    "lng": 121.5468,
    "url": "https://c01.第三方.com/cam/snapshot/tpe-000026.jpg",
    "map": "https://www.google.com/maps?q=25.019,121.5468",
    "source": "第三方"
  },
  {
    "id": 468,
    "name": "台北市道路 038-基隆永吉",
    "region": "其他",
    "city": "台北市/新北市/基隆市",
    "lat": 25.0455,
    "lng": 121.5669,
    "url": "https://c01.第三方.com/cam/snapshot/tpe-000038.jpg",
    "map": "https://www.google.com/maps?q=25.0455,121.5669",
    "source": "第三方"
  },
  {
    "id": 469,
    "name": "台北市道路 039-環河民生",
    "region": "其他",
    "city": "台北市/新北市/基隆市",
    "lat": 25.0568,
    "lng": 121.5084,
    "url": "https://heocctv2.gov.taipei/channel25",
    "map": "https://www.google.com/maps?q=25.0568,121.5084",
    "source": "第三方"
  },
  {
    "id": 470,
    "name": "台北市道路 040-民權西台北橋",
    "region": "其他",
    "city": "台北市/新北市/基隆市",
    "lat": 25.0634,
    "lng": 121.5088,
    "url": "https://heocctv2.gov.taipei/channel29",
    "map": "https://www.google.com/maps?q=25.0634,121.5088",
    "source": "第三方"
  },
  {
    "id": 471,
    "name": "台北市道路 041-環河北敦煌",
    "region": "其他",
    "city": "台北市/新北市/基隆市",
    "lat": 25.0761,
    "lng": 121.5086,
    "url": "https://cctvn.freeway.gov.tw/abs2mjpg/bmjpg?camera=12550",
    "map": "https://www.google.com/maps?q=25.0761,121.5086",
    "source": "第三方"
  },
  {
    "id": 472,
    "name": "台北市道路 042-承德中正",
    "region": "其他",
    "city": "台北市/新北市/基隆市",
    "lat": 25.091,
    "lng": 121.516,
    "url": "https://c01.第三方.com/cam/snapshot/tpe-000042.jpg",
    "map": "https://www.google.com/maps?q=25.091,121.516",
    "source": "第三方"
  },
  {
    "id": 473,
    "name": "台北市道路 043-重慶北交流道",
    "region": "其他",
    "city": "台北市/新北市/基隆市",
    "lat": 25.0812,
    "lng": 121.513,
    "url": "https://c01.第三方.com/cam/snapshot/tpe-000043.jpg",
    "map": "https://www.google.com/maps?q=25.0812,121.513",
    "source": "第三方"
  },
  {
    "id": 474,
    "name": "台北市道路 044-圓山中山橋",
    "region": "其他",
    "city": "台北市/新北市/基隆市",
    "lat": 25.0763,
    "lng": 121.5253,
    "url": "https://heocctv2.gov.taipei/channel23",
    "map": "https://www.google.com/maps?q=25.0763,121.5253",
    "source": "第三方"
  },
  {
    "id": 475,
    "name": "台北市道路 045-大直橋",
    "region": "其他",
    "city": "台北市/新北市/基隆市",
    "lat": 25.077,
    "lng": 121.5447,
    "url": "https://heocctv2.gov.taipei/channel24",
    "map": "https://www.google.com/maps?q=25.077,121.5447",
    "source": "第三方"
  },
  {
    "id": 476,
    "name": "台北市道路 046-民權大橋",
    "region": "其他",
    "city": "台北市/新北市/基隆市",
    "lat": 25.0634,
    "lng": 121.5684,
    "url": "https://c01.第三方.com/cam/snapshot/tpe-000046.jpg",
    "map": "https://www.google.com/maps?q=25.0634,121.5684",
    "source": "第三方"
  },
  {
    "id": 477,
    "name": "台北市道路 048-中正重陽橋",
    "region": "其他",
    "city": "台北市/新北市/基隆市",
    "lat": 25.0857,
    "lng": 121.5058,
    "url": "https://c01.第三方.com/cam/snapshot/tpe-000048.jpg",
    "map": "https://www.google.com/maps?q=25.0857,121.5058",
    "source": "第三方"
  },
  {
    "id": 478,
    "name": "台北市道路 056-環東快進城南湖大橋",
    "region": "其他",
    "city": "台北市/新北市/基隆市",
    "lat": 25.0613,
    "lng": 121.6112,
    "url": "https://c01.第三方.com/cam/snapshot/tpe-000056.jpg",
    "map": "https://www.google.com/maps?q=25.0613,121.6112",
    "source": "第三方"
  },
  {
    "id": 479,
    "name": "台北市道路 057-環東快經貿一路匝道",
    "region": "其他",
    "city": "台北市/新北市/基隆市",
    "lat": 25.0629,
    "lng": 121.6162,
    "url": "https://c01.第三方.com/cam/snapshot/tpe-000057.jpg",
    "map": "https://www.google.com/maps?q=25.0629,121.6162",
    "source": "第三方"
  },
  {
    "id": 480,
    "name": "台北市道路 058-三重南港",
    "region": "其他",
    "city": "台北市/新北市/基隆市",
    "lat": 25.055,
    "lng": 121.6141,
    "url": "https://c01.第三方.com/cam/snapshot/tpe-000058.jpg",
    "map": "https://www.google.com/maps?q=25.055,121.6141",
    "source": "第三方"
  },
  {
    "id": 481,
    "name": "台北市道路 059-經貿二南港",
    "region": "其他",
    "city": "台北市/新北市/基隆市",
    "lat": 25.0551,
    "lng": 121.6166,
    "url": "https://c01.第三方.com/cam/snapshot/tpe-000059.jpg",
    "map": "https://www.google.com/maps?q=25.0551,121.6166",
    "source": "第三方"
  },
  {
    "id": 482,
    "name": "台北市道路 060-環東匝道",
    "region": "其他",
    "city": "台北市/新北市/基隆市",
    "lat": 25.0594,
    "lng": 121.6194,
    "url": "https://c01.第三方.com/cam/snapshot/tpe-000060.jpg",
    "map": "https://www.google.com/maps?q=25.0594,121.6194",
    "source": "第三方"
  },
  {
    "id": 483,
    "name": "台北市道路 061-南湖大橋三重路",
    "region": "其他",
    "city": "台北市/新北市/基隆市",
    "lat": 25.0606,
    "lng": 121.6145,
    "url": "https://c01.第三方.com/cam/snapshot/tpe-000061.jpg",
    "map": "https://www.google.com/maps?q=25.0606,121.6145",
    "source": "第三方"
  },
  {
    "id": 484,
    "name": "台北市道路 063-洲美快道福國匝道",
    "region": "其他",
    "city": "台北市/新北市/基隆市",
    "lat": 25.1012,
    "lng": 121.4991,
    "url": "https://c01.第三方.com/cam/snapshot/tpe-000063.jpg",
    "map": "https://www.google.com/maps?q=25.1012,121.4991",
    "source": "第三方"
  },
  {
    "id": 485,
    "name": "台北市道路 064-洲美快13號道路匝道前",
    "region": "其他",
    "city": "台北市/新北市/基隆市",
    "lat": 25.1061,
    "lng": 121.4991,
    "url": "https://c01.第三方.com/cam/snapshot/tpe-000064.jpg",
    "map": "https://www.google.com/maps?q=25.1061,121.4991",
    "source": "第三方"
  },
  {
    "id": 486,
    "name": "台北市道路 065-洲美快焚化爐前",
    "region": "其他",
    "city": "台北市/新北市/基隆市",
    "lat": 25.1081,
    "lng": 121.4987,
    "url": "https://c01.第三方.com/cam/snapshot/tpe-000065.jpg",
    "map": "https://www.google.com/maps?q=25.1081,121.4987",
    "source": "第三方"
  },
  {
    "id": 487,
    "name": "台北市道路 066-洲美快13號道路",
    "region": "其他",
    "city": "台北市/新北市/基隆市",
    "lat": 25.112,
    "lng": 121.4987,
    "url": "https://c01.第三方.com/cam/snapshot/tpe-000066.jpg",
    "map": "https://www.google.com/maps?q=25.112,121.4987",
    "source": "第三方"
  },
  {
    "id": 488,
    "name": "台北市道路 067-洲美快大業路匝道",
    "region": "其他",
    "city": "台北市/新北市/基隆市",
    "lat": 25.117,
    "lng": 121.4997,
    "url": "https://c01.第三方.com/cam/snapshot/tpe-000067.jpg",
    "map": "https://www.google.com/maps?q=25.117,121.4997",
    "source": "第三方"
  },
  {
    "id": 489,
    "name": "台北市道路 068-大業大度",
    "region": "其他",
    "city": "台北市/新北市/基隆市",
    "lat": 25.1211,
    "lng": 121.4997,
    "url": "https://c01.第三方.com/cam/snapshot/tpe-000068.jpg",
    "map": "https://www.google.com/maps?q=25.1211,121.4997",
    "source": "第三方"
  },
  {
    "id": 490,
    "name": "台北市道路 069-環河北中正",
    "region": "其他",
    "city": "台北市/新北市/基隆市",
    "lat": 25.0857,
    "lng": 121.5055,
    "url": "https://c01.第三方.com/cam/snapshot/tpe-000069.jpg",
    "map": "https://www.google.com/maps?q=25.0857,121.5055",
    "source": "第三方"
  },
  {
    "id": 491,
    "name": "台北市道路 070-延平社中",
    "region": "其他",
    "city": "台北市/新北市/基隆市",
    "lat": 25.0905,
    "lng": 121.501,
    "url": "https://c01.第三方.com/cam/snapshot/tpe-000070.jpg",
    "map": "https://www.google.com/maps?q=25.0905,121.501",
    "source": "第三方"
  },
  {
    "id": 492,
    "name": "台北市道路 071-延平北通河西",
    "region": "其他",
    "city": "台北市/新北市/基隆市",
    "lat": 25.0938,
    "lng": 121.4975,
    "url": "https://c01.第三方.com/cam/snapshot/tpe-000071.jpg",
    "map": "https://www.google.com/maps?q=25.0938,121.4975",
    "source": "第三方"
  },
  {
    "id": 493,
    "name": "台北市道路 072-延平北通河西(堤防)",
    "region": "其他",
    "city": "台北市/新北市/基隆市",
    "lat": 25.0944,
    "lng": 121.4974,
    "url": "https://c01.第三方.com/cam/snapshot/tpe-000072.jpg",
    "map": "https://www.google.com/maps?q=25.0944,121.4974",
    "source": "第三方"
  },
  {
    "id": 494,
    "name": "台北市道路 073-信義快萬芳交流道",
    "region": "其他",
    "city": "台北市/新北市/基隆市",
    "lat": 25.0042,
    "lng": 121.5804,
    "url": "https://c01.第三方.com/cam/snapshot/tpe-000073.jpg",
    "map": "https://www.google.com/maps?q=25.0042,121.5804",
    "source": "第三方"
  },
  {
    "id": 495,
    "name": "台北市道路 074-信義松德",
    "region": "其他",
    "city": "台北市/新北市/基隆市",
    "lat": 25.0331,
    "lng": 121.5741,
    "url": "https://c01.第三方.com/cam/snapshot/tpe-000074.jpg",
    "map": "https://www.google.com/maps?q=25.0331,121.5741",
    "source": "第三方"
  },
  {
    "id": 496,
    "name": "台北市道路 075-信義松仁",
    "region": "其他",
    "city": "台北市/新北市/基隆市",
    "lat": 25.0326,
    "lng": 121.5682,
    "url": "https://c01.第三方.com/cam/snapshot/tpe-000075.jpg",
    "map": "https://www.google.com/maps?q=25.0326,121.5682",
    "source": "第三方"
  },
  {
    "id": 497,
    "name": "台北市道路 076-新生高圓山",
    "region": "其他",
    "city": "台北市/新北市/基隆市",
    "lat": 25.0743,
    "lng": 121.5256,
    "url": "https://cctvn.freeway.gov.tw/abs2mjpg/bmjpg?camera=12390",
    "map": "https://www.google.com/maps?q=25.0743,121.5256",
    "source": "第三方"
  },
  {
    "id": 498,
    "name": "台北市道路 077-環河快詔安街",
    "region": "其他",
    "city": "台北市/新北市/基隆市",
    "lat": 25.024,
    "lng": 121.5146,
    "url": "https://c01.第三方.com/cam/snapshot/tpe-000077.jpg",
    "map": "https://www.google.com/maps?q=25.024,121.5146",
    "source": "第三方"
  },
  {
    "id": 499,
    "name": "台北市道路 078-環河快泉州街",
    "region": "其他",
    "city": "台北市/新北市/基隆市",
    "lat": 25.0241,
    "lng": 121.5122,
    "url": "https://c01.第三方.com/cam/snapshot/tpe-000078.jpg",
    "map": "https://www.google.com/maps?q=25.0241,121.5122",
    "source": "第三方"
  },
  {
    "id": 500,
    "name": "台北市道路 079-復興辛亥",
    "region": "其他",
    "city": "台北市/新北市/基隆市",
    "lat": 25.0216,
    "lng": 121.5433,
    "url": "https://c01.第三方.com/cam/snapshot/tpe-000079.jpg",
    "map": "https://www.google.com/maps?q=25.0216,121.5433",
    "source": "第三方"
  },
  {
    "id": 501,
    "name": "台北市道路 084-水源快溪州街口",
    "region": "其他",
    "city": "台北市/新北市/基隆市",
    "lat": 25.0059,
    "lng": 121.5342,
    "url": "https://c01.第三方.com/cam/snapshot/tpe-000084.jpg",
    "map": "https://www.google.com/maps?q=25.0059,121.5342",
    "source": "第三方"
  },
  {
    "id": 503,
    "name": "台北市道路 086-水源快景美入口匝道",
    "region": "其他",
    "city": "台北市/新北市/基隆市",
    "lat": 25.0001,
    "lng": 121.5353,
    "url": "https://c01.第三方.com/cam/snapshot/tpe-000086.jpg",
    "map": "https://www.google.com/maps?q=25.0001,121.5353",
    "source": "第三方"
  },
  {
    "id": 504,
    "name": "台北市道路 087-基隆快樂業街口",
    "region": "其他",
    "city": "台北市/新北市/基隆市",
    "lat": 25.0223,
    "lng": 121.5502,
    "url": "https://c01.第三方.com/cam/snapshot/tpe-000087.jpg",
    "map": "https://www.google.com/maps?q=25.0223,121.5502",
    "source": "第三方"
  },
  {
    "id": 505,
    "name": "台北市道路 088-基隆快敦化南路",
    "region": "其他",
    "city": "台北市/新北市/基隆市",
    "lat": 25.0211,
    "lng": 121.5486,
    "url": "https://c01.第三方.com/cam/snapshot/tpe-000088.jpg",
    "map": "https://www.google.com/maps?q=25.0211,121.5486",
    "source": "第三方"
  },
  {
    "id": 506,
    "name": "台北市道路 089-基隆快辛亥出口匝道",
    "region": "其他",
    "city": "台北市/新北市/基隆市",
    "lat": 25.0149,
    "lng": 121.5417,
    "url": "https://c01.第三方.com/cam/snapshot/tpe-000089.jpg",
    "map": "https://www.google.com/maps?q=25.0149,121.5417",
    "source": "第三方"
  },
  {
    "id": 507,
    "name": "台北市道路 090-建國快松江",
    "region": "其他",
    "city": "台北市/新北市/基隆市",
    "lat": 25.0673,
    "lng": 121.534,
    "url": "https://c01.第三方.com/cam/snapshot/tpe-000090.jpg",
    "map": "https://www.google.com/maps?q=25.0673,121.534",
    "source": "第三方"
  },
  {
    "id": 508,
    "name": "台北市道路 091-中山北安",
    "region": "其他",
    "city": "台北市/新北市/基隆市",
    "lat": 25.076,
    "lng": 121.5268,
    "url": "https://heocctv2.gov.taipei/channel23",
    "map": "https://www.google.com/maps?q=25.076,121.5268",
    "source": "第三方"
  },
  {
    "id": 509,
    "name": "台北市道路 102-東湖隧道北向0K+295M",
    "region": "其他",
    "city": "台北市/新北市/基隆市",
    "lat": 25.0809,
    "lng": 121.6091,
    "url": "https://c01.第三方.com/cam/snapshot/tpe-000102.jpg",
    "map": "https://www.google.com/maps?q=25.0809,121.6091",
    "source": "第三方"
  },
  {
    "id": 510,
    "name": "台北市道路 103-東湖隧道南向0K+593M",
    "region": "其他",
    "city": "台北市/新北市/基隆市",
    "lat": 25.0794,
    "lng": 121.6107,
    "url": "https://c01.第三方.com/cam/snapshot/tpe-000103.jpg",
    "map": "https://www.google.com/maps?q=25.0794,121.6107",
    "source": "第三方"
  },
  {
    "id": 511,
    "name": "台北市道路 104-東湖隧道南向0K+770M",
    "region": "其他",
    "city": "台北市/新北市/基隆市",
    "lat": 25.0782,
    "lng": 121.6126,
    "url": "https://c01.第三方.com/cam/snapshot/tpe-000104.jpg",
    "map": "https://www.google.com/maps?q=25.0782,121.6126",
    "source": "第三方"
  },
  {
    "id": 512,
    "name": "台北市道路 105-東湖隧道北向1K+115M",
    "region": "其他",
    "city": "台北市/新北市/基隆市",
    "lat": 25.0784,
    "lng": 121.6161,
    "url": "https://c01.第三方.com/cam/snapshot/tpe-000105.jpg",
    "map": "https://www.google.com/maps?q=25.0784,121.6161",
    "source": "第三方"
  },
  {
    "id": 513,
    "name": "台北市道路 106-東湖隧道南向1K+245M",
    "region": "其他",
    "city": "台北市/新北市/基隆市",
    "lat": 25.0786,
    "lng": 121.6175,
    "url": "https://c01.第三方.com/cam/snapshot/tpe-000106.jpg",
    "map": "https://www.google.com/maps?q=25.0786,121.6175",
    "source": "第三方"
  },
  {
    "id": 514,
    "name": "台北市道路 107-東湖隧道北向1K+500M",
    "region": "其他",
    "city": "台北市/新北市/基隆市",
    "lat": 25.0796,
    "lng": 121.6196,
    "url": "https://c01.第三方.com/cam/snapshot/tpe-000107.jpg",
    "map": "https://www.google.com/maps?q=25.0796,121.6196",
    "source": "第三方"
  },
  {
    "id": 515,
    "name": "台北市道路 108-東湖隧道北向1K+777M",
    "region": "其他",
    "city": "台北市/新北市/基隆市",
    "lat": 25.0786,
    "lng": 121.6223,
    "url": "https://c01.第三方.com/cam/snapshot/tpe-000108.jpg",
    "map": "https://www.google.com/maps?q=25.0786,121.6223",
    "source": "第三方"
  },
  {
    "id": 516,
    "name": "台北市道路 109-內湖環山",
    "region": "其他",
    "city": "台北市/新北市/基隆市",
    "lat": 25.0821,
    "lng": 121.5653,
    "url": "https://c01.第三方.com/cam/snapshot/tpe-000109.jpg",
    "map": "https://www.google.com/maps?q=25.0821,121.5653",
    "source": "第三方"
  },
  {
    "id": 517,
    "name": "台北市道路 110-堤頂大道2段-樂群一路",
    "region": "其他",
    "city": "台北市/新北市/基隆市",
    "lat": 25.0773,
    "lng": 121.57,
    "url": "https://c01.第三方.com/cam/snapshot/tpe-000110.jpg",
    "map": "https://www.google.com/maps?q=25.0773,121.57",
    "source": "第三方"
  },
  {
    "id": 518,
    "name": "台北市道路 111-堤頂基湖(東南角)",
    "region": "其他",
    "city": "台北市/新北市/基隆市",
    "lat": 25.0786,
    "lng": 121.5641,
    "url": "https://c01.第三方.com/cam/snapshot/tpe-000111.jpg",
    "map": "https://www.google.com/maps?q=25.0786,121.5641",
    "source": "第三方"
  },
  {
    "id": 519,
    "name": "台北市道路 112-堤頂基湖(西南角)",
    "region": "其他",
    "city": "台北市/新北市/基隆市",
    "lat": 25.079,
    "lng": 121.564,
    "url": "https://c01.第三方.com/cam/snapshot/tpe-000112.jpg",
    "map": "https://www.google.com/maps?q=25.079,121.564",
    "source": "第三方"
  },
  {
    "id": 520,
    "name": "台北市道路 113-瑞光港墘",
    "region": "其他",
    "city": "台北市/新北市/基隆市",
    "lat": 25.0762,
    "lng": 121.5748,
    "url": "https://c01.第三方.com/cam/snapshot/tpe-000113.jpg",
    "map": "https://www.google.com/maps?q=25.0762,121.5748",
    "source": "第三方"
  },
  {
    "id": 521,
    "name": "台北市道路 115-舊宗路2段181巷口",
    "region": "其他",
    "city": "台北市/新北市/基隆市",
    "lat": 25.0717,
    "lng": 121.5744,
    "url": "https://c01.第三方.com/cam/snapshot/tpe-000115.jpg",
    "map": "https://www.google.com/maps?q=25.0717,121.5744",
    "source": "第三方"
  },
  {
    "id": 522,
    "name": "台北市道路 117- 舊宗路2段與民權東路6段11巷25弄口",
    "region": "其他",
    "city": "台北市/新北市/基隆市",
    "lat": 25.0675,
    "lng": 121.5748,
    "url": "https://c01.第三方.com/cam/snapshot/tpe-000117.jpg",
    "map": "https://www.google.com/maps?q=25.0675,121.5748",
    "source": "第三方"
  },
  {
    "id": 523,
    "name": "台北市道路 119-堤頂-民權東路6段(橋上)",
    "region": "其他",
    "city": "台北市/新北市/基隆市",
    "lat": 25.0647,
    "lng": 121.5724,
    "url": "https://c01.第三方.com/cam/snapshot/tpe-000119.jpg",
    "map": "https://www.google.com/maps?q=25.0647,121.5724",
    "source": "第三方"
  },
  {
    "id": 524,
    "name": "台北市道路 120-民權東路6段與堤頂大道1段路口號誌桿",
    "region": "其他",
    "city": "台北市/新北市/基隆市",
    "lat": 25.0649,
    "lng": 121.5723,
    "url": "https://c01.第三方.com/cam/snapshot/tpe-000120.jpg",
    "map": "https://www.google.com/maps?q=25.0649,121.5723",
    "source": "第三方"
  },
  {
    "id": 526,
    "name": "台北市道路 122-新明路成美橋",
    "region": "其他",
    "city": "台北市/新北市/基隆市",
    "lat": 25.0556,
    "lng": 121.5822,
    "url": "https://c01.第三方.com/cam/snapshot/tpe-000122.jpg",
    "map": "https://www.google.com/maps?q=25.0556,121.5822",
    "source": "第三方"
  },
  {
    "id": 527,
    "name": "台北市道路 124-康寧東湖",
    "region": "其他",
    "city": "台北市/新北市/基隆市",
    "lat": 25.069,
    "lng": 121.6122,
    "url": "https://c01.第三方.com/cam/snapshot/tpe-000124.jpg",
    "map": "https://www.google.com/maps?q=25.069,121.6122",
    "source": "第三方"
  },
  {
    "id": 528,
    "name": "台北市道路 125-辛亥路三段330號(二殯西北角)",
    "region": "其他",
    "city": "台北市/新北市/基隆市",
    "lat": 25.0137,
    "lng": 121.5531,
    "url": "https://cctvn.freeway.gov.tw/abs2mjpg/bmjpg?camera=90070",
    "map": "https://www.google.com/maps?q=25.0137,121.5531",
    "source": "第三方"
  },
  {
    "id": 529,
    "name": "台北市道路 126-芳蘭路-基隆路三段155巷176弄",
    "region": "其他",
    "city": "台北市/新北市/基隆市",
    "lat": 25.0143,
    "lng": 121.547,
    "url": "https://c01.第三方.com/cam/snapshot/tpe-000126.jpg",
    "map": "https://www.google.com/maps?q=25.0143,121.547",
    "source": "第三方"
  },
  {
    "id": 530,
    "name": "台北市道路 127-辛亥路-芳蘭路",
    "region": "其他",
    "city": "台北市/新北市/基隆市",
    "lat": 25.0168,
    "lng": 121.5489,
    "url": "https://c01.第三方.com/cam/snapshot/tpe-000127.jpg",
    "map": "https://www.google.com/maps?q=25.0168,121.5489",
    "source": "第三方"
  },
  {
    "id": 531,
    "name": "台北市道路 128-信義松智東南角",
    "region": "其他",
    "city": "台北市/新北市/基隆市",
    "lat": 25.0329,
    "lng": 121.5655,
    "url": "https://c01.第三方.com/cam/snapshot/tpe-000128.jpg",
    "map": "https://www.google.com/maps?q=25.0329,121.5655",
    "source": "第三方"
  },
  {
    "id": 532,
    "name": "台北市道路 129-忠孝光復",
    "region": "其他",
    "city": "台北市/新北市/基隆市",
    "lat": 25.0414,
    "lng": 121.5577,
    "url": "https://c01.第三方.com/cam/snapshot/tpe-000129.jpg",
    "map": "https://www.google.com/maps?q=25.0414,121.5577",
    "source": "第三方"
  },
  {
    "id": 533,
    "name": "台北市道路 131-忠孝松山",
    "region": "其他",
    "city": "台北市/新北市/基隆市",
    "lat": 25.0409,
    "lng": 121.5781,
    "url": "https://c01.第三方.com/cam/snapshot/tpe-000131.jpg",
    "map": "https://www.google.com/maps?q=25.0409,121.5781",
    "source": "第三方"
  },
  {
    "id": 534,
    "name": "台北市道路 132-仁愛光復",
    "region": "其他",
    "city": "台北市/新北市/基隆市",
    "lat": 25.0377,
    "lng": 121.5578,
    "url": "https://c01.第三方.com/cam/snapshot/tpe-000132.jpg",
    "map": "https://www.google.com/maps?q=25.0377,121.5578",
    "source": "第三方"
  },
  {
    "id": 535,
    "name": "台北市道路 133-松高松智",
    "region": "其他",
    "city": "台北市/新北市/基隆市",
    "lat": 25.0392,
    "lng": 121.5656,
    "url": "https://c01.第三方.com/cam/snapshot/tpe-000133.jpg",
    "map": "https://www.google.com/maps?q=25.0392,121.5656",
    "source": "第三方"
  },
  {
    "id": 536,
    "name": "台北市道路 134-松仁松壽",
    "region": "其他",
    "city": "台北市/新北市/基隆市",
    "lat": 25.0358,
    "lng": 121.5683,
    "url": "https://c01.第三方.com/cam/snapshot/tpe-000134.jpg",
    "map": "https://www.google.com/maps?q=25.0358,121.5683",
    "source": "第三方"
  },
  {
    "id": 537,
    "name": "台北市道路 135-基隆信義",
    "region": "其他",
    "city": "台北市/新北市/基隆市",
    "lat": 25.033,
    "lng": 121.5598,
    "url": "https://c01.第三方.com/cam/snapshot/tpe-000135.jpg",
    "map": "https://www.google.com/maps?q=25.033,121.5598",
    "source": "第三方"
  },
  {
    "id": 538,
    "name": "台北市道路 136-基隆光復",
    "region": "其他",
    "city": "台北市/新北市/基隆市",
    "lat": 25.0298,
    "lng": 121.5576,
    "url": "https://c01.第三方.com/cam/snapshot/tpe-000136.jpg",
    "map": "https://www.google.com/maps?q=25.0298,121.5576",
    "source": "第三方"
  },
  {
    "id": 539,
    "name": "台北市道路 137-市府西南(松壽市府)",
    "region": "其他",
    "city": "台北市/新北市/基隆市",
    "lat": 25.0361,
    "lng": 121.5638,
    "url": "https://c01.第三方.com/cam/snapshot/tpe-000137.jpg",
    "map": "https://www.google.com/maps?q=25.0361,121.5638",
    "source": "第三方"
  },
  {
    "id": 540,
    "name": "台北市道路 138-市府東南(松壽松智)",
    "region": "其他",
    "city": "台北市/新北市/基隆市",
    "lat": 25.0361,
    "lng": 121.5652,
    "url": "https://c01.第三方.com/cam/snapshot/tpe-000138.jpg",
    "map": "https://www.google.com/maps?q=25.0361,121.5652",
    "source": "第三方"
  },
  {
    "id": 541,
    "name": "台北市道路 139-市府東北(松高松智)",
    "region": "其他",
    "city": "台北市/新北市/基隆市",
    "lat": 25.0389,
    "lng": 121.5653,
    "url": "https://c01.第三方.com/cam/snapshot/tpe-000139.jpg",
    "map": "https://www.google.com/maps?q=25.0389,121.5653",
    "source": "第三方"
  },
  {
    "id": 542,
    "name": "台北市道路 140-市府西北(松高市府)",
    "region": "其他",
    "city": "台北市/新北市/基隆市",
    "lat": 25.0389,
    "lng": 121.5638,
    "url": "https://c01.第三方.com/cam/snapshot/tpe-000140.jpg",
    "map": "https://www.google.com/maps?q=25.0389,121.5638",
    "source": "第三方"
  },
  {
    "id": 543,
    "name": "台北市道路 141-北安明水(近大直橋)",
    "region": "其他",
    "city": "台北市/新北市/基隆市",
    "lat": 25.0858,
    "lng": 121.5516,
    "url": "https://c01.第三方.com/cam/snapshot/tpe-000141.jpg",
    "map": "https://www.google.com/maps?q=25.0858,121.5516",
    "source": "第三方"
  },
  {
    "id": 544,
    "name": "台北市道路 142-北安明水(近自強隧道)",
    "region": "其他",
    "city": "台北市/新北市/基隆市",
    "lat": 25.0859,
    "lng": 121.5528,
    "url": "https://c01.第三方.com/cam/snapshot/tpe-000142.jpg",
    "map": "https://www.google.com/maps?q=25.0859,121.5528",
    "source": "第三方"
  },
  {
    "id": 545,
    "name": "台北市道路 143-內湖堤頂(西側)",
    "region": "其他",
    "city": "台北市/新北市/基隆市",
    "lat": 25.0842,
    "lng": 121.5608,
    "url": "https://c01.第三方.com/cam/snapshot/tpe-000143.jpg",
    "map": "https://www.google.com/maps?q=25.0842,121.5608",
    "source": "第三方"
  },
  {
    "id": 546,
    "name": "台北市道路 145-內湖港墘",
    "region": "其他",
    "city": "台北市/新北市/基隆市",
    "lat": 25.0796,
    "lng": 121.5766,
    "url": "https://c01.第三方.com/cam/snapshot/tpe-000145.jpg",
    "map": "https://www.google.com/maps?q=25.0796,121.5766",
    "source": "第三方"
  },
  {
    "id": 547,
    "name": "台北市道路 146-成功文德",
    "region": "其他",
    "city": "台北市/新北市/基隆市",
    "lat": 25.0793,
    "lng": 121.5896,
    "url": "https://c01.第三方.com/cam/snapshot/tpe-000146.jpg",
    "map": "https://www.google.com/maps?q=25.0793,121.5896",
    "source": "第三方"
  },
  {
    "id": 548,
    "name": "台北市道路 148-敬業三路樂群二路",
    "region": "其他",
    "city": "台北市/新北市/基隆市",
    "lat": 25.0799,
    "lng": 121.5561,
    "url": "https://c01.第三方.com/cam/snapshot/tpe-000148.jpg",
    "map": "https://www.google.com/maps?q=25.0799,121.5561",
    "source": "第三方"
  },
  {
    "id": 549,
    "name": "台北市道路 149-瑞光路478巷口",
    "region": "其他",
    "city": "台北市/新北市/基隆市",
    "lat": 25.079,
    "lng": 121.5694,
    "url": "https://c01.第三方.com/cam/snapshot/tpe-000149.jpg",
    "map": "https://www.google.com/maps?q=25.079,121.5694",
    "source": "第三方"
  },
  {
    "id": 550,
    "name": "台北市道路 150-瑞光陽光(瑞光社宅)",
    "region": "其他",
    "city": "台北市/新北市/基隆市",
    "lat": 25.0736,
    "lng": 121.5791,
    "url": "https://c01.第三方.com/cam/snapshot/tpe-000150.jpg",
    "map": "https://www.google.com/maps?q=25.0736,121.5791",
    "source": "第三方"
  },
  {
    "id": 551,
    "name": "台北市道路 152-堤頂大道1段與港墘路口往北",
    "region": "其他",
    "city": "台北市/新北市/基隆市",
    "lat": 25.0746,
    "lng": 121.5724,
    "url": "https://c01.第三方.com/cam/snapshot/tpe-000152.jpg",
    "map": "https://www.google.com/maps?q=25.0746,121.5724",
    "source": "第三方"
  },
  {
    "id": 552,
    "name": "台北市道路 154-民權瑞光",
    "region": "其他",
    "city": "台北市/新北市/基隆市",
    "lat": 25.0686,
    "lng": 121.584,
    "url": "https://c01.第三方.com/cam/snapshot/tpe-000154.jpg",
    "map": "https://www.google.com/maps?q=25.0686,121.584",
    "source": "第三方"
  },
  {
    "id": 553,
    "name": "台北市道路 155-民權成功",
    "region": "其他",
    "city": "台北市/新北市/基隆市",
    "lat": 25.069,
    "lng": 121.5906,
    "url": "https://c01.第三方.com/cam/snapshot/tpe-000155.jpg",
    "map": "https://www.google.com/maps?q=25.069,121.5906",
    "source": "第三方"
  },
  {
    "id": 554,
    "name": "台北市道路 156-舊宗新湖二路",
    "region": "其他",
    "city": "台北市/新北市/基隆市",
    "lat": 25.0618,
    "lng": 121.5782,
    "url": "https://c01.第三方.com/cam/snapshot/tpe-000156.jpg",
    "map": "https://www.google.com/maps?q=25.0618,121.5782",
    "source": "第三方"
  },
  {
    "id": 555,
    "name": "台北市道路 157-中山劍潭(東側)",
    "region": "其他",
    "city": "台北市/新北市/基隆市",
    "lat": 25.084,
    "lng": 121.5256,
    "url": "https://c01.第三方.com/cam/snapshot/tpe-000157.jpg",
    "map": "https://www.google.com/maps?q=25.084,121.5256",
    "source": "第三方"
  },
  {
    "id": 556,
    "name": "台北市道路 158-延平民權(進城)",
    "region": "其他",
    "city": "台北市/新北市/基隆市",
    "lat": 25.0631,
    "lng": 121.5112,
    "url": "https://c01.第三方.com/cam/snapshot/tpe-000158.jpg",
    "map": "https://www.google.com/maps?q=25.0631,121.5112",
    "source": "第三方"
  },
  {
    "id": 557,
    "name": "台北市道路 159-延平民權(出城)",
    "region": "其他",
    "city": "台北市/新北市/基隆市",
    "lat": 25.0628,
    "lng": 121.5113,
    "url": "https://c01.第三方.com/cam/snapshot/tpe-000159.jpg",
    "map": "https://www.google.com/maps?q=25.0628,121.5113",
    "source": "第三方"
  },
  {
    "id": 558,
    "name": "台北市道路 160-民權承德(西側)",
    "region": "其他",
    "city": "台北市/新北市/基隆市",
    "lat": 25.0629,
    "lng": 121.5181,
    "url": "https://c01.第三方.com/cam/snapshot/tpe-000160.jpg",
    "map": "https://www.google.com/maps?q=25.0629,121.5181",
    "source": "第三方"
  },
  {
    "id": 559,
    "name": "台北市道路 161-民權承德(東側)",
    "region": "其他",
    "city": "台北市/新北市/基隆市",
    "lat": 25.0629,
    "lng": 121.518,
    "url": "https://c01.第三方.com/cam/snapshot/tpe-000161.jpg",
    "map": "https://www.google.com/maps?q=25.0629,121.518",
    "source": "第三方"
  },
  {
    "id": 560,
    "name": "台北市道路 167-重慶愛國(西側)",
    "region": "其他",
    "city": "台北市/新北市/基隆市",
    "lat": 25.0353,
    "lng": 121.5123,
    "url": "https://c01.第三方.com/cam/snapshot/tpe-000167.jpg",
    "map": "https://www.google.com/maps?q=25.0353,121.5123",
    "source": "第三方"
  },
  {
    "id": 561,
    "name": "台北市道路 168-師大汀州(南側)",
    "region": "其他",
    "city": "台北市/新北市/基隆市",
    "lat": 25.0209,
    "lng": 121.5254,
    "url": "https://c01.第三方.com/cam/snapshot/tpe-000168.jpg",
    "map": "https://www.google.com/maps?q=25.0209,121.5254",
    "source": "第三方"
  },
  {
    "id": 562,
    "name": "台北市道路 169-基隆路3段156巷",
    "region": "其他",
    "city": "台北市/新北市/基隆市",
    "lat": 25.0159,
    "lng": 121.5425,
    "url": "https://c01.第三方.com/cam/snapshot/tpe-000169.jpg",
    "map": "https://www.google.com/maps?q=25.0159,121.5425",
    "source": "第三方"
  },
  {
    "id": 563,
    "name": "台北市道路 171-羅斯福路3段244巷口(台電大樓)",
    "region": "其他",
    "city": "台北市/新北市/基隆市",
    "lat": 25.0174,
    "lng": 121.5315,
    "url": "https://c01.第三方.com/cam/snapshot/tpe-000171.jpg",
    "map": "https://www.google.com/maps?q=25.0174,121.5315",
    "source": "第三方"
  },
  {
    "id": 564,
    "name": "台北市道路 172-基隆羅斯(東南角)",
    "region": "其他",
    "city": "台北市/新北市/基隆市",
    "lat": 25.0108,
    "lng": 121.5373,
    "url": "https://c01.第三方.com/cam/snapshot/tpe-000172.jpg",
    "map": "https://www.google.com/maps?q=25.0108,121.5373",
    "source": "第三方"
  },
  {
    "id": 565,
    "name": "台北市道路 173-仁愛敦化(北側)",
    "region": "其他",
    "city": "台北市/新北市/基隆市",
    "lat": 25.0383,
    "lng": 121.5487,
    "url": "https://c01.第三方.com/cam/snapshot/tpe-000173.jpg",
    "map": "https://www.google.com/maps?q=25.0383,121.5487",
    "source": "第三方"
  },
  {
    "id": 566,
    "name": "台北市道路 174-仁愛敦化(西側)",
    "region": "其他",
    "city": "台北市/新北市/基隆市",
    "lat": 25.0379,
    "lng": 121.5482,
    "url": "https://c01.第三方.com/cam/snapshot/tpe-000174.jpg",
    "map": "https://www.google.com/maps?q=25.0379,121.5482",
    "source": "第三方"
  },
  {
    "id": 567,
    "name": "台北市道路 175-仁愛敦化(東側)",
    "region": "其他",
    "city": "台北市/新北市/基隆市",
    "lat": 25.0379,
    "lng": 121.5494,
    "url": "https://c01.第三方.com/cam/snapshot/tpe-000175.jpg",
    "map": "https://www.google.com/maps?q=25.0379,121.5494",
    "source": "第三方"
  },
  {
    "id": 568,
    "name": "台北市道路 176-仁愛敦化(南側)",
    "region": "其他",
    "city": "台北市/新北市/基隆市",
    "lat": 25.0373,
    "lng": 121.5488,
    "url": "https://c01.第三方.com/cam/snapshot/tpe-000176.jpg",
    "map": "https://www.google.com/maps?q=25.0373,121.5488",
    "source": "第三方"
  },
  {
    "id": 569,
    "name": "台北市道路 177-基隆路北往南主車道1(基隆忠孝)",
    "region": "其他",
    "city": "台北市/新北市/基隆市",
    "lat": 25.0413,
    "lng": 121.5644,
    "url": "https://c01.第三方.com/cam/snapshot/tpe-000177.jpg",
    "map": "https://www.google.com/maps?q=25.0413,121.5644",
    "source": "第三方"
  },
  {
    "id": 570,
    "name": "台北市道路 178-基隆路北往南主車道2(基隆忠孝)機 1",
    "region": "其他",
    "city": "台北市/新北市/基隆市",
    "lat": 25.041,
    "lng": 121.5643,
    "url": "https://c01.第三方.com/cam/snapshot/tpe-000178.jpg",
    "map": "https://www.google.com/maps?q=25.041,121.5643",
    "source": "第三方"
  },
  {
    "id": 571,
    "name": "台北市道路 179-基隆路北往南主車道3(基隆忠孝)",
    "region": "其他",
    "city": "台北市/新北市/基隆市",
    "lat": 25.0411,
    "lng": 121.5643,
    "url": "https://c01.第三方.com/cam/snapshot/tpe-000179.jpg",
    "map": "https://www.google.com/maps?q=25.0411,121.5643",
    "source": "第三方"
  },
  {
    "id": 572,
    "name": "台北市道路 180-基隆路北往南主車道4(基隆松高)",
    "region": "其他",
    "city": "台北市/新北市/基隆市",
    "lat": 25.0392,
    "lng": 121.5637,
    "url": "https://c01.第三方.com/cam/snapshot/tpe-000180.jpg",
    "map": "https://www.google.com/maps?q=25.0392,121.5637",
    "source": "第三方"
  },
  {
    "id": 573,
    "name": "台北市道路 181-基隆路北往南主車道5(基隆松高)",
    "region": "其他",
    "city": "台北市/新北市/基隆市",
    "lat": 25.0392,
    "lng": 121.5635,
    "url": "https://c01.第三方.com/cam/snapshot/tpe-000181.jpg",
    "map": "https://www.google.com/maps?q=25.0392,121.5635",
    "source": "第三方"
  },
  {
    "id": 574,
    "name": "台北市道路 182-基隆路北往南主車道6(基隆松壽)",
    "region": "其他",
    "city": "台北市/新北市/基隆市",
    "lat": 25.0359,
    "lng": 121.5615,
    "url": "https://c01.第三方.com/cam/snapshot/tpe-000182.jpg",
    "map": "https://www.google.com/maps?q=25.0359,121.5615",
    "source": "第三方"
  },
  {
    "id": 575,
    "name": "台北市道路 183-基隆路北往南主車道7(基隆松壽)",
    "region": "其他",
    "city": "台北市/新北市/基隆市",
    "lat": 25.0359,
    "lng": 121.5614,
    "url": "https://c01.第三方.com/cam/snapshot/tpe-000183.jpg",
    "map": "https://www.google.com/maps?q=25.0359,121.5614",
    "source": "第三方"
  },
  {
    "id": 576,
    "name": "台北市道路 184-基隆路北往南主車道8(基隆松壽)",
    "region": "其他",
    "city": "台北市/新北市/基隆市",
    "lat": 25.0357,
    "lng": 121.5613,
    "url": "https://c01.第三方.com/cam/snapshot/tpe-000184.jpg",
    "map": "https://www.google.com/maps?q=25.0357,121.5613",
    "source": "第三方"
  },
  {
    "id": 577,
    "name": "台北市道路 185-基隆路南往北主車道1(基隆松壽)",
    "region": "其他",
    "city": "台北市/新北市/基隆市",
    "lat": 25.0359,
    "lng": 121.5612,
    "url": "https://c01.第三方.com/cam/snapshot/tpe-000185.jpg",
    "map": "https://www.google.com/maps?q=25.0359,121.5612",
    "source": "第三方"
  },
  {
    "id": 578,
    "name": "台北市道路 187-基隆路南往北主車道3(基隆松壽)",
    "region": "其他",
    "city": "台北市/新北市/基隆市",
    "lat": 25.0358,
    "lng": 121.5611,
    "url": "https://c01.第三方.com/cam/snapshot/tpe-000187.jpg",
    "map": "https://www.google.com/maps?q=25.0358,121.5611",
    "source": "第三方"
  },
  {
    "id": 579,
    "name": "台北市道路 188-基隆路南往北主車道4(基隆松高)",
    "region": "其他",
    "city": "台北市/新北市/基隆市",
    "lat": 25.0392,
    "lng": 121.5636,
    "url": "https://c01.第三方.com/cam/snapshot/tpe-000188.jpg",
    "map": "https://www.google.com/maps?q=25.0392,121.5636",
    "source": "第三方"
  },
  {
    "id": 580,
    "name": "台北市道路 189-基隆路南往北主車道5(基隆松高)",
    "region": "其他",
    "city": "台北市/新北市/基隆市",
    "lat": 25.0392,
    "lng": 121.5636,
    "url": "https://c01.第三方.com/cam/snapshot/tpe-000189.jpg",
    "map": "https://www.google.com/maps?q=25.0392,121.5636",
    "source": "第三方"
  },
  {
    "id": 581,
    "name": "台北市道路 190-基隆路南往北主車道6(基隆忠孝)",
    "region": "其他",
    "city": "台北市/新北市/基隆市",
    "lat": 25.0413,
    "lng": 121.5646,
    "url": "https://c01.第三方.com/cam/snapshot/tpe-000190.jpg",
    "map": "https://www.google.com/maps?q=25.0413,121.5646",
    "source": "第三方"
  },
  {
    "id": 582,
    "name": "台北市道路 191-基隆路南往北主車道7(基隆忠孝)",
    "region": "其他",
    "city": "台北市/新北市/基隆市",
    "lat": 25.0412,
    "lng": 121.5646,
    "url": "https://c01.第三方.com/cam/snapshot/tpe-000191.jpg",
    "map": "https://www.google.com/maps?q=25.0412,121.5646",
    "source": "第三方"
  },
  {
    "id": 583,
    "name": "台北市道路 192-基隆路南往北主車道8(基隆忠孝)",
    "region": "其他",
    "city": "台北市/新北市/基隆市",
    "lat": 25.0411,
    "lng": 121.5645,
    "url": "https://c01.第三方.com/cam/snapshot/tpe-000192.jpg",
    "map": "https://www.google.com/maps?q=25.0411,121.5645",
    "source": "第三方"
  },
  {
    "id": 584,
    "name": "台北市道路 193-基隆路北往南混合車道1(基隆松高)",
    "region": "其他",
    "city": "台北市/新北市/基隆市",
    "lat": 25.0392,
    "lng": 121.5637,
    "url": "https://c01.第三方.com/cam/snapshot/tpe-000193.jpg",
    "map": "https://www.google.com/maps?q=25.0392,121.5637",
    "source": "第三方"
  },
  {
    "id": 585,
    "name": "台北市道路 194-基隆路北往南混合車道2(基隆松高)",
    "region": "其他",
    "city": "台北市/新北市/基隆市",
    "lat": 25.0392,
    "lng": 121.5637,
    "url": "https://c01.第三方.com/cam/snapshot/tpe-000194.jpg",
    "map": "https://www.google.com/maps?q=25.0392,121.5637",
    "source": "第三方"
  },
  {
    "id": 586,
    "name": "台北市道路 195-基隆路北往南混合車道3(基隆松壽)",
    "region": "其他",
    "city": "台北市/新北市/基隆市",
    "lat": 25.0356,
    "lng": 121.5613,
    "url": "https://c01.第三方.com/cam/snapshot/tpe-000195.jpg",
    "map": "https://www.google.com/maps?q=25.0356,121.5613",
    "source": "第三方"
  },
  {
    "id": 587,
    "name": "台北市道路 196-基隆路北往南混合車道4(基隆松壽)",
    "region": "其他",
    "city": "台北市/新北市/基隆市",
    "lat": 25.0355,
    "lng": 121.5612,
    "url": "https://c01.第三方.com/cam/snapshot/tpe-000196.jpg",
    "map": "https://www.google.com/maps?q=25.0355,121.5612",
    "source": "第三方"
  },
  {
    "id": 588,
    "name": "台北市道路 197-基隆路南往北混合車道1(基隆松壽)",
    "region": "其他",
    "city": "台北市/新北市/基隆市",
    "lat": 25.0357,
    "lng": 121.5611,
    "url": "https://c01.第三方.com/cam/snapshot/tpe-000197.jpg",
    "map": "https://www.google.com/maps?q=25.0357,121.5611",
    "source": "第三方"
  },
  {
    "id": 589,
    "name": "台北市道路 198-基隆路南往北混合車道2(基隆松壽)",
    "region": "其他",
    "city": "台北市/新北市/基隆市",
    "lat": 25.0356,
    "lng": 121.561,
    "url": "https://c01.第三方.com/cam/snapshot/tpe-000198.jpg",
    "map": "https://www.google.com/maps?q=25.0356,121.561",
    "source": "第三方"
  },
  {
    "id": 590,
    "name": "台北市道路 199-基隆路南往北混合車道3(基隆松高)",
    "region": "其他",
    "city": "台北市/新北市/基隆市",
    "lat": 25.0393,
    "lng": 121.5636,
    "url": "https://c01.第三方.com/cam/snapshot/tpe-000199.jpg",
    "map": "https://www.google.com/maps?q=25.0393,121.5636",
    "source": "第三方"
  },
  {
    "id": 591,
    "name": "台北市道路 200-基隆路南往北混合車道4(基隆忠孝)",
    "region": "其他",
    "city": "台北市/新北市/基隆市",
    "lat": 25.0413,
    "lng": 121.5644,
    "url": "https://c01.第三方.com/cam/snapshot/tpe-000200.jpg",
    "map": "https://www.google.com/maps?q=25.0413,121.5644",
    "source": "第三方"
  },
  {
    "id": 592,
    "name": "台北市道路 201-自強隧道往故宮入口0K+16M",
    "region": "其他",
    "city": "台北市/新北市/基隆市",
    "lat": 25.0872,
    "lng": 121.5496,
    "url": "https://c01.第三方.com/cam/snapshot/tpe-000201.jpg",
    "map": "https://www.google.com/maps?q=25.0872,121.5496",
    "source": "第三方"
  },
  {
    "id": 593,
    "name": "台北市道路 202-自強隧道往故宮入口0K+240M",
    "region": "其他",
    "city": "台北市/新北市/基隆市",
    "lat": 25.0905,
    "lng": 121.5493,
    "url": "https://c01.第三方.com/cam/snapshot/tpe-000202.jpg",
    "map": "https://www.google.com/maps?q=25.0905,121.5493",
    "source": "第三方"
  },
  {
    "id": 594,
    "name": "台北市道路 203-自強隧道往故宮入口0K+474M",
    "region": "其他",
    "city": "台北市/新北市/基隆市",
    "lat": 25.0935,
    "lng": 121.549,
    "url": "https://c01.第三方.com/cam/snapshot/tpe-000203.jpg",
    "map": "https://www.google.com/maps?q=25.0935,121.549",
    "source": "第三方"
  },
  {
    "id": 595,
    "name": "台北市道路 204-自強隧道往大直入口0K+20M",
    "region": "其他",
    "city": "台北市/新北市/基隆市",
    "lat": 25.0941,
    "lng": 121.5485,
    "url": "https://c01.第三方.com/cam/snapshot/tpe-000204.jpg",
    "map": "https://www.google.com/maps?q=25.0941,121.5485",
    "source": "第三方"
  },
  {
    "id": 596,
    "name": "台北市道路 205-自強隧道往大直入口0K+326M",
    "region": "其他",
    "city": "台北市/新北市/基隆市",
    "lat": 25.0924,
    "lng": 121.5486,
    "url": "https://c01.第三方.com/cam/snapshot/tpe-000205.jpg",
    "map": "https://www.google.com/maps?q=25.0924,121.5486",
    "source": "第三方"
  },
  {
    "id": 597,
    "name": "台北市道路 206-自強隧道往大直入口0K+553M",
    "region": "其他",
    "city": "台北市/新北市/基隆市",
    "lat": 25.0898,
    "lng": 121.5488,
    "url": "https://c01.第三方.com/cam/snapshot/tpe-000206.jpg",
    "map": "https://www.google.com/maps?q=25.0898,121.5488",
    "source": "第三方"
  },
  {
    "id": 598,
    "name": "台北市道路 207-辛亥隧道往木柵入口0K+7M",
    "region": "其他",
    "city": "台北市/新北市/基隆市",
    "lat": 25.0126,
    "lng": 121.5544,
    "url": "https://c01.第三方.com/cam/snapshot/tpe-000207.jpg",
    "map": "https://www.google.com/maps?q=25.0126,121.5544",
    "source": "第三方"
  },
  {
    "id": 599,
    "name": "台北市道路 208-辛亥隧道往木柵入口0K+179M",
    "region": "其他",
    "city": "台北市/新北市/基隆市",
    "lat": 25.0115,
    "lng": 121.5556,
    "url": "https://c01.第三方.com/cam/snapshot/tpe-000208.jpg",
    "map": "https://www.google.com/maps?q=25.0115,121.5556",
    "source": "第三方"
  },
  {
    "id": 600,
    "name": "台北市道路 209-辛亥隧道往木柵入口0K+331M",
    "region": "其他",
    "city": "台北市/新北市/基隆市",
    "lat": 25.0099,
    "lng": 121.5571,
    "url": "https://c01.第三方.com/cam/snapshot/tpe-000209.jpg",
    "map": "https://www.google.com/maps?q=25.0099,121.5571",
    "source": "第三方"
  },
  {
    "id": 601,
    "name": "台北市道路 214-經貿二路157巷",
    "region": "其他",
    "city": "台北市/新北市/基隆市",
    "lat": 25.0593,
    "lng": 121.6166,
    "url": "https://c01.第三方.com/cam/snapshot/tpe-000214.jpg",
    "map": "https://www.google.com/maps?q=25.0593,121.6166",
    "source": "第三方"
  },
  {
    "id": 602,
    "name": "台北市道路 215-經貿二路105巷口",
    "region": "其他",
    "city": "台北市/新北市/基隆市",
    "lat": 25.0581,
    "lng": 121.6165,
    "url": "https://c01.第三方.com/cam/snapshot/tpe-000215.jpg",
    "map": "https://www.google.com/maps?q=25.0581,121.6165",
    "source": "第三方"
  },
  {
    "id": 603,
    "name": "台北市道路 216-南港路經貿一路",
    "region": "其他",
    "city": "台北市/新北市/基隆市",
    "lat": 25.0548,
    "lng": 121.6187,
    "url": "https://c01.第三方.com/cam/snapshot/tpe-000216.jpg",
    "map": "https://www.google.com/maps?q=25.0548,121.6187",
    "source": "第三方"
  },
  {
    "id": 604,
    "name": "台北市道路 217-南港路興中路",
    "region": "其他",
    "city": "台北市/新北市/基隆市",
    "lat": 25.0544,
    "lng": 121.6074,
    "url": "https://c01.第三方.com/cam/snapshot/tpe-000217.jpg",
    "map": "https://www.google.com/maps?q=25.0544,121.6074",
    "source": "第三方"
  },
  {
    "id": 605,
    "name": "台北市道路 218-經貿一路環東大道槽化島",
    "region": "其他",
    "city": "台北市/新北市/基隆市",
    "lat": 25.0627,
    "lng": 121.6171,
    "url": "https://c01.第三方.com/cam/snapshot/tpe-000218.jpg",
    "map": "https://www.google.com/maps?q=25.0627,121.6171",
    "source": "第三方"
  },
  {
    "id": 606,
    "name": "台北市道路 219-環東大道經貿二路出口匝道綠帶",
    "region": "其他",
    "city": "台北市/新北市/基隆市",
    "lat": 25.0628,
    "lng": 121.6129,
    "url": "https://c01.第三方.com/cam/snapshot/tpe-000219.jpg",
    "map": "https://www.google.com/maps?q=25.0628,121.6129",
    "source": "第三方"
  },
  {
    "id": 607,
    "name": "台北市道路 220-忠孝東研究院路(車行往北)",
    "region": "其他",
    "city": "台北市/新北市/基隆市",
    "lat": 25.0532,
    "lng": 121.6162,
    "url": "https://c01.第三方.com/cam/snapshot/tpe-000220.jpg",
    "map": "https://www.google.com/maps?q=25.0532,121.6162",
    "source": "第三方"
  },
  {
    "id": 608,
    "name": "台北市道路 221-龍門大樓頂樓",
    "region": "其他",
    "city": "台北市/新北市/基隆市",
    "lat": 25.0504,
    "lng": 121.5109,
    "url": "https://c01.第三方.com/cam/snapshot/tpe-000221.jpg",
    "map": "https://www.google.com/maps?q=25.0504,121.5109",
    "source": "第三方"
  },
  {
    "id": 609,
    "name": "台北市道路 222-向陽重陽",
    "region": "其他",
    "city": "台北市/新北市/基隆市",
    "lat": 25.0547,
    "lng": 121.5947,
    "url": "https://c01.第三方.com/cam/snapshot/tpe-000222.jpg",
    "map": "https://www.google.com/maps?q=25.0547,121.5947",
    "source": "第三方"
  },
  {
    "id": 610,
    "name": "台北市道路 223-新生高圓山橋",
    "region": "其他",
    "city": "台北市/新北市/基隆市",
    "lat": 25.0737,
    "lng": 121.5258,
    "url": "https://c01.第三方.com/cam/snapshot/tpe-000223.jpg",
    "map": "https://www.google.com/maps?q=25.0737,121.5258",
    "source": "第三方"
  },
  {
    "id": 611,
    "name": "台北市道路 224-新生高民族",
    "region": "其他",
    "city": "台北市/新北市/基隆市",
    "lat": 25.068,
    "lng": 121.5279,
    "url": "https://c01.第三方.com/cam/snapshot/tpe-000224.jpg",
    "map": "https://www.google.com/maps?q=25.068,121.5279",
    "source": "第三方"
  },
  {
    "id": 612,
    "name": "台北市道路 225-新生高民權",
    "region": "其他",
    "city": "台北市/新北市/基隆市",
    "lat": 25.0626,
    "lng": 121.5275,
    "url": "https://c01.第三方.com/cam/snapshot/tpe-000225.jpg",
    "map": "https://www.google.com/maps?q=25.0626,121.5275",
    "source": "第三方"
  },
  {
    "id": 613,
    "name": "台北市道路 226-新生高民生",
    "region": "其他",
    "city": "台北市/新北市/基隆市",
    "lat": 25.0578,
    "lng": 121.5269,
    "url": "https://c01.第三方.com/cam/snapshot/tpe-000226.jpg",
    "map": "https://www.google.com/maps?q=25.0578,121.5269",
    "source": "第三方"
  },
  {
    "id": 614,
    "name": "台北市道路 227-新生高南京",
    "region": "其他",
    "city": "台北市/新北市/基隆市",
    "lat": 25.0524,
    "lng": 121.5281,
    "url": "https://c01.第三方.com/cam/snapshot/tpe-000227.jpg",
    "map": "https://www.google.com/maps?q=25.0524,121.5281",
    "source": "第三方"
  },
  {
    "id": 615,
    "name": "台北市道路 228-新生高長安",
    "region": "其他",
    "city": "台北市/新北市/基隆市",
    "lat": 25.0482,
    "lng": 121.5298,
    "url": "https://c01.第三方.com/cam/snapshot/tpe-000228.jpg",
    "map": "https://www.google.com/maps?q=25.0482,121.5298",
    "source": "第三方"
  },
  {
    "id": 616,
    "name": "台北市道路 229-新生高忠孝",
    "region": "其他",
    "city": "台北市/新北市/基隆市",
    "lat": 25.043,
    "lng": 121.53,
    "url": "https://c01.第三方.com/cam/snapshot/tpe-000229.jpg",
    "map": "https://www.google.com/maps?q=25.043,121.53",
    "source": "第三方"
  },
  {
    "id": 617,
    "name": "台北市道路 231-中山北路6段-福國路口",
    "region": "其他",
    "city": "台北市/新北市/基隆市",
    "lat": 25.1026,
    "lng": 121.5252,
    "url": "https://c01.第三方.com/cam/snapshot/tpe-000231.jpg",
    "map": "https://www.google.com/maps?q=25.1026,121.5252",
    "source": "第三方"
  },
  {
    "id": 618,
    "name": "台北市道路 232-中山北路-通河街口",
    "region": "其他",
    "city": "台北市/新北市/基隆市",
    "lat": 25.08,
    "lng": 121.5242,
    "url": "https://c01.第三方.com/cam/snapshot/tpe-000232.jpg",
    "map": "https://www.google.com/maps?q=25.08,121.5242",
    "source": "第三方"
  },
  {
    "id": 619,
    "name": "台北市道路 233-中山北路3段-民權東西路口",
    "region": "其他",
    "city": "台北市/新北市/基隆市",
    "lat": 25.063,
    "lng": 121.5225,
    "url": "https://c01.第三方.com/cam/snapshot/tpe-000233.jpg",
    "map": "https://www.google.com/maps?q=25.063,121.5225",
    "source": "第三方"
  },
  {
    "id": 620,
    "name": "台北市道路 234-至善路-福林路口",
    "region": "其他",
    "city": "台北市/新北市/基隆市",
    "lat": 25.0993,
    "lng": 121.5366,
    "url": "https://c01.第三方.com/cam/snapshot/tpe-000234.jpg",
    "map": "https://www.google.com/maps?q=25.0993,121.5366",
    "source": "第三方"
  },
  {
    "id": 621,
    "name": "台北市道路 235-福林路-雨農路-中正路口",
    "region": "其他",
    "city": "台北市/新北市/基隆市",
    "lat": 25.0967,
    "lng": 121.5323,
    "url": "https://c01.第三方.com/cam/snapshot/tpe-000235.jpg",
    "map": "https://www.google.com/maps?q=25.0967,121.5323",
    "source": "第三方"
  },
  {
    "id": 622,
    "name": "台北市道路 236-故宮路-至善路口",
    "region": "其他",
    "city": "台北市/新北市/基隆市",
    "lat": 25.0983,
    "lng": 121.5465,
    "url": "https://c01.第三方.com/cam/snapshot/tpe-000236.jpg",
    "map": "https://www.google.com/maps?q=25.0983,121.5465",
    "source": "第三方"
  },
  {
    "id": 623,
    "name": "台北市道路 237-北安路595巷口",
    "region": "其他",
    "city": "台北市/新北市/基隆市",
    "lat": 25.082,
    "lng": 121.5488,
    "url": "https://c01.第三方.com/cam/snapshot/tpe-000237.jpg",
    "map": "https://www.google.com/maps?q=25.082,121.5488",
    "source": "第三方"
  },
  {
    "id": 624,
    "name": "台北市道路 239- 濱江街150巷口",
    "region": "其他",
    "city": "台北市/新北市/基隆市",
    "lat": 25.0726,
    "lng": 121.5367,
    "url": "https://cctvn.freeway.gov.tw/abs2mjpg/bmjpg?camera=12270",
    "map": "https://www.google.com/maps?q=25.0726,121.5367",
    "source": "第三方"
  },
  {
    "id": 625,
    "name": "台北市道路 240-濱江街大佳國小大門右側(號誌桿)",
    "region": "其他",
    "city": "台北市/新北市/基隆市",
    "lat": 25.0731,
    "lng": 121.5356,
    "url": "https://c01.第三方.com/cam/snapshot/tpe-000240.jpg",
    "map": "https://www.google.com/maps?q=25.0731,121.5356",
    "source": "第三方"
  },
  {
    "id": 626,
    "name": "台北市道路 241-民族東路-建國北路口",
    "region": "其他",
    "city": "台北市/新北市/基隆市",
    "lat": 25.0683,
    "lng": 121.5332,
    "url": "https://c01.第三方.com/cam/snapshot/tpe-000241.jpg",
    "map": "https://www.google.com/maps?q=25.0683,121.5332",
    "source": "第三方"
  },
  {
    "id": 627,
    "name": "台北市道路 242-松江路-民權東路口",
    "region": "其他",
    "city": "台北市/新北市/基隆市",
    "lat": 25.0623,
    "lng": 121.5332,
    "url": "https://c01.第三方.com/cam/snapshot/tpe-000242.jpg",
    "map": "https://www.google.com/maps?q=25.0623,121.5332",
    "source": "第三方"
  },
  {
    "id": 628,
    "name": "台北市道路 243-復興北路427巷(往北)",
    "region": "其他",
    "city": "台北市/新北市/基隆市",
    "lat": 25.0633,
    "lng": 121.5443,
    "url": "https://c01.第三方.com/cam/snapshot/tpe-000243.jpg",
    "map": "https://www.google.com/maps?q=25.0633,121.5443",
    "source": "第三方"
  },
  {
    "id": 629,
    "name": "台北市道路 244-民族西路-延平北路口",
    "region": "其他",
    "city": "台北市/新北市/基隆市",
    "lat": 25.0687,
    "lng": 121.5107,
    "url": "https://c01.第三方.com/cam/snapshot/tpe-000244.jpg",
    "map": "https://www.google.com/maps?q=25.0687,121.5107",
    "source": "第三方"
  },
  {
    "id": 630,
    "name": "台北市道路 245-復興北路427巷(往南)",
    "region": "其他",
    "city": "台北市/新北市/基隆市",
    "lat": 25.0633,
    "lng": 121.5442,
    "url": "https://c01.第三方.com/cam/snapshot/tpe-000245.jpg",
    "map": "https://www.google.com/maps?q=25.0633,121.5442",
    "source": "第三方"
  },
  {
    "id": 631,
    "name": "台北市道路 246 承德-庫倫",
    "region": "其他",
    "city": "台北市/新北市/基隆市",
    "lat": 25.072,
    "lng": 121.5186,
    "url": "https://c01.第三方.com/cam/snapshot/tpe-000246.jpg",
    "map": "https://www.google.com/maps?q=25.072,121.5186",
    "source": "第三方"
  },
  {
    "id": 632,
    "name": "台北市道路 247-北安路-大直橋頭",
    "region": "其他",
    "city": "台北市/新北市/基隆市",
    "lat": 25.0798,
    "lng": 121.5444,
    "url": "https://c01.第三方.com/cam/snapshot/tpe-000247.jpg",
    "map": "https://www.google.com/maps?q=25.0798,121.5444",
    "source": "第三方"
  },
  {
    "id": 633,
    "name": "台北市道路 248-北安路-中山北路口",
    "region": "其他",
    "city": "台北市/新北市/基隆市",
    "lat": 25.0765,
    "lng": 121.5271,
    "url": "https://c01.第三方.com/cam/snapshot/tpe-000248.jpg",
    "map": "https://www.google.com/maps?q=25.0765,121.5271",
    "source": "第三方"
  },
  {
    "id": 634,
    "name": "台北市道路 249-中山北路-圓山隧道口",
    "region": "其他",
    "city": "台北市/新北市/基隆市",
    "lat": 25.0767,
    "lng": 121.525,
    "url": "https://c01.第三方.com/cam/snapshot/tpe-000249.jpg",
    "map": "https://www.google.com/maps?q=25.0767,121.525",
    "source": "第三方"
  },
  {
    "id": 635,
    "name": "台北市道路 250-劍潭路-中山北路口",
    "region": "其他",
    "city": "台北市/新北市/基隆市",
    "lat": 25.0842,
    "lng": 121.5254,
    "url": "https://c01.第三方.com/cam/snapshot/tpe-000250.jpg",
    "map": "https://www.google.com/maps?q=25.0842,121.5254",
    "source": "第三方"
  },
  {
    "id": 636,
    "name": "台北市道路 251-劍潭路-承德路口",
    "region": "其他",
    "city": "台北市/新北市/基隆市",
    "lat": 25.0842,
    "lng": 121.5236,
    "url": "https://c01.第三方.com/cam/snapshot/tpe-000251.jpg",
    "map": "https://www.google.com/maps?q=25.0842,121.5236",
    "source": "第三方"
  },
  {
    "id": 637,
    "name": "台北市道路 252-民族西路承德路口",
    "region": "其他",
    "city": "台北市/新北市/基隆市",
    "lat": 25.0685,
    "lng": 121.5185,
    "url": "https://c01.第三方.com/cam/snapshot/tpe-000252.jpg",
    "map": "https://www.google.com/maps?q=25.0685,121.5185",
    "source": "第三方"
  },
  {
    "id": 638,
    "name": "台北市道路 253-民族西路-中山北路口",
    "region": "其他",
    "city": "台北市/新北市/基隆市",
    "lat": 25.0685,
    "lng": 121.5228,
    "url": "https://c01.第三方.com/cam/snapshot/tpe-000253.jpg",
    "map": "https://www.google.com/maps?q=25.0685,121.5228",
    "source": "第三方"
  },
  {
    "id": 639,
    "name": "台北市道路 254-民權東路三段-龍江路",
    "region": "其他",
    "city": "台北市/新北市/基隆市",
    "lat": 25.0624,
    "lng": 121.5409,
    "url": "https://c01.第三方.com/cam/snapshot/tpe-000254.jpg",
    "map": "https://www.google.com/maps?q=25.0624,121.5409",
    "source": "第三方"
  },
  {
    "id": 641,
    "name": "台北市道路 256-木柵焚化廠",
    "region": "其他",
    "city": "台北市/新北市/基隆市",
    "lat": 25.0052,
    "lng": 121.5877,
    "url": "https://c01.第三方.com/cam/snapshot/tpe-000256.jpg",
    "map": "https://www.google.com/maps?q=25.0052,121.5877",
    "source": "第三方"
  },
  {
    "id": 642,
    "name": "台北市道路 257-忠孝東路-松仁路口",
    "region": "其他",
    "city": "台北市/新北市/基隆市",
    "lat": 25.0409,
    "lng": 121.5689,
    "url": "https://c01.第三方.com/cam/snapshot/tpe-000257.jpg",
    "map": "https://www.google.com/maps?q=25.0409,121.5689",
    "source": "第三方"
  },
  {
    "id": 643,
    "name": "台北市道路 258-民生東路-松江路口",
    "region": "其他",
    "city": "台北市/新北市/基隆市",
    "lat": 25.0579,
    "lng": 121.5329,
    "url": "https://c01.第三方.com/cam/snapshot/tpe-000258.jpg",
    "map": "https://www.google.com/maps?q=25.0579,121.5329",
    "source": "第三方"
  },
  {
    "id": 644,
    "name": "台北市道路 259-重慶北路-民權西路口",
    "region": "其他",
    "city": "台北市/新北市/基隆市",
    "lat": 25.0632,
    "lng": 121.5138,
    "url": "https://c01.第三方.com/cam/snapshot/tpe-000259.jpg",
    "map": "https://www.google.com/maps?q=25.0632,121.5138",
    "source": "第三方"
  },
  {
    "id": 645,
    "name": "台北市道路 260-重慶南路-和平西路口",
    "region": "其他",
    "city": "台北市/新北市/基隆市",
    "lat": 25.0275,
    "lng": 121.5159,
    "url": "https://c01.第三方.com/cam/snapshot/tpe-000260.jpg",
    "map": "https://www.google.com/maps?q=25.0275,121.5159",
    "source": "第三方"
  },
  {
    "id": 646,
    "name": "台北市道路 262-忠孝東路-復興南路口",
    "region": "其他",
    "city": "台北市/新北市/基隆市",
    "lat": 25.0415,
    "lng": 121.5439,
    "url": "https://c01.第三方.com/cam/snapshot/tpe-000262.jpg",
    "map": "https://www.google.com/maps?q=25.0415,121.5439",
    "source": "第三方"
  },
  {
    "id": 647,
    "name": "台北市道路 263-中華路-愛國西路口",
    "region": "其他",
    "city": "台北市/新北市/基隆市",
    "lat": 25.0373,
    "lng": 121.507,
    "url": "https://c01.第三方.com/cam/snapshot/tpe-000263.jpg",
    "map": "https://www.google.com/maps?q=25.0373,121.507",
    "source": "第三方"
  },
  {
    "id": 648,
    "name": "台北市道路 264-基隆路-和平東路口",
    "region": "其他",
    "city": "台北市/新北市/基隆市",
    "lat": 25.0244,
    "lng": 121.5526,
    "url": "https://c01.第三方.com/cam/snapshot/tpe-000264.jpg",
    "map": "https://www.google.com/maps?q=25.0244,121.5526",
    "source": "第三方"
  },
  {
    "id": 649,
    "name": "台北市道路 266-基隆路-八德路口(高架第2層)",
    "region": "其他",
    "city": "台北市/新北市/基隆市",
    "lat": 25.0496,
    "lng": 121.5696,
    "url": "https://c01.第三方.com/cam/snapshot/tpe-000266.jpg",
    "map": "https://www.google.com/maps?q=25.0496,121.5696",
    "source": "第三方"
  },
  {
    "id": 650,
    "name": "台北市道路 268-基隆路口-八德路口(高架上層)",
    "region": "其他",
    "city": "台北市/新北市/基隆市",
    "lat": 25.0493,
    "lng": 121.5694,
    "url": "https://c01.第三方.com/cam/snapshot/tpe-000268.jpg",
    "map": "https://www.google.com/maps?q=25.0493,121.5694",
    "source": "第三方"
  },
  {
    "id": 651,
    "name": "台北市道路 272-東新街-八德路口",
    "region": "其他",
    "city": "台北市/新北市/基隆市",
    "lat": 25.0517,
    "lng": 121.5828,
    "url": "https://heocctv3.gov.taipei/channel16",
    "map": "https://www.google.com/maps?q=25.0517,121.5828",
    "source": "第三方"
  },
  {
    "id": 652,
    "name": "台北市道路 274-環河北路與民族西路口燈桿上",
    "region": "其他",
    "city": "台北市/新北市/基隆市",
    "lat": 25.0685,
    "lng": 121.5091,
    "url": "https://c01.第三方.com/cam/snapshot/tpe-000274.jpg",
    "map": "https://www.google.com/maps?q=25.0685,121.5091",
    "source": "第三方"
  },
  {
    "id": 653,
    "name": "台北市道路 277-信義路五段7號(台北101大樓)",
    "region": "其他",
    "city": "台北市/新北市/基隆市",
    "lat": 25.0338,
    "lng": 121.5647,
    "url": "https://c01.第三方.com/cam/snapshot/tpe-000277.jpg",
    "map": "https://www.google.com/maps?q=25.0338,121.5647",
    "source": "第三方"
  },
  {
    "id": 654,
    "name": "台北市道路 278-重慶北路與南京西路",
    "region": "其他",
    "city": "台北市/新北市/基隆市",
    "lat": 25.0541,
    "lng": 121.5144,
    "url": "https://c01.第三方.com/cam/snapshot/tpe-000278.jpg",
    "map": "https://www.google.com/maps?q=25.0541,121.5144",
    "source": "第三方"
  },
  {
    "id": 655,
    "name": "台北市道路 281-竹子湖派出所前",
    "region": "其他",
    "city": "台北市/新北市/基隆市",
    "lat": 25.1676,
    "lng": 121.5401,
    "url": "https://c01.第三方.com/cam/snapshot/tpe-000281.jpg",
    "map": "https://www.google.com/maps?q=25.1676,121.5401",
    "source": "第三方"
  },
  {
    "id": 656,
    "name": "台北市道路 282-仰德大道二段2巷口",
    "region": "其他",
    "city": "台北市/新北市/基隆市",
    "lat": 25.1019,
    "lng": 121.5397,
    "url": "https://c01.第三方.com/cam/snapshot/tpe-000282.jpg",
    "map": "https://www.google.com/maps?q=25.1019,121.5397",
    "source": "第三方"
  },
  {
    "id": 657,
    "name": "台北市道路 283-信義路四段-光復南路口",
    "region": "其他",
    "city": "台北市/新北市/基隆市",
    "lat": 25.0331,
    "lng": 121.5575,
    "url": "https://c01.第三方.com/cam/snapshot/tpe-000283.jpg",
    "map": "https://www.google.com/maps?q=25.0331,121.5575",
    "source": "第三方"
  },
  {
    "id": 658,
    "name": "台北市道路 284-信義路-莊敬路口",
    "region": "其他",
    "city": "台北市/新北市/基隆市",
    "lat": 25.033,
    "lng": 121.5613,
    "url": "https://c01.第三方.com/cam/snapshot/tpe-000284.jpg",
    "map": "https://www.google.com/maps?q=25.033,121.5613",
    "source": "第三方"
  },
  {
    "id": 659,
    "name": "台北市道路 285-昌吉街-重慶北路三段",
    "region": "其他",
    "city": "台北市/新北市/基隆市",
    "lat": 25.066,
    "lng": 121.513,
    "url": "https://c01.第三方.com/cam/snapshot/tpe-000285.jpg",
    "map": "https://www.google.com/maps?q=25.066,121.513",
    "source": "第三方"
  },
  {
    "id": 660,
    "name": "台北市道路 286-民生西路-延平北路口",
    "region": "其他",
    "city": "台北市/新北市/基隆市",
    "lat": 25.057,
    "lng": 121.511,
    "url": "https://c01.第三方.com/cam/snapshot/tpe-000286.jpg",
    "map": "https://www.google.com/maps?q=25.057,121.511",
    "source": "第三方"
  },
  {
    "id": 661,
    "name": "台北市道路 287-基隆路二段-嘉興街",
    "region": "其他",
    "city": "台北市/新北市/基隆市",
    "lat": 25.0273,
    "lng": 121.556,
    "url": "https://c01.第三方.com/cam/snapshot/tpe-000287.jpg",
    "map": "https://www.google.com/maps?q=25.0273,121.556",
    "source": "第三方"
  },
  {
    "id": 662,
    "name": "台北市道路 288-逸仙路-松高路口",
    "region": "其他",
    "city": "台北市/新北市/基隆市",
    "lat": 25.0392,
    "lng": 121.5616,
    "url": "https://c01.第三方.com/cam/snapshot/tpe-000288.jpg",
    "map": "https://www.google.com/maps?q=25.0392,121.5616",
    "source": "第三方"
  },
  {
    "id": 663,
    "name": "台北市道路 289-承德路-石牌路口",
    "region": "其他",
    "city": "台北市/新北市/基隆市",
    "lat": 25.112,
    "lng": 121.509,
    "url": "https://c01.第三方.com/cam/snapshot/tpe-000289.jpg",
    "map": "https://www.google.com/maps?q=25.112,121.509",
    "source": "第三方"
  },
  {
    "id": 664,
    "name": "台北市道路 290-和平羅斯",
    "region": "其他",
    "city": "台北市/新北市/基隆市",
    "lat": 25.027,
    "lng": 121.522,
    "url": "https://c01.第三方.com/cam/snapshot/tpe-000290.jpg",
    "map": "https://www.google.com/maps?q=25.027,121.522",
    "source": "第三方"
  },
  {
    "id": 665,
    "name": "台北市道路 291-衡陽路-中華路一段路口",
    "region": "其他",
    "city": "台北市/新北市/基隆市",
    "lat": 25.042,
    "lng": 121.508,
    "url": "https://c01.第三方.com/cam/snapshot/tpe-000291.jpg",
    "map": "https://www.google.com/maps?q=25.042,121.508",
    "source": "第三方"
  },
  {
    "id": 666,
    "name": "台北市道路 292-成都路-昆明路口",
    "region": "其他",
    "city": "台北市/新北市/基隆市",
    "lat": 25.043,
    "lng": 121.5048,
    "url": "https://c01.第三方.com/cam/snapshot/tpe-000292.jpg",
    "map": "https://www.google.com/maps?q=25.043,121.5048",
    "source": "第三方"
  },
  {
    "id": 667,
    "name": "台北市道路 293-艋舺 大理國小",
    "region": "其他",
    "city": "台北市/新北市/基隆市",
    "lat": 25.03,
    "lng": 121.493,
    "url": "https://c01.第三方.com/cam/snapshot/tpe-000293.jpg",
    "map": "https://www.google.com/maps?q=25.03,121.493",
    "source": "第三方"
  },
  {
    "id": 668,
    "name": "台北市道路 294-汀州路-思源街口",
    "region": "其他",
    "city": "台北市/新北市/基隆市",
    "lat": 25.015,
    "lng": 121.531,
    "url": "https://c01.第三方.com/cam/snapshot/tpe-000294.jpg",
    "map": "https://www.google.com/maps?q=25.015,121.531",
    "source": "第三方"
  },
  {
    "id": 669,
    "name": "台北市道路 295-萬大路-東園街口",
    "region": "其他",
    "city": "台北市/新北市/基隆市",
    "lat": 25.021,
    "lng": 121.498,
    "url": "https://c01.第三方.com/cam/snapshot/tpe-000295.jpg",
    "map": "https://www.google.com/maps?q=25.021,121.498",
    "source": "第三方"
  },
  {
    "id": 670,
    "name": "台北市道路 296-仁愛路-金山南路口",
    "region": "其他",
    "city": "台北市/新北市/基隆市",
    "lat": 25.0383,
    "lng": 121.5284,
    "url": "https://c01.第三方.com/cam/snapshot/tpe-000296.jpg",
    "map": "https://www.google.com/maps?q=25.0383,121.5284",
    "source": "第三方"
  },
  {
    "id": 671,
    "name": "台北市道路 297-士東路-忠誠路口",
    "region": "其他",
    "city": "台北市/新北市/基隆市",
    "lat": 25.112,
    "lng": 121.53,
    "url": "https://c01.第三方.com/cam/snapshot/tpe-000297.jpg",
    "map": "https://www.google.com/maps?q=25.112,121.53",
    "source": "第三方"
  },
  {
    "id": 672,
    "name": "台北市道路 298-承德路-立賢路口",
    "region": "其他",
    "city": "台北市/新北市/基隆市",
    "lat": 25.116,
    "lng": 121.504,
    "url": "https://c01.第三方.com/cam/snapshot/tpe-000298.jpg",
    "map": "https://www.google.com/maps?q=25.116,121.504",
    "source": "第三方"
  },
  {
    "id": 673,
    "name": "台北市道路 299-民生東路限高器",
    "region": "其他",
    "city": "台北市/新北市/基隆市",
    "lat": 25.058,
    "lng": 121.5278,
    "url": "https://c01.第三方.com/cam/snapshot/tpe-000299.jpg",
    "map": "https://www.google.com/maps?q=25.058,121.5278",
    "source": "第三方"
  },
  {
    "id": 674,
    "name": "台北市道路 300-基隆松壽限高器",
    "region": "其他",
    "city": "台北市/新北市/基隆市",
    "lat": 25.0347,
    "lng": 121.5604,
    "url": "https://c01.第三方.com/cam/snapshot/tpe-000300.jpg",
    "map": "https://www.google.com/maps?q=25.0347,121.5604",
    "source": "第三方"
  },
  {
    "id": 675,
    "name": "台北市道路 301-忠孝西路一段86號",
    "region": "其他",
    "city": "台北市/新北市/基隆市",
    "lat": 25.0474,
    "lng": 121.5133,
    "url": "https://c01.第三方.com/cam/snapshot/tpe-000301.jpg",
    "map": "https://www.google.com/maps?q=25.0474,121.5133",
    "source": "第三方"
  },
  {
    "id": 676,
    "name": "台北市道路 303-中華路1段2號西北角（國稅局1號）",
    "region": "其他",
    "city": "台北市/新北市/基隆市",
    "lat": 25.0483,
    "lng": 121.5097,
    "url": "https://c01.第三方.com/cam/snapshot/tpe-000303.jpg",
    "map": "https://www.google.com/maps?q=25.0483,121.5097",
    "source": "第三方"
  },
  {
    "id": 677,
    "name": "台北市道路 304-中華路1段2號東北角(國稅局2號)",
    "region": "其他",
    "city": "台北市/新北市/基隆市",
    "lat": 25.0483,
    "lng": 121.5097,
    "url": "https://c01.第三方.com/cam/snapshot/tpe-000304.jpg",
    "map": "https://www.google.com/maps?q=25.0483,121.5097",
    "source": "第三方"
  },
  {
    "id": 678,
    "name": "台北市道路 305-敦化-南京",
    "region": "其他",
    "city": "台北市/新北市/基隆市",
    "lat": 25.0518,
    "lng": 121.5494,
    "url": "https://c01.第三方.com/cam/snapshot/tpe-000305.jpg",
    "map": "https://www.google.com/maps?q=25.0518,121.5494",
    "source": "第三方"
  },
  {
    "id": 679,
    "name": "台北市道路 306-敦化-八德",
    "region": "其他",
    "city": "台北市/新北市/基隆市",
    "lat": 25.048,
    "lng": 121.5489,
    "url": "https://c01.第三方.com/cam/snapshot/tpe-000306.jpg",
    "map": "https://www.google.com/maps?q=25.048,121.5489",
    "source": "第三方"
  },
  {
    "id": 680,
    "name": "台北市道路 307-福國-文林",
    "region": "其他",
    "city": "台北市/新北市/基隆市",
    "lat": 25.1016,
    "lng": 121.5212,
    "url": "https://c01.第三方.com/cam/snapshot/tpe-000307.jpg",
    "map": "https://www.google.com/maps?q=25.1016,121.5212",
    "source": "第三方"
  },
  {
    "id": 681,
    "name": "台北市道路 308-大度路與立德路口(東南角)",
    "region": "其他",
    "city": "台北市/新北市/基隆市",
    "lat": 25.123,
    "lng": 121.4717,
    "url": "https://c01.第三方.com/cam/snapshot/tpe-000308.jpg",
    "map": "https://www.google.com/maps?q=25.123,121.4717",
    "source": "第三方"
  },
  {
    "id": 682,
    "name": "台北市道路 309-大度路與立德路口(西南角)",
    "region": "其他",
    "city": "台北市/新北市/基隆市",
    "lat": 25.1232,
    "lng": 121.4715,
    "url": "https://c01.第三方.com/cam/snapshot/tpe-000309.jpg",
    "map": "https://www.google.com/maps?q=25.1232,121.4715",
    "source": "第三方"
  },
  {
    "id": 683,
    "name": "台北市道路 310-松江路與長春路口",
    "region": "其他",
    "city": "台北市/新北市/基隆市",
    "lat": 25.0549,
    "lng": 121.533,
    "url": "https://c01.第三方.com/cam/snapshot/tpe-000310.jpg",
    "map": "https://www.google.com/maps?q=25.0549,121.533",
    "source": "第三方"
  },
  {
    "id": 684,
    "name": "台北市道路 311-松江路與民生東路口",
    "region": "其他",
    "city": "台北市/新北市/基隆市",
    "lat": 25.0581,
    "lng": 121.533,
    "url": "https://c01.第三方.com/cam/snapshot/tpe-000311.jpg",
    "map": "https://www.google.com/maps?q=25.0581,121.533",
    "source": "第三方"
  },
  {
    "id": 685,
    "name": "台北市道路 312-松江路-南京東二段",
    "region": "其他",
    "city": "台北市/新北市/基隆市",
    "lat": 25.0516,
    "lng": 121.5329,
    "url": "https://c01.第三方.com/cam/snapshot/tpe-000312.jpg",
    "map": "https://www.google.com/maps?q=25.0516,121.5329",
    "source": "第三方"
  },
  {
    "id": 686,
    "name": "台北市道路 313-松江路與長安東路口",
    "region": "其他",
    "city": "台北市/新北市/基隆市",
    "lat": 25.0484,
    "lng": 121.5329,
    "url": "https://c01.第三方.com/cam/snapshot/tpe-000313.jpg",
    "map": "https://www.google.com/maps?q=25.0484,121.5329",
    "source": "第三方"
  },
  {
    "id": 687,
    "name": "台北市道路 315-復興北路與民生東路口",
    "region": "其他",
    "city": "台北市/新北市/基隆市",
    "lat": 25.0579,
    "lng": 121.5441,
    "url": "https://c01.第三方.com/cam/snapshot/tpe-000315.jpg",
    "map": "https://www.google.com/maps?q=25.0579,121.5441",
    "source": "第三方"
  },
  {
    "id": 688,
    "name": "台北市道路 316-復興北路與南京東路口",
    "region": "其他",
    "city": "台北市/新北市/基隆市",
    "lat": 25.0519,
    "lng": 121.544,
    "url": "https://c01.第三方.com/cam/snapshot/tpe-000316.jpg",
    "map": "https://www.google.com/maps?q=25.0519,121.544",
    "source": "第三方"
  },
  {
    "id": 690,
    "name": "台北市道路 319-復興南路-仁愛三段",
    "region": "其他",
    "city": "台北市/新北市/基隆市",
    "lat": 25.0378,
    "lng": 121.5436,
    "url": "https://c01.第三方.com/cam/snapshot/tpe-000319.jpg",
    "map": "https://www.google.com/maps?q=25.0378,121.5436",
    "source": "第三方"
  },
  {
    "id": 691,
    "name": "台北市道路 320-復興南路與信義路口",
    "region": "其他",
    "city": "台北市/新北市/基隆市",
    "lat": 25.0332,
    "lng": 121.5434,
    "url": "https://c01.第三方.com/cam/snapshot/tpe-000320.jpg",
    "map": "https://www.google.com/maps?q=25.0332,121.5434",
    "source": "第三方"
  },