[{"id": 6153, "name": "台東景點 三仙台", "region": "旅遊景點", "city": "嘉義縣市/台南市", "lat": 23.1232, "lng": 121.407, "url": "https://i.ytimg.com/vi/dQ7Sd6PGLdA/sddefault_live.jpg", "map": "https://www.google.com/maps?q=23.1232,121.407", "source": "第三方"}, {"id": 6154, "name": "台東景點 加路蘭遊憩區", "region": "旅遊景點", "city": "高雄市/屏東縣", "lat": 22.8072, "lng": 121.197, "url": "https://i.ytimg.com/vi/AKl3F6cAY2Q/sddefault_live.jpg", "map": "https://www.google.com/maps?q=22.8072,121.197", "source": "第三方"}, {"id": 6155, "name": "台東景點 多良車站", "region": "旅遊景點", "city": "高雄市/屏東縣", "lat": 22.5071, "lng": 120.959, "url": "https://i.ytimg.com/vi/UCG1aXVO8H8/sddefault_live.jpg", "map": "https://www.google.com/maps?q=22.5071,120.959", "source": "第三方"}, {"id": 6156, "name": "台東景點 富山", "region": "旅遊景點", "city": "高雄市/屏東縣", "lat": 22.8367, "lng": 121.186, "url": "https://i.ytimg.com/vi/Rsq95SQ26bY/sddefault_live.jpg", "map": "https://www.google.com/maps?q=22.8367,121.186", "source": "第三方"}, {"id": 6157, "name": "台東景點 杉原灣", "region": "旅遊景點", "city": "高雄市/屏東縣", "lat": 22.8388, "lng": 121.187, "url": "https://i.ytimg.com/vi/VqS_Y8ZCj6M/sddefault_live.jpg", "map": "https://www.google.com/maps?q=22.8388,121.187", "source": "第三方"}, {"id": 6158, "name": "台東景點 池上天堂路", "region": "旅遊景點", "city": "嘉義縣市/台南市", "lat": 23.0969, "lng": 121.216, "url": "https://i.ytimg.com/vi/6kUEK3LVrro/sddefault_live.jpg", "map": "https://www.google.com/maps?q=23.0969,121.216", "source": "第三方"}, {"id": 6159, "name": "台東景點 綠島帆船鼻", "region": "旅遊景點", "city": "高雄市/屏東縣", "lat": 22.6354, "lng": 121.5069, "url": "https://i.ytimg.com/vi/fv1yFousBvc/sddefault_live.jpg", "map": "https://www.google.com/maps?q=22.6354,121.5069", "source": "第三方"}, {"id": 6160, "name": "台東景點 綠島柴口浮潛區", "region": "旅遊景點", "city": "高雄市/屏東縣", "lat": 22.6767, "lng": 121.4829, "url": "https://i.ytimg.com/vi/a8nJQr5rBGs/sddefault_live.jpg", "map": "https://www.google.com/maps?q=22.6767,121.4829", "source": "第三方"}, {"id": 6161, "name": "台東景點 都歷遊客中心", "region": "旅遊景點", "city": "嘉義縣市/台南市", "lat": 23.0204, "lng": 121.325, "url": "https://i.ytimg.com/vi/JhQuR77AR7U/sddefault_live.jpg", "map": "https://www.google.com/maps?q=23.0204,121.325", "source": "第三方"}, {"id": 6162, "name": "台東景點 金樽", "region": "旅遊景點", "city": "高雄市/屏東縣", "lat": 22.9542, "lng": 121.293, "url": "https://i.ytimg.com/vi/q3KJt-SZc2s/sddefault_live.jpg", "map": "https://www.google.com/maps?q=22.9542,121.293", "source": "第三方"}, {"id": 6163, "name": "台東景點 金樽遊憩區", "region": "旅遊景點", "city": "高雄市/屏東縣", "lat": 22.9451, "lng": 121.2798, "url": "https://i.ytimg.com/vi/ZdqHgQwvZOw/sddefault_live.jpg", "map": "https://www.google.com/maps?q=22.9451,121.2798", "source": "第三方"}, {"id": 6164, "name": "宜蘭縣道路 龍潭湖風景區 礁溪鄉漳福路口(龍潭湖出入口)(5)-往南全景（往漳福路）", "region": "旅遊景點", "city": "桃園市/新竹縣市", "lat": 24.7921, "lng": 121.7398, "url": "https://c01.第三方.com/cam/snapshot/ila-000073.jpg", "map": "https://www.google.com/maps?q=24.7921,121.7398", "source": "第三方"}, {"id": 6165, "name": "屏東縣道路 臺17線-大鵬灣環灣道路出入口(大鵬灣風景區)", "region": "旅遊景點", "city": "屏東縣/台東縣", "lat": 22.4562, "lng": 120.4841, "url": "https://c01.第三方.com/cam/snapshot/pif-000050.jpg", "map": "https://www.google.com/maps?q=22.4562,120.4841", "source": "第三方"}, {"id": 6166, "name": "新北市道路 三芝區台2、白沙灣風景區(約台2 22K+800處)", "region": "旅遊景點", "city": "台北市/新北市/基隆市", "lat": 25.2825, "lng": 121.5199, "url": "https://c01.第三方.com/cam/snapshot/nwt-000214.jpg", "map": "https://www.google.com/maps?q=25.2825,121.5199", "source": "第三方"}, {"id": 6167, "name": "新竹市道路 南寮街(南寮漁港旅遊服務中心1)", "region": "旅遊景點", "city": "桃園市/新竹縣市", "lat": 24.8494, "lng": 120.9278, "url": "https://c01.第三方.com/cam/snapshot/hsz-000084.jpg", "map": "https://www.google.com/maps?q=24.8494,120.9278", "source": "第三方"}, {"id": 6168, "name": "新竹市道路 南寮街(南寮漁港旅遊服務中心2)", "region": "旅遊景點", "city": "桃園市/新竹縣市", "lat": 24.8493, "lng": 120.9276, "url": "https://c01.第三方.com/cam/snapshot/hsz-000085.jpg", "map": "https://www.google.com/maps?q=24.8493,120.9276", "source": "第三方"}, {"id": 6169, "name": "新竹市道路 南寮街(南寮漁港旅遊服務中心3)", "region": "旅遊景點", "city": "桃園市/新竹縣市", "lat": 24.8491, "lng": 120.9277, "url": "https://c01.第三方.com/cam/snapshot/hsz-000086.jpg", "map": "https://www.google.com/maps?q=24.8491,120.9277", "source": "第三方"}, {"id": 6170, "name": "新竹市道路 南寮街與南寮街108巷(往旅遊服務中心)", "region": "旅遊景點", "city": "桃園市/新竹縣市", "lat": 24.8475, "lng": 120.9294, "url": "https://c01.第三方.com/cam/snapshot/hsz-000087.jpg", "map": "https://www.google.com/maps?q=24.8475,120.9294", "source": "第三方"}, {"id": 6171, "name": "玉山國家公園 南安遊客中心", "region": "旅遊景點", "city": "嘉義縣市/台南市", "lat": 23.3026, "lng": 121.2587, "url": "https://nan-an.ysnp.gov.tw/axis-cgi/mjpg/video.cgi", "map": "https://www.google.com/maps?q=23.3026,121.2587", "source": "第三方"}, {"id": 6172, "name": "玉山國家公園 塔塔加遊客中心", "region": "旅遊景點", "city": "嘉義縣市/台南市", "lat": 23.4876, "lng": 120.8917, "url": "https://tataka.ysnp.gov.tw/axis-cgi/mjpg/video.cgi", "map": "https://www.google.com/maps?q=23.4876,120.8917", "source": "第三方"}, {"id": 6173, "name": "玉山國家公園 排雲登山服務中心", "region": "旅遊景點", "city": "嘉義縣市/台南市", "lat": 23.4819, "lng": 120.8867, "url": "https://ysp.ysnp.gov.tw/axis-cgi/mjpg/video.cgi", "map": "https://www.google.com/maps?q=23.4819,120.8867", "source": "第三方"}, {"id": 6174, "name": "玉山國家公園 梅山遊客中心", "region": "旅遊景點", "city": "嘉義縣市/台南市", "lat": 23.2635, "lng": 120.826, "url": "https://meishan.ysnp.gov.tw/axis-cgi/mjpg/video.cgi", "map": "https://www.google.com/maps?q=23.2635,120.826", "source": "第三方"}, {"id": 6175, "name": "玉山國家公園 水里遊客中心", "region": "旅遊景點", "city": "彰化縣/南投縣/雲林縣", "lat": 23.8128, "lng": 120.85, "url": "https://shueili.ysnp.gov.tw/axis-cgi/mjpg/video.cgi", "map": "https://www.google.com/maps?q=23.8128,120.85", "source": "第三方"}, {"id": 6176, "name": "陽明山 二子坪停車場", "region": "旅遊景點", "city": "台北市/新北市/基隆市", "lat": 25.186, "lng": 121.525, "url": "https://i.ytimg.com/vi/d9KuXrPCWYU/sddefault_live.jpg", "map": "https://www.google.com/maps?q=25.186,121.525", "source": "第三方"}, {"id": 6177, "name": "陽明山 冷水坑停車場", "region": "旅遊景點", "city": "台北市/新北市/基隆市", "lat": 25.165, "lng": 121.563, "url": "https://i.ytimg.com/vi/GB64WeZZQPQ/sddefault_live.jpg", "map": "https://www.google.com/maps?q=25.165,121.563", "source": "第三方"}, {"id": 6178, "name": "陽明山 大屯自然公園", "region": "旅遊景點", "city": "台北市/新北市/基隆市", "lat": 25.187, "lng": 121.521, "url": "https://i.ytimg.com/vi/6ghffcNt3Nw/sddefault_live.jpg", "map": "https://www.google.com/maps?q=25.187,121.521", "source": "第三方"}, {"id": 6179, "name": "陽明山 小油坑停車場", "region": "旅遊景點", "city": "台北市/新北市/基隆市", "lat": 25.1793, "lng": 121.5446, "url": "https://i.ytimg.com/vi/kKD-ZBLs8-4/sddefault_live.jpg", "map": "https://www.google.com/maps?q=25.1793,121.5446", "source": "第三方"}, {"id": 6180, "name": "陽明山 擎天崗 360度 4K 全景", "region": "旅遊景點", "city": "台北市/新北市/基隆市", "lat": 25.166, "lng": 121.574, "url": "https://i.ytimg.com/vi/UX4FTHVXcz4/sddefault_live.jpg", "map": "https://www.google.com/maps?q=25.166,121.574", "source": "第三方"}, {"id": 6181, "name": "陽明山 遠眺七星山", "region": "旅遊景點", "city": "台北市/新北市/基隆市", "lat": 25.1555, "lng": 121.547, "url": "https://i.ytimg.com/vi/PvJr2efA6n0/sddefault_live.jpg", "map": "https://www.google.com/maps?q=25.1555,121.547", "source": "第三方"}, {"id": 6182, "name": "陽明山 陽明書屋", "region": "旅遊景點", "city": "台北市/新北市/基隆市", "lat": 25.161, "lng": 121.538, "url": "https://i.ytimg.com/vi/RttyIGHbN_w/sddefault_live.jpg", "map": "https://www.google.com/maps?q=25.161,121.538", "source": "第三方"}, {"id": 6183, "name": "雪霸國家公園 武陵遊憩區", "region": "旅遊景點", "city": "苗栗縣/台中市", "lat": 24.3532, "lng": 121.3098, "url": "https://i.ytimg.com/vi/aGOFDlySzoQ/hqdefault_live.jpg", "map": "https://www.google.com/maps?q=24.3532,121.3098", "source": "第三方"}, {"id": 6184, "name": "雪霸國家公園 汶水遊客中心", "region": "旅遊景點", "city": "苗栗縣/台中市", "lat": 24.4502, "lng": 120.8785, "url": "https://i.ytimg.com/vi/uFWjCr5YbUg/sddefault_live.jpg", "map": "https://www.google.com/maps?q=24.4502,120.8785", "source": "第三方"}, {"id": 6185, "name": "雪霸國家公園 觀霧遊憩區", "region": "旅遊景點", "city": "苗栗縣/台中市", "lat": 24.5066, "lng": 121.1144, "url": "https://i.ytimg.com/vi/gHBwgnzaBKg/hqdefault_live.jpg", "map": "https://www.google.com/maps?q=24.5066,121.1144", "source": "第三方"}, {"id": 6186, "name": "雪霸國家公園 雪見遊憩區", "region": "旅遊景點", "city": "苗栗縣/台中市", "lat": 24.4247, "lng": 121.0134, "url": "https://i.ytimg.com/vi/2KDE860OW_A/sddefault_live.jpg", "map": "https://www.google.com/maps?q=24.4247,121.0134", "source": "第三方"}]