[{"id": 6187, "name": "台北市政府 水利工程處 圓山抽水站(十河局)", "region": "水利署防災", "city": "台北市/新北市/基隆市", "lat": 25.0713, "lng": 121.5274, "url": "https://heocctv3.gov.taipei/channel15", "map": "https://www.google.com/maps?q=25.0713,121.5274", "source": "第三方"}, {"id": 6188, "name": "台北市政府 水利工程處 玉成抽水站(十河局)", "region": "水利署防災", "city": "台北市/新北市/基隆市", "lat": 25.0523, "lng": 121.5825, "url": "https://heocctv3.gov.taipei/channel16", "map": "https://www.google.com/maps?q=25.0523,121.5825", "source": "第三方"}, {"id": 6189, "name": "台北市政府 水利工程處 磺港溪奇岩抽水站外", "region": "水利署防災", "city": "台北市/新北市/基隆市", "lat": 25.124, "lng": 121.503, "url": "https://heocctv1.gov.taipei/channel34", "map": "https://www.google.com/maps?q=25.124,121.503", "source": "第三方"}, {"id": 6190, "name": "台北市政府 水利工程處 社子抽水站上游", "region": "水利署防災", "city": "台北市/新北市/基隆市", "lat": 25.092, "lng": 121.511, "url": "https://heocctv1.gov.taipei/channel24", "map": "https://www.google.com/maps?q=25.092,121.511", "source": "第三方"}, {"id": 6191, "name": "台北市政府 水利工程處 雙園抽水站", "region": "水利署防災", "city": "台北市/新北市/基隆市", "lat": 25.0304, "lng": 121.4882, "url": "https://heocctv3.gov.taipei/channel65", "map": "https://www.google.com/maps?q=25.0304,121.4882", "source": "第三方"}, {"id": 6192, "name": "台北市道路 047-麥帥二橋松山抽水站", "region": "水利署防災", "city": "台北市/新北市/基隆市", "lat": 25.0547, "lng": 121.5702, "url": "https://c01.第三方.com/cam/snapshot/tpe-000047.jpg", "map": "https://www.google.com/maps?q=25.0547,121.5702", "source": "第三方"}, {"id": 6193, "name": "台南市道路 南區-灣裡1抽水站喜灣大排", "region": "水利署防災", "city": "高雄市/屏東縣", "lat": 22.9483, "lng": 120.1816, "url": "https://c01.第三方.com/cam/snapshot/tnn-805355.jpg", "map": "https://www.google.com/maps?q=22.9483,120.1816", "source": "第三方"}, {"id": 6194, "name": "台南市道路 南區-灣裡2抽水站喜灣大排", "region": "水利署防災", "city": "高雄市/屏東縣", "lat": 22.9168, "lng": 120.1835, "url": "https://c01.第三方.com/cam/snapshot/tnn-805356.jpg", "map": "https://www.google.com/maps?q=22.9168,120.1835", "source": "第三方"}, {"id": 6195, "name": "台南市道路 南區-灣裡3抽水站喜灣大排", "region": "水利署防災", "city": "高雄市/屏東縣", "lat": 22.9172, "lng": 120.1838, "url": "https://c01.第三方.com/cam/snapshot/tnn-805357.jpg", "map": "https://www.google.com/maps?q=22.9172,120.1838", "source": "第三方"}, {"id": 6196, "name": "台南市道路 水利局 宅港抽水站", "region": "水利署防災", "city": "嘉義縣市/台南市", "lat": 23.2562, "lng": 120.2021, "url": "https://c01.第三方.com/cam/snapshot/tnn-805134.jpg", "map": "https://www.google.com/maps?q=23.2562,120.2021", "source": "第三方"}, {"id": 6197, "name": "台南市道路 水利局 平和抽水站", "region": "水利署防災", "city": "嘉義縣市/台南市", "lat": 23.2614, "lng": 120.2052, "url": "https://c01.第三方.com/cam/snapshot/tnn-805136.jpg", "map": "https://www.google.com/maps?q=23.2614,120.2052", "source": "第三方"}, {"id": 6198, "name": "台南市道路 水利局 新頭港抽水站", "region": "水利署防災", "city": "嘉義縣市/台南市", "lat": 23.2598, "lng": 120.1593, "url": "https://c01.第三方.com/cam/snapshot/tnn-805071.jpg", "map": "https://www.google.com/maps?q=23.2598,120.1593", "source": "第三方"}, {"id": 6199, "name": "台南市道路 水利局 港口中抽水站", "region": "水利署防災", "city": "嘉義縣市/台南市", "lat": 23.0876, "lng": 120.2368, "url": "https://c01.第三方.com/cam/snapshot/tnn-805192.jpg", "map": "https://www.google.com/maps?q=23.0876,120.2368", "source": "第三方"}, {"id": 6200, "name": "台南市道路 水利局 港口南抽水站", "region": "水利署防災", "city": "嘉義縣市/台南市", "lat": 23.0831, "lng": 120.2345, "url": "https://c01.第三方.com/cam/snapshot/tnn-805185.jpg", "map": "https://www.google.com/maps?q=23.0831,120.2345", "source": "第三方"}, {"id": 6201, "name": "台南市道路 水利局 羊稠厝抽水站滯洪池", "region": "水利署防災", "city": "嘉義縣市/台南市", "lat": 23.2694, "lng": 120.1911, "url": "https://c01.第三方.com/cam/snapshot/tnn-805116.jpg", "map": "https://www.google.com/maps?q=23.2694,120.1911", "source": "第三方"}, {"id": 6202, "name": "台南市道路 水利局 舊頭港抽水站", "region": "水利署防災", "city": "嘉義縣市/台南市", "lat": 23.2597, "lng": 120.1488, "url": "https://c01.第三方.com/cam/snapshot/tnn-805062.jpg", "map": "https://www.google.com/maps?q=23.2597,120.1488", "source": "第三方"}, {"id": 6203, "name": "台南市道路 永康區 仁愛街與水資源回收中心前南桿(向北)-廣角", "region": "水利署防災", "city": "嘉義縣市/台南市", "lat": 23.0478, "lng": 120.2408, "url": "https://trafficvideo5.tainan.gov.tw/6f0fcedb", "map": "https://www.google.com/maps?q=23.0478,120.2408", "source": "第三方"}, {"id": 6204, "name": "屏東縣道路 臺1線-臺3線(水利署)", "region": "水利署防災", "city": "高雄市/屏東縣", "lat": 22.6558, "lng": 120.4666, "url": "https://c01.第三方.com/cam/snapshot/pif-000007.jpg", "map": "https://www.google.com/maps?q=22.6558,120.4666", "source": "第三方"}, {"id": 6205, "name": "水利署水資源 台中市政府水利局 中區綠川里綠川水岸景觀步道CCTV", "region": "水利署防災", "city": "苗栗縣/台中市", "lat": 24.1386, "lng": 120.6839, "url": "https://c01.第三方.com/cam/snapshot/wra-001697.jpg", "map": "https://www.google.com/maps?q=24.1386,120.6839", "source": "第三方"}, {"id": 6206, "name": "水利署水資源 台中市政府水利局 中科路橋1影像", "region": "水利署防災", "city": "苗栗縣/台中市", "lat": 24.2004, "lng": 120.649, "url": "https://c01.第三方.com/cam/snapshot/wra-001665.jpg", "map": "https://www.google.com/maps?q=24.2004,120.649", "source": "第三方"}, {"id": 6207, "name": "水利署水資源 台中市政府水利局 中科路橋2影像", "region": "水利署防災", "city": "苗栗縣/台中市", "lat": 24.2003, "lng": 120.6491, "url": "https://c01.第三方.com/cam/snapshot/wra-002806.jpg", "map": "https://www.google.com/maps?q=24.2003,120.6491", "source": "第三方"}, {"id": 6208, "name": "水利署水資源 台中市政府水利局 中興抽水站影像", "region": "水利署防災", "city": "苗栗縣/台中市", "lat": 24.0904, "lng": 120.6531, "url": "https://c01.第三方.com/cam/snapshot/wra-001415.jpg", "map": "https://www.google.com/maps?q=24.0904,120.6531", "source": "第三方"}, {"id": 6209, "name": "水利署水資源 台中市政府水利局 乾溪下游", "region": "水利署防災", "city": "苗栗縣/台中市", "lat": 24.0661, "lng": 120.6944, "url": "https://c01.第三方.com/cam/snapshot/wra-000926.jpg", "map": "https://www.google.com/maps?q=24.0661,120.6944", "source": "第三方"}, {"id": 6210, "name": "水利署水資源 台中市政府水利局 二重溪上游", "region": "水利署防災", "city": "苗栗縣/台中市", "lat": 24.1691, "lng": 120.7125, "url": "https://c01.第三方.com/cam/snapshot/wra-002583.jpg", "map": "https://www.google.com/maps?q=24.1691,120.7125", "source": "第三方"}, {"id": 6211, "name": "水利署水資源 台中市政府水利局 五光路961巷抽水平台", "region": "水利署防災", "city": "苗栗縣/台中市", "lat": 24.0997, "lng": 120.6293, "url": "https://c01.第三方.com/cam/snapshot/wra-001868.jpg", "map": "https://www.google.com/maps?q=24.0997,120.6293", "source": "第三方"}, {"id": 6212, "name": "水利署水資源 台中市政府水利局 五光里五光路活動中心前CCTV", "region": "水利署防災", "city": "苗栗縣/台中市", "lat": 24.0939, "lng": 120.6514, "url": "https://c01.第三方.com/cam/snapshot/wra-001581.jpg", "map": "https://www.google.com/maps?q=24.0939,120.6514", "source": "第三方"}, {"id": 6213, "name": "水利署水資源 台中市政府水利局 五堂三號橋", "region": "水利署防災", "city": "苗栗縣/台中市", "lat": 24.0943, "lng": 120.6526, "url": "https://c01.第三方.com/cam/snapshot/wra-001434.jpg", "map": "https://www.google.com/maps?q=24.0943,120.6526", "source": "第三方"}, {"id": 6214, "name": "水利署水資源 台中市政府水利局 五張犁抽水站影像", "region": "水利署防災", "city": "苗栗縣/台中市", "lat": 24.0927, "lng": 120.6491, "url": "https://c01.第三方.com/cam/snapshot/wra-000263.jpg", "map": "https://www.google.com/maps?q=24.0927,120.6491", "source": "第三方"}, {"id": 6215, "name": "水利署水資源 台中市政府水利局 五福里五福路CCTV", "region": "水利署防災", "city": "苗栗縣/台中市", "lat": 24.0864, "lng": 120.6494, "url": "https://c01.第三方.com/cam/snapshot/wra-002348.jpg", "map": "https://www.google.com/maps?q=24.0864,120.6494", "source": "第三方"}, {"id": 6216, "name": "水利署水資源 台中市政府水利局 仁化滯洪池影像", "region": "水利署防災", "city": "苗栗縣/台中市", "lat": 24.0942, "lng": 120.7201, "url": "https://c01.第三方.com/cam/snapshot/wra-000915.jpg", "map": "https://www.google.com/maps?q=24.0942,120.7201", "source": "第三方"}, {"id": 6217, "name": "水利署水資源 台中市政府水利局 光明排水下游影像", "region": "水利署防災", "city": "苗栗縣/台中市", "lat": 24.1008, "lng": 120.6322, "url": "https://c01.第三方.com/cam/snapshot/wra-002533.jpg", "map": "https://www.google.com/maps?q=24.1008,120.6322", "source": "第三方"}, {"id": 6218, "name": "水利署水資源 台中市政府水利局 光興隆排水上游影像", "region": "水利署防災", "city": "苗栗縣/台中市", "lat": 24.1161, "lng": 120.7329, "url": "https://c01.第三方.com/cam/snapshot/wra-001624.jpg", "map": "https://www.google.com/maps?q=24.1161,120.7329", "source": "第三方"}, {"id": 6219, "name": "水利署水資源 台中市政府水利局 劉厝溪中游影像", "region": "水利署防災", "city": "苗栗縣/台中市", "lat": 24.128, "lng": 120.6232, "url": "https://c01.第三方.com/cam/snapshot/wra-001075.jpg", "map": "https://www.google.com/maps?q=24.128,120.6232", "source": "第三方"}, {"id": 6220, "name": "水利署水資源 台中市政府水利局 北屯圳上游", "region": "水利署防災", "city": "苗栗縣/台中市", "lat": 24.1713, "lng": 120.7025, "url": "https://c01.第三方.com/cam/snapshot/wra-001849.jpg", "map": "https://www.google.com/maps?q=24.1713,120.7025", "source": "第三方"}, {"id": 6221, "name": "水利署水資源 台中市政府水利局 北屯圳下游", "region": "水利署防災", "city": "苗栗縣/台中市", "lat": 24.1577, "lng": 120.7017, "url": "https://c01.第三方.com/cam/snapshot/wra-000762.jpg", "map": "https://www.google.com/maps?q=24.1577,120.7017", "source": "第三方"}, {"id": 6222, "name": "水利署水資源 台中市政府水利局 北溝溪下游", "region": "水利署防災", "city": "苗栗縣/台中市", "lat": 24.0618, "lng": 120.6808, "url": "https://c01.第三方.com/cam/snapshot/wra-000929.jpg", "map": "https://www.google.com/maps?q=24.0618,120.6808", "source": "第三方"}, {"id": 6223, "name": "水利署水資源 台中市政府水利局 十七輪中排水下游", "region": "水利署防災", "city": "苗栗縣/台中市", "lat": 24.1785, "lng": 120.5265, "url": "https://c01.第三方.com/cam/snapshot/wra-001799.jpg", "map": "https://www.google.com/maps?q=24.1785,120.5265", "source": "第三方"}, {"id": 6224, "name": "水利署水資源 台中市政府水利局 十三寮排水下游影像", "region": "水利署防災", "city": "苗栗縣/台中市", "lat": 24.2193, "lng": 120.6407, "url": "https://c01.第三方.com/cam/snapshot/wra-000898.jpg", "map": "https://www.google.com/maps?q=24.2193,120.6407", "source": "第三方"}, {"id": 6225, "name": "水利署水資源 台中市政府水利局 十三寮滯洪池影像", "region": "水利署防災", "city": "苗栗縣/台中市", "lat": 24.2362, "lng": 120.6407, "url": "https://c01.第三方.com/cam/snapshot/wra-001182.jpg", "map": "https://www.google.com/maps?q=24.2362,120.6407", "source": "第三方"}, {"id": 6226, "name": "水利署水資源 台中市政府水利局 南屯區五權西路高速公路下CCTV", "region": "水利署防災", "city": "苗栗縣/台中市", "lat": 24.1529, "lng": 120.6201, "url": "https://c01.第三方.com/cam/snapshot/wra-001585.jpg", "map": "https://www.google.com/maps?q=24.1529,120.6201", "source": "第三方"}, {"id": 6227, "name": "水利署水資源 台中市政府水利局 南屯區春社里王田圳", "region": "水利署防災", "city": "苗栗縣/台中市", "lat": 24.1307, "lng": 120.6153, "url": "https://c01.第三方.com/cam/snapshot/wra-n223283.jpg", "map": "https://www.google.com/maps?q=24.1307,120.6153", "source": "第三方"}, {"id": 6228, "name": "水利署水資源 台中市政府水利局 南屯區楓樹里永春東三路2CCTV", "region": "水利署防災", "city": "苗栗縣/台中市", "lat": 24.1198, "lng": 120.6312, "url": "https://c01.第三方.com/cam/snapshot/wra-001103.jpg", "map": "https://www.google.com/maps?q=24.1198,120.6312", "source": "第三方"}, {"id": 6229, "name": "水利署水資源 台中市政府水利局 南屯溪下游影像", "region": "水利署防災", "city": "苗栗縣/台中市", "lat": 24.1175, "lng": 120.6305, "url": "https://c01.第三方.com/cam/snapshot/wra-000768.jpg", "map": "https://www.google.com/maps?q=24.1175,120.6305", "source": "第三方"}, {"id": 6230, "name": "水利署水資源 台中市政府水利局 南山截水溝入流前(南勢溪)影像", "region": "水利署防災", "city": "苗栗縣/台中市", "lat": 24.2141, "lng": 120.553, "url": "https://c01.第三方.com/cam/snapshot/wra-003182.jpg", "map": "https://www.google.com/maps?q=24.2141,120.553", "source": "第三方"}, {"id": 6231, "name": "水利署水資源 台中市政府水利局 南山截水溝入流後(北勢溪)影像", "region": "水利署防災", "city": "苗栗縣/台中市", "lat": 24.2194, "lng": 120.5557, "url": "https://c01.第三方.com/cam/snapshot/wra-002700.jpg", "map": "https://www.google.com/maps?q=24.2194,120.5557", "source": "第三方"}, {"id": 6232, "name": "水利署水資源 台中市政府水利局 后溪底抽水站影像", "region": "水利署防災", "city": "苗栗縣/台中市", "lat": 24.0882, "lng": 120.6491, "url": "https://c01.第三方.com/cam/snapshot/wra-000826.jpg", "map": "https://www.google.com/maps?q=24.0882,120.6491", "source": "第三方"}, {"id": 6233, "name": "水利署水資源 台中市政府水利局 員寶圳", "region": "水利署防災", "city": "苗栗縣/台中市", "lat": 24.2135, "lng": 120.6668, "url": "https://c01.第三方.com/cam/snapshot/wra-000351.jpg", "map": "https://www.google.com/maps?q=24.2135,120.6668", "source": "第三方"}, {"id": 6234, "name": "水利署水資源 台中市政府水利局 坪林溪下游影像", "region": "水利署防災", "city": "苗栗縣/台中市", "lat": 24.1394, "lng": 120.7243, "url": "https://c01.第三方.com/cam/snapshot/wra-000648.jpg", "map": "https://www.google.com/maps?q=24.1394,120.7243", "source": "第三方"}, {"id": 6235, "name": "水利署水資源 台中市政府水利局 夏田里中興排水CCTV", "region": "水利署防災", "city": "苗栗縣/台中市", "lat": 24.0901, "lng": 120.6542, "url": "https://c01.第三方.com/cam/snapshot/wra-000427.jpg", "map": "https://www.google.com/maps?q=24.0901,120.6542", "source": "第三方"}, {"id": 6236, "name": "水利署水資源 台中市政府水利局 外埔第三排水上游", "region": "水利署防災", "city": "苗栗縣/台中市", "lat": 24.33, "lng": 120.6638, "url": "https://c01.第三方.com/cam/snapshot/wra-000444.jpg", "map": "https://www.google.com/maps?q=24.33,120.6638", "source": "第三方"}, {"id": 6237, "name": "水利署水資源 台中市政府水利局 大安區福興里大安幼兒園CCTV", "region": "水利署防災", "city": "苗栗縣/台中市", "lat": 24.3487, "lng": 120.6079, "url": "https://c01.第三方.com/cam/snapshot/wra-002578.jpg", "map": "https://www.google.com/maps?q=24.3487,120.6079", "source": "第三方"}, {"id": 6238, "name": "水利署水資源 台中市政府水利局 大甲區雁門路與錦上街口", "region": "水利署防災", "city": "苗栗縣/台中市", "lat": 24.3546, "lng": 120.6259, "url": "https://c01.第三方.com/cam/snapshot/wra-n223502.jpg", "map": "https://www.google.com/maps?q=24.3546,120.6259", "source": "第三方"}, {"id": 6239, "name": "水利署水資源 台中市政府水利局 大肚區南榮路口", "region": "水利署防災", "city": "苗栗縣/台中市", "lat": 24.1129, "lng": 120.5841, "url": "https://c01.第三方.com/cam/snapshot/wra-n223515.jpg", "map": "https://www.google.com/maps?q=24.1129,120.5841", "source": "第三方"}, {"id": 6240, "name": "水利署水資源 台中市政府水利局 大肚區大東里藍色公路口CCTV", "region": "水利署防災", "city": "苗栗縣/台中市", "lat": 24.152, "lng": 120.5489, "url": "https://c01.第三方.com/cam/snapshot/wra-002617.jpg", "map": "https://www.google.com/maps?q=24.152,120.5489", "source": "第三方"}, {"id": 6241, "name": "水利署水資源 台中市政府水利局 大肚區山陽排水CCTV影像", "region": "水利署防災", "city": "苗栗縣/台中市", "lat": 24.1697, "lng": 120.531, "url": "https://c01.第三方.com/cam/snapshot/wra-000596.jpg", "map": "https://www.google.com/maps?q=24.1697,120.531", "source": "第三方"}, {"id": 6242, "name": "水利署水資源 台中市政府水利局 大里區中興排水CCTV影像", "region": "水利署防災", "city": "苗栗縣/台中市", "lat": 24.0943, "lng": 120.6771, "url": "https://c01.第三方.com/cam/snapshot/wra-002225.jpg", "map": "https://www.google.com/maps?q=24.0943,120.6771", "source": "第三方"}, {"id": 6243, "name": "水利署水資源 台中市政府水利局 大雅區橫山里永和路CCTV", "region": "水利署防災", "city": "苗栗縣/台中市", "lat": 24.2087, "lng": 120.6295, "url": "https://c01.第三方.com/cam/snapshot/wra-003010.jpg", "map": "https://www.google.com/maps?q=24.2087,120.6295", "source": "第三方"}, {"id": 6244, "name": "水利署水資源 台中市政府水利局 安良港大排上游", "region": "水利署防災", "city": "苗栗縣/台中市", "lat": 24.2258, "lng": 120.5531, "url": "https://c01.第三方.com/cam/snapshot/wra-000345.jpg", "map": "https://www.google.com/maps?q=24.2258,120.5531", "source": "第三方"}, {"id": 6245, "name": "水利署水資源 台中市政府水利局 安良港大排中游影像", "region": "水利署防災", "city": "苗栗縣/台中市", "lat": 24.2208, "lng": 120.5343, "url": "https://c01.第三方.com/cam/snapshot/wra-001704.jpg", "map": "https://www.google.com/maps?q=24.2208,120.5343", "source": "第三方"}, {"id": 6246, "name": "水利署水資源 台中市政府水利局 崁子腳坑排水中游影像", "region": "水利署防災", "city": "苗栗縣/台中市", "lat": 24.1454, "lng": 120.5468, "url": "https://c01.第三方.com/cam/snapshot/wra-002850.jpg", "map": "https://www.google.com/maps?q=24.1454,120.5468", "source": "第三方"}, {"id": 6247, "name": "水利署水資源 台中市政府水利局 崁腳溝下游", "region": "水利署防災", "city": "苗栗縣/台中市", "lat": 24.2785, "lng": 120.7776, "url": "https://c01.第三方.com/cam/snapshot/wra-000991.jpg", "map": "https://www.google.com/maps?q=24.2785,120.7776", "source": "第三方"}, {"id": 6248, "name": "水利署水資源 台中市政府水利局 弘光科技大學影像", "region": "水利署防災", "city": "苗栗縣/台中市", "lat": 24.2173, "lng": 120.5807, "url": "https://c01.第三方.com/cam/snapshot/wra-000325.jpg", "map": "https://www.google.com/maps?q=24.2173,120.5807", "source": "第三方"}, {"id": 6249, "name": "水利署水資源 台中市政府水利局 後溪底排水下游影像", "region": "水利署防災", "city": "苗栗縣/台中市", "lat": 24.0858, "lng": 120.6495, "url": "https://c01.第三方.com/cam/snapshot/wra-001664.jpg", "map": "https://www.google.com/maps?q=24.0858,120.6495", "source": "第三方"}, {"id": 6250, "name": "水利署水資源 台中市政府水利局 後溪底排水中游影像", "region": "水利署防災", "city": "苗栗縣/台中市", "lat": 24.0729, "lng": 120.6509, "url": "https://c01.第三方.com/cam/snapshot/wra-001951.jpg", "map": "https://www.google.com/maps?q=24.0729,120.6509", "source": "第三方"}, {"id": 6251, "name": "水利署水資源 台中市政府水利局 慈光七村滯洪池影像", "region": "水利署防災", "city": "苗栗縣/台中市", "lat": 24.1422, "lng": 120.7365, "url": "https://c01.第三方.com/cam/snapshot/wra-002151.jpg", "map": "https://www.google.com/maps?q=24.1422,120.7365", "source": "第三方"}, {"id": 6252, "name": "水利署水資源 台中市政府水利局 旱溝下游影像", "region": "水利署防災", "city": "苗栗縣/台中市", "lat": 24.3029, "lng": 120.6941, "url": "https://c01.第三方.com/cam/snapshot/wra-001592.jpg", "map": "https://www.google.com/maps?q=24.3029,120.6941", "source": "第三方"}, {"id": 6253, "name": "水利署水資源 台中市政府水利局 朝洋溪下游", "region": "水利署防災", "city": "苗栗縣/台中市", "lat": 24.1695, "lng": 120.638, "url": "https://c01.第三方.com/cam/snapshot/wra-000956.jpg", "map": "https://www.google.com/maps?q=24.1695,120.638", "source": "第三方"}, {"id": 6254, "name": "水利署水資源 台中市政府水利局 林厝排水下游影像", "region": "水利署防災", "city": "苗栗縣/台中市", "lat": 24.1884, "lng": 120.6209, "url": "https://c01.第三方.com/cam/snapshot/wra-001632.jpg", "map": "https://www.google.com/maps?q=24.1884,120.6209", "source": "第三方"}, {"id": 6255, "name": "水利署水資源 台中市政府水利局 柳川(1)", "region": "水利署防災", "city": "苗栗縣/台中市", "lat": 24.1439, "lng": 120.6777, "url": "https://c01.第三方.com/cam/snapshot/wra-000519.jpg", "map": "https://www.google.com/maps?q=24.1439,120.6777", "source": "第三方"}, {"id": 6256, "name": "水利署水資源 台中市政府水利局 柳川(10)CCTV", "region": "水利署防災", "city": "苗栗縣/台中市", "lat": 24.1435, "lng": 120.6777, "url": "https://c01.第三方.com/cam/snapshot/wra-001528.jpg", "map": "https://www.google.com/maps?q=24.1435,120.6777", "source": "第三方"}, {"id": 6257, "name": "水利署水資源 台中市政府水利局 柳川(11)CCTV", "region": "水利署防災", "city": "苗栗縣/台中市", "lat": 24.1429, "lng": 120.6774, "url": "https://c01.第三方.com/cam/snapshot/wra-003072.jpg", "map": "https://www.google.com/maps?q=24.1429,120.6774", "source": "第三方"}, {"id": 6258, "name": "水利署水資源 台中市政府水利局 柳川(12)CCTV", "region": "水利署防災", "city": "苗栗縣/台中市", "lat": 24.1431, "lng": 120.6772, "url": "https://c01.第三方.com/cam/snapshot/wra-002264.jpg", "map": "https://www.google.com/maps?q=24.1431,120.6772", "source": "第三方"}, {"id": 6259, "name": "水利署水資源 台中市政府水利局 柳川(13)CCTV", "region": "水利署防災", "city": "苗栗縣/台中市", "lat": 24.142, "lng": 120.6768, "url": "https://c01.第三方.com/cam/snapshot/wra-002412.jpg", "map": "https://www.google.com/maps?q=24.142,120.6768", "source": "第三方"}, {"id": 6260, "name": "水利署水資源 台中市政府水利局 柳川(14)CCTV", "region": "水利署防災", "city": "苗栗縣/台中市", "lat": 24.1422, "lng": 120.6766, "url": "https://c01.第三方.com/cam/snapshot/wra-002195.jpg", "map": "https://www.google.com/maps?q=24.1422,120.6766", "source": "第三方"}, {"id": 6261, "name": "水利署水資源 台中市政府水利局 柳川(15)CCTV", "region": "水利署防災", "city": "苗栗縣/台中市", "lat": 24.1415, "lng": 120.6758, "url": "https://c01.第三方.com/cam/snapshot/wra-002841.jpg", "map": "https://www.google.com/maps?q=24.1415,120.6758", "source": "第三方"}, {"id": 6262, "name": "水利署水資源 台中市政府水利局 柳川(16)CCTV影像", "region": "水利署防災", "city": "苗栗縣/台中市", "lat": 24.1415, "lng": 120.6756, "url": "https://c01.第三方.com/cam/snapshot/wra-002567.jpg", "map": "https://www.google.com/maps?q=24.1415,120.6756", "source": "第三方"}, {"id": 6263, "name": "水利署水資源 台中市政府水利局 柳川(2)CCTV", "region": "水利署防災", "city": "苗栗縣/台中市", "lat": 24.1436, "lng": 120.6773, "url": "https://c01.第三方.com/cam/snapshot/wra-003214.jpg", "map": "https://www.google.com/maps?q=24.1436,120.6773", "source": "第三方"}, {"id": 6264, "name": "水利署水資源 台中市政府水利局 柳川(3)CCTV", "region": "水利署防災", "city": "苗栗縣/台中市", "lat": 24.1435, "lng": 120.6777, "url": "https://c01.第三方.com/cam/snapshot/wra-002014.jpg", "map": "https://www.google.com/maps?q=24.1435,120.6777", "source": "第三方"}, {"id": 6265, "name": "水利署水資源 台中市政府水利局 柳川(4)CCTV", "region": "水利署防災", "city": "苗栗縣/台中市", "lat": 24.1424, "lng": 120.6772, "url": "https://c01.第三方.com/cam/snapshot/wra-003328.jpg", "map": "https://www.google.com/maps?q=24.1424,120.6772", "source": "第三方"}, {"id": 6266, "name": "水利署水資源 台中市政府水利局 柳川(5)CCTV", "region": "水利署防災", "city": "苗栗縣/台中市", "lat": 24.1423, "lng": 120.6772, "url": "https://c01.第三方.com/cam/snapshot/wra-000697.jpg", "map": "https://www.google.com/maps?q=24.1423,120.6772", "source": "第三方"}, {"id": 6267, "name": "水利署水資源 台中市政府水利局 柳川(6)CCTV", "region": "水利署防災", "city": "苗栗縣/台中市", "lat": 24.1421, "lng": 120.6767, "url": "https://c01.第三方.com/cam/snapshot/wra-001779.jpg", "map": "https://www.google.com/maps?q=24.1421,120.6767", "source": "第三方"}, {"id": 6268, "name": "水利署水資源 台中市政府水利局 柳川(7)CCTV", "region": "水利署防災", "city": "苗栗縣/台中市", "lat": 24.1416, "lng": 120.6764, "url": "https://c01.第三方.com/cam/snapshot/wra-000122.jpg", "map": "https://www.google.com/maps?q=24.1416,120.6764", "source": "第三方"}, {"id": 6269, "name": "水利署水資源 台中市政府水利局 柳川(8)CCTV", "region": "水利署防災", "city": "苗栗縣/台中市", "lat": 24.1415, "lng": 120.6758, "url": "https://c01.第三方.com/cam/snapshot/wra-000162.jpg", "map": "https://www.google.com/maps?q=24.1415,120.6758", "source": "第三方"}, {"id": 6270, "name": "水利署水資源 台中市政府水利局 柳川(9)CCTV", "region": "水利署防災", "city": "苗栗縣/台中市", "lat": 24.1415, "lng": 120.6762, "url": "https://c01.第三方.com/cam/snapshot/wra-002981.jpg", "map": "https://www.google.com/maps?q=24.1415,120.6762", "source": "第三方"}, {"id": 6271, "name": "水利署水資源 台中市政府水利局 梅川下游", "region": "水利署防災", "city": "苗栗縣/台中市", "lat": 24.1426, "lng": 120.6679, "url": "https://c01.第三方.com/cam/snapshot/wra-001396.jpg", "map": "https://www.google.com/maps?q=24.1426,120.6679", "source": "第三方"}, {"id": 6272, "name": "水利署水資源 台中市政府水利局 梧棲大排上游", "region": "水利署防災", "city": "苗栗縣/台中市", "lat": 24.2415, "lng": 120.5581, "url": "https://c01.第三方.com/cam/snapshot/wra-000990.jpg", "map": "https://www.google.com/maps?q=24.2415,120.5581", "source": "第三方"}, {"id": 6273, "name": "水利署水資源 台中市政府水利局 梧棲大排中游影像", "region": "水利署防災", "city": "苗栗縣/台中市", "lat": 24.2419, "lng": 120.5374, "url": "https://c01.第三方.com/cam/snapshot/wra-002451.jpg", "map": "https://www.google.com/maps?q=24.2419,120.5374", "source": "第三方"}, {"id": 6274, "name": "水利署水資源 台中市政府水利局 梧棲大排堤防右岸靠近61道路抽水平台影像", "region": "水利署防災", "city": "苗栗縣/台中市", "lat": 24.2432, "lng": 120.534, "url": "https://c01.第三方.com/cam/snapshot/wra-003227.jpg", "map": "https://www.google.com/maps?q=24.2432,120.534", "source": "第三方"}, {"id": 6275, "name": "水利署水資源 台中市政府水利局 樹王埤排水上游", "region": "水利署防災", "city": "苗栗縣/台中市", "lat": 24.0983, "lng": 120.6652, "url": "https://c01.第三方.com/cam/snapshot/wra-001295.jpg", "map": "https://www.google.com/maps?q=24.0983,120.6652", "source": "第三方"}, {"id": 6276, "name": "水利署水資源 台中市政府水利局 樹王埤排水下游", "region": "水利署防災", "city": "苗栗縣/台中市", "lat": 24.0937, "lng": 120.6513, "url": "https://c01.第三方.com/cam/snapshot/wra-001998.jpg", "map": "https://www.google.com/maps?q=24.0937,120.6513", "source": "第三方"}, {"id": 6277, "name": "水利署水資源 台中市政府水利局 武鹿抽水站", "region": "水利署防災", "city": "苗栗縣/台中市", "lat": 24.2888, "lng": 120.5425, "url": "https://c01.第三方.com/cam/snapshot/wra-n223316.jpg", "map": "https://www.google.com/maps?q=24.2888,120.5425", "source": "第三方"}, {"id": 6278, "name": "水利署水資源 台中市政府水利局 民興橋", "region": "水利署防災", "city": "苗栗縣/台中市", "lat": 24.1994, "lng": 120.7908, "url": "https://c01.第三方.com/cam/snapshot/wra-000910.jpg", "map": "https://www.google.com/maps?q=24.1994,120.7908", "source": "第三方"}, {"id": 6279, "name": "水利署水資源 台中市政府水利局 沙鹿區鹿峰里星河路CCTV", "region": "水利署防災", "city": "苗栗縣/台中市", "lat": 24.2528, "lng": 120.569, "url": "https://c01.第三方.com/cam/snapshot/wra-003204.jpg", "map": "https://www.google.com/maps?q=24.2528,120.569", "source": "第三方"}, {"id": 6280, "name": "水利署水資源 台中市政府水利局 清水大排下游", "region": "水利署防災", "city": "苗栗縣/台中市", "lat": 24.297, "lng": 120.5507, "url": "https://c01.第三方.com/cam/snapshot/wra-001189.jpg", "map": "https://www.google.com/maps?q=24.297,120.5507", "source": "第三方"}, {"id": 6281, "name": "水利署水資源 台中市政府水利局 清水大排中游影像", "region": "水利署防災", "city": "苗栗縣/台中市", "lat": 24.2843, "lng": 120.5609, "url": "https://c01.第三方.com/cam/snapshot/wra-001587.jpg", "map": "https://www.google.com/maps?q=24.2843,120.5609", "source": "第三方"}, {"id": 6282, "name": "水利署水資源 台中市政府水利局 港尾子溪上游影像", "region": "水利署防災", "city": "苗栗縣/台中市", "lat": 24.2073, "lng": 120.6649, "url": "https://c01.第三方.com/cam/snapshot/wra-000925.jpg", "map": "https://www.google.com/maps?q=24.2073,120.6649", "source": "第三方"}, {"id": 6283, "name": "水利署水資源 台中市政府水利局 港尾子溪中游", "region": "水利署防災", "city": "苗栗縣/台中市", "lat": 24.1927, "lng": 120.6455, "url": "https://c01.第三方.com/cam/snapshot/wra-002352.jpg", "map": "https://www.google.com/maps?q=24.1927,120.6455", "source": "第三方"}, {"id": 6284, "name": "水利署水資源 台中市政府水利局 湖日抽水站影像", "region": "水利署防災", "city": "苗栗縣/台中市", "lat": 24.1024, "lng": 120.6213, "url": "https://c01.第三方.com/cam/snapshot/wra-003355.jpg", "map": "https://www.google.com/maps?q=24.1024,120.6213", "source": "第三方"}, {"id": 6285, "name": "水利署水資源 台中市政府水利局 溪心壩排水上游", "region": "水利署防災", "city": "苗栗縣/台中市", "lat": 24.0551, "lng": 120.651, "url": "https://c01.第三方.com/cam/snapshot/wra-002590.jpg", "map": "https://www.google.com/maps?q=24.0551,120.651", "source": "第三方"}, {"id": 6286, "name": "水利署水資源 台中市政府水利局 溫寮溪下游", "region": "水利署防災", "city": "苗栗縣/台中市", "lat": 24.3728, "lng": 120.586, "url": "https://c01.第三方.com/cam/snapshot/wra-003340.jpg", "map": "https://www.google.com/maps?q=24.3728,120.586", "source": "第三方"}, {"id": 6287, "name": "水利署水資源 台中市政府水利局 溫寮溪中游", "region": "水利署防災", "city": "苗栗縣/台中市", "lat": 24.3483, "lng": 120.6103, "url": "https://c01.第三方.com/cam/snapshot/wra-001556.jpg", "map": "https://www.google.com/maps?q=24.3483,120.6103", "source": "第三方"}, {"id": 6288, "name": "水利署水資源 台中市政府水利局 潭子區大豐里大豐路二段CCTV", "region": "水利署防災", "city": "苗栗縣/台中市", "lat": 24.2214, "lng": 120.6943, "url": "https://c01.第三方.com/cam/snapshot/wra-001984.jpg", "map": "https://www.google.com/maps?q=24.2214,120.6943", "source": "第三方"}, {"id": 6289, "name": "水利署水資源 台中市政府水利局 牛角坑溪下游影像", "region": "水利署防災", "city": "苗栗縣/台中市", "lat": 24.1017, "lng": 120.7167, "url": "https://c01.第三方.com/cam/snapshot/wra-003230.jpg", "map": "https://www.google.com/maps?q=24.1017,120.7167", "source": "第三方"}, {"id": 6290, "name": "水利署水資源 台中市政府水利局 玉門路-路面淹水影像", "region": "水利署防災", "city": "苗栗縣/台中市", "lat": 24.1858, "lng": 120.6098, "url": "https://c01.第三方.com/cam/snapshot/wra-002914.jpg", "map": "https://www.google.com/maps?q=24.1858,120.6098", "source": "第三方"}, {"id": 6291, "name": "水利署水資源 台中市政府水利局 知高圳", "region": "水利署防災", "city": "苗栗縣/台中市", "lat": 24.1546, "lng": 120.6196, "url": "https://c01.第三方.com/cam/snapshot/wra-n223471.jpg", "map": "https://www.google.com/maps?q=24.1546,120.6196", "source": "第三方"}, {"id": 6292, "name": "水利署水資源 台中市政府水利局 石角坑溪中游影像", "region": "水利署防災", "city": "苗栗縣/台中市", "lat": 24.2477, "lng": 120.8398, "url": "https://c01.第三方.com/cam/snapshot/wra-000799.jpg", "map": "https://www.google.com/maps?q=24.2477,120.8398", "source": "第三方"}, {"id": 6293, "name": "水利署水資源 台中市政府水利局 社子腳坑排水上游影像", "region": "水利署防災", "city": "苗栗縣/台中市", "lat": 24.1329, "lng": 120.5515, "url": "https://c01.第三方.com/cam/snapshot/wra-000555.jpg", "map": "https://www.google.com/maps?q=24.1329,120.5515", "source": "第三方"}, {"id": 6294, "name": "水利署水資源 台中市政府水利局 神岡區和睦路一段887巷路口[CCTV] ", "region": "水利署防災", "city": "苗栗縣/台中市", "lat": 24.2869, "lng": 120.6414, "url": "https://c01.第三方.com/cam/snapshot/wra-002796.jpg", "map": "https://www.google.com/maps?q=24.2869,120.6414", "source": "第三方"}, {"id": 6295, "name": "水利署水資源 台中市政府水利局 神岡區堤南路195號前", "region": "水利署防災", "city": "苗栗縣/台中市", "lat": 24.2794, "lng": 120.6952, "url": "https://c01.第三方.com/cam/snapshot/wra-n223286.jpg", "map": "https://www.google.com/maps?q=24.2794,120.6952", "source": "第三方"}, {"id": 6296, "name": "水利署水資源 台中市政府水利局 立新滯洪池", "region": "水利署防災", "city": "苗栗縣/台中市", "lat": 24.1055, "lng": 120.6967, "url": "https://c01.第三方.com/cam/snapshot/wra-n223549.jpg", "map": "https://www.google.com/maps?q=24.1055,120.6967", "source": "第三方"}, {"id": 6297, "name": "水利署水資源 台中市政府水利局 綠(1)CCTV", "region": "水利署防災", "city": "苗栗縣/台中市", "lat": 24.1393, "lng": 120.6846, "url": "https://c01.第三方.com/cam/snapshot/wra-002097.jpg", "map": "https://www.google.com/maps?q=24.1393,120.6846", "source": "第三方"}, {"id": 6298, "name": "水利署水資源 台中市政府水利局 綠川(10)CCTV影像", "region": "水利署防災", "city": "苗栗縣/台中市", "lat": 24.135, "lng": 120.6818, "url": "https://c01.第三方.com/cam/snapshot/wra-001840.jpg", "map": "https://www.google.com/maps?q=24.135,120.6818", "source": "第三方"}, {"id": 6299, "name": "水利署水資源 台中市政府水利局 綠川(2)CCTV", "region": "水利署防災", "city": "苗栗縣/台中市", "lat": 24.1393, "lng": 120.6846, "url": "https://c01.第三方.com/cam/snapshot/wra-002729.jpg", "map": "https://www.google.com/maps?q=24.1393,120.6846", "source": "第三方"}, {"id": 6300, "name": "水利署水資源 台中市政府水利局 綠川(3)CCTV", "region": "水利署防災", "city": "苗栗縣/台中市", "lat": 24.139, "lng": 120.6843, "url": "https://c01.第三方.com/cam/snapshot/wra-000374.jpg", "map": "https://www.google.com/maps?q=24.139,120.6843", "source": "第三方"}, {"id": 6301, "name": "水利署水資源 台中市政府水利局 綠川(4)CCTV", "region": "水利署防災", "city": "苗栗縣/台中市", "lat": 24.1386, "lng": 120.6839, "url": "https://c01.第三方.com/cam/snapshot/wra-000772.jpg", "map": "https://www.google.com/maps?q=24.1386,120.6839", "source": "第三方"}, {"id": 6302, "name": "水利署水資源 台中市政府水利局 綠川(5)CCTV", "region": "水利署防災", "city": "苗栗縣/台中市", "lat": 24.1379, "lng": 120.6832, "url": "https://c01.第三方.com/cam/snapshot/wra-001871.jpg", "map": "https://www.google.com/maps?q=24.1379,120.6832", "source": "第三方"}, {"id": 6303, "name": "水利署水資源 台中市政府水利局 綠川(6)CCTV", "region": "水利署防災", "city": "苗栗縣/台中市", "lat": 24.1375, "lng": 120.6827, "url": "https://c01.第三方.com/cam/snapshot/wra-000583.jpg", "map": "https://www.google.com/maps?q=24.1375,120.6827", "source": "第三方"}, {"id": 6304, "name": "水利署水資源 台中市政府水利局 綠川(7)CCTV", "region": "水利署防災", "city": "苗栗縣/台中市", "lat": 24.1392, "lng": 120.6847, "url": "https://c01.第三方.com/cam/snapshot/wra-001330.jpg", "map": "https://www.google.com/maps?q=24.1392,120.6847", "source": "第三方"}, {"id": 6305, "name": "水利署水資源 台中市政府水利局 綠川(8)CCTV", "region": "水利署防災", "city": "苗栗縣/台中市", "lat": 24.1386, "lng": 120.6839, "url": "https://c01.第三方.com/cam/snapshot/wra-002693.jpg", "map": "https://www.google.com/maps?q=24.1386,120.6839", "source": "第三方"}, {"id": 6306, "name": "水利署水資源 台中市政府水利局 臺中韌性影像監視站-中區柳川中山堂上游", "region": "水利署防災", "city": "苗栗縣/台中市", "lat": 24.1557, "lng": 120.6821, "url": "https://c01.第三方.com/cam/snapshot/wra-003250.jpg", "map": "https://www.google.com/maps?q=24.1557,120.6821", "source": "第三方"}, {"id": 6307, "name": "水利署水資源 台中市政府水利局 臺中韌性影像監視站-后里區旱溝排水中游", "region": "水利署防災", "city": "苗栗縣/台中市", "lat": 24.3026, "lng": 120.7077, "url": "https://c01.第三方.com/cam/snapshot/wra-001649.jpg", "map": "https://www.google.com/maps?q=24.3026,120.7077", "source": "第三方"}, {"id": 6308, "name": "水利署水資源 台中市政府水利局 臺中韌性影像監視站-大里區中興排水下游", "region": "水利署防災", "city": "苗栗縣/台中市", "lat": 24.092, "lng": 120.656, "url": "https://c01.第三方.com/cam/snapshot/wra-002715.jpg", "map": "https://www.google.com/maps?q=24.092,120.656", "source": "第三方"}, {"id": 6309, "name": "水利署水資源 台中市政府水利局 臺中韌性影像監視站-大雅區十三寮排水上游", "region": "水利署防災", "city": "苗栗縣/台中市", "lat": 24.2341, "lng": 120.6275, "url": "https://c01.第三方.com/cam/snapshot/wra-001655.jpg", "map": "https://www.google.com/maps?q=24.2341,120.6275", "source": "第三方"}, {"id": 6310, "name": "水利署水資源 台中市政府水利局 臺中韌性影像監視站-大雅區林厝排水上游", "region": "水利署防災", "city": "苗栗縣/台中市", "lat": 24.2087, "lng": 120.6295, "url": "https://c01.第三方.com/cam/snapshot/wra-001371.jpg", "map": "https://www.google.com/maps?q=24.2087,120.6295", "source": "第三方"}, {"id": 6311, "name": "水利署水資源 台中市政府水利局 臺中韌性影像監視站-太平區坪林溪上游", "region": "水利署防災", "city": "苗栗縣/台中市", "lat": 24.1402, "lng": 120.7314, "url": "https://c01.第三方.com/cam/snapshot/wra-001834.jpg", "map": "https://www.google.com/maps?q=24.1402,120.7314", "source": "第三方"}, {"id": 6312, "name": "水利署水資源 台中市政府水利局 臺中韌性影像監視站-太平區牛角坑溪上游", "region": "水利署防災", "city": "苗栗縣/台中市", "lat": 24.0952, "lng": 120.7327, "url": "https://c01.第三方.com/cam/snapshot/wra-001391.jpg", "map": "https://www.google.com/maps?q=24.0952,120.7327", "source": "第三方"}, {"id": 6313, "name": "水利署水資源 台中市政府水利局 臺中韌性影像監視站-東勢區石角坑溪下游", "region": "水利署防災", "city": "苗栗縣/台中市", "lat": 24.2478, "lng": 120.8337, "url": "https://c01.第三方.com/cam/snapshot/wra-000897.jpg", "map": "https://www.google.com/maps?q=24.2478,120.8337", "source": "第三方"}, {"id": 6314, "name": "水利署水資源 台中市政府水利局 臺中韌性影像監視站-霧峰區車籠埤排水下游", "region": "水利署防災", "city": "苗栗縣/台中市", "lat": 24.0796, "lng": 120.6669, "url": "https://c01.第三方.com/cam/snapshot/wra-000865.jpg", "map": "https://www.google.com/maps?q=24.0796,120.6669", "source": "第三方"}, {"id": 6315, "name": "水利署水資源 台中市政府水利局 臺中韌性影像監視站-霧峰區車籠埤排水中游", "region": "水利署防災", "city": "苗栗縣/台中市", "lat": 24.0695, "lng": 120.6678, "url": "https://c01.第三方.com/cam/snapshot/wra-002280.jpg", "map": "https://www.google.com/maps?q=24.0695,120.6678", "source": "第三方"}, {"id": 6316, "name": "水利署水資源 台中市政府水利局 苧園溪下游影像", "region": "水利署防災", "city": "苗栗縣/台中市", "lat": 24.1632, "lng": 120.7346, "url": "https://c01.第三方.com/cam/snapshot/wra-001902.jpg", "map": "https://www.google.com/maps?q=24.1632,120.7346", "source": "第三方"}, {"id": 6317, "name": "水利署水資源 台中市政府水利局 豐原區萬年路與豐勢路二段口", "region": "水利署防災", "city": "苗栗縣/台中市", "lat": 24.2626, "lng": 120.7394, "url": "https://c01.第三方.com/cam/snapshot/wra-n223407.jpg", "map": "https://www.google.com/maps?q=24.2626,120.7394", "source": "第三方"}, {"id": 6318, "name": "水利署水資源 台中市政府水利局 車龍埤抽水站影像", "region": "水利署防災", "city": "苗栗縣/台中市", "lat": 24.0797, "lng": 120.666, "url": "https://c01.第三方.com/cam/snapshot/wra-001077.jpg", "map": "https://www.google.com/maps?q=24.0797,120.666", "source": "第三方"}, {"id": 6319, "name": "水利署水資源 台中市政府水利局 軟埤仔滯洪池影像", "region": "水利署防災", "city": "苗栗縣/台中市", "lat": 24.2562, "lng": 120.7067, "url": "https://c01.第三方.com/cam/snapshot/wra-002528.jpg", "map": "https://www.google.com/maps?q=24.2562,120.7067", "source": "第三方"}, {"id": 6320, "name": "水利署水資源 台中市政府水利局 電火溪中游", "region": "水利署防災", "city": "苗栗縣/台中市", "lat": 24.3447, "lng": 120.6853, "url": "https://c01.第三方.com/cam/snapshot/wra-001188.jpg", "map": "https://www.google.com/maps?q=24.3447,120.6853", "source": "第三方"}, {"id": 6321, "name": "水利署水資源 台中市政府水利局 霧峰區本堂里活動中心CCTV", "region": "水利署防災", "city": "苗栗縣/台中市", "lat": 24.0597, "lng": 120.6981, "url": "https://c01.第三方.com/cam/snapshot/wra-000955.jpg", "map": "https://www.google.com/maps?q=24.0597,120.6981", "source": "第三方"}, {"id": 6322, "name": "水利署水資源 台中市政府水利局 頭隘坑溪上游影像", "region": "水利署防災", "city": "苗栗縣/台中市", "lat": 24.2109, "lng": 120.8473, "url": "https://c01.第三方.com/cam/snapshot/wra-002835.jpg", "map": "https://www.google.com/maps?q=24.2109,120.8473", "source": "第三方"}, {"id": 6323, "name": "水利署水資源 台中市政府水利局 頭隘坑溪中游影像", "region": "水利署防災", "city": "苗栗縣/台中市", "lat": 24.211, "lng": 120.8395, "url": "https://c01.第三方.com/cam/snapshot/wra-001617.jpg", "map": "https://www.google.com/maps?q=24.211,120.8395", "source": "第三方"}, {"id": 6324, "name": "水利署水資源 台中市政府水利局 麻園頭溪下游影像", "region": "水利署防災", "city": "苗栗縣/台中市", "lat": 24.1494, "lng": 120.6568, "url": "https://c01.第三方.com/cam/snapshot/wra-003058.jpg", "map": "https://www.google.com/maps?q=24.1494,120.6568", "source": "第三方"}, {"id": 6325, "name": "水利署水資源 台中市政府水利局 龍井區山腳排水CCTV影像", "region": "水利署防災", "city": "苗栗縣/台中市", "lat": 24.2055, "lng": 120.5455, "url": "https://c01.第三方.com/cam/snapshot/wra-000568.jpg", "map": "https://www.google.com/maps?q=24.2055,120.5455", "source": "第三方"}, {"id": 6326, "name": "水利署水資源 台中市政府水利局 龍井大排上游影像", "region": "水利署防災", "city": "苗栗縣/台中市", "lat": 24.186, "lng": 120.5454, "url": "https://c01.第三方.com/cam/snapshot/wra-001801.jpg", "map": "https://www.google.com/maps?q=24.186,120.5454", "source": "第三方"}, {"id": 6327, "name": "水利署水資源 嘉義市政府工務處 世賢路二段及高鐵路口CCTV", "region": "水利署防災", "city": "嘉義縣市/台南市", "lat": 23.4823, "lng": 120.4207, "url": "https://c01.第三方.com/cam/snapshot/wra-001574.jpg", "map": "https://www.google.com/maps?q=23.4823,120.4207", "source": "第三方"}, {"id": 6328, "name": "水利署水資源 嘉義市政府工務處 信義路45巷61號CCTV", "region": "水利署防災", "city": "嘉義縣市/台南市", "lat": 23.4742, "lng": 120.4351, "url": "https://c01.第三方.com/cam/snapshot/wra-000922.jpg", "map": "https://www.google.com/maps?q=23.4742,120.4351", "source": "第三方"}, {"id": 6329, "name": "水利署水資源 嘉義市政府工務處 北排水世賢路旁CCTV", "region": "水利署防災", "city": "嘉義縣市/台南市", "lat": 23.4951, "lng": 120.4473, "url": "https://c01.第三方.com/cam/snapshot/wra-001150.jpg", "map": "https://www.google.com/maps?q=23.4951,120.4473", "source": "第三方"}, {"id": 6330, "name": "水利署水資源 嘉義市政府工務處 北排水王田支線CCTV", "region": "水利署防災", "city": "嘉義縣市/台南市", "lat": 23.4864, "lng": 120.4664, "url": "https://c01.第三方.com/cam/snapshot/wra-000567.jpg", "map": "https://www.google.com/maps?q=23.4864,120.4664", "source": "第三方"}, {"id": 6331, "name": "水利署水資源 嘉義市政府工務處 嘉義交流道往西機車引道排水涵洞 ", "region": "水利署防災", "city": "嘉義縣市/台南市", "lat": 23.4965, "lng": 120.3909, "url": "https://c01.第三方.com/cam/snapshot/wra-002038.jpg", "map": "https://www.google.com/maps?q=23.4965,120.3909", "source": "第三方"}, {"id": 6332, "name": "水利署水資源 嘉義市政府工務處 後庒直排一 ", "region": "水利署防災", "city": "彰化縣/南投縣/雲林縣", "lat": 23.5002, "lng": 120.4707, "url": "https://c01.第三方.com/cam/snapshot/wra-001804.jpg", "map": "https://www.google.com/maps?q=23.5002,120.4707", "source": "第三方"}, {"id": 6333, "name": "水利署水資源 嘉義市政府工務處 新生路老爺城堡旁CCTV", "region": "水利署防災", "city": "嘉義縣市/台南市", "lat": 23.4934, "lng": 120.4572, "url": "https://c01.第三方.com/cam/snapshot/wra-001952.jpg", "map": "https://www.google.com/maps?q=23.4934,120.4572", "source": "第三方"}, {"id": 6334, "name": "水利署水資源 嘉義市政府工務處 汙水處理廠CCTV", "region": "水利署防災", "city": "嘉義縣市/台南市", "lat": 23.4925, "lng": 120.4074, "url": "https://c01.第三方.com/cam/snapshot/wra-002667.jpg", "map": "https://www.google.com/maps?q=23.4925,120.4074", "source": "第三方"}, {"id": 6335, "name": "水利署水資源 嘉義市政府工務處 維新路218號CCTV", "region": "水利署防災", "city": "嘉義縣市/台南市", "lat": 23.4917, "lng": 120.4566, "url": "https://c01.第三方.com/cam/snapshot/wra-001244.jpg", "map": "https://www.google.com/maps?q=23.4917,120.4566", "source": "第三方"}, {"id": 6336, "name": "水利署水資源 嘉義市政府工務處 莊敬橋CCTV", "region": "水利署防災", "city": "彰化縣/南投縣/雲林縣", "lat": 23.5098, "lng": 120.4419, "url": "https://c01.第三方.com/cam/snapshot/wra-002164.jpg", "map": "https://www.google.com/maps?q=23.5098,120.4419", "source": "第三方"}, {"id": 6337, "name": "水利署水資源 嘉義市政府工務處 觀光橋CCTV", "region": "水利署防災", "city": "嘉義縣市/台南市", "lat": 23.4623, "lng": 120.4732, "url": "https://c01.第三方.com/cam/snapshot/wra-000318.jpg", "map": "https://www.google.com/maps?q=23.4623,120.4732", "source": "第三方"}, {"id": 6338, "name": "水利署水資源 嘉義市政府工務處 鹿寮橋CCTV", "region": "水利署防災", "city": "嘉義縣市/台南市", "lat": 23.4629, "lng": 120.4842, "url": "https://c01.第三方.com/cam/snapshot/wra-000921.jpg", "map": "https://www.google.com/maps?q=23.4629,120.4842", "source": "第三方"}, {"id": 6339, "name": "水利署水資源 嘉義縣政府水利處 內田排水(內田排水出口閘門)-攝影機畫面#1", "region": "水利署防災", "city": "嘉義縣市/台南市", "lat": 23.3935, "lng": 120.1649, "url": "https://c01.第三方.com/cam/snapshot/wra-001836.jpg", "map": "https://www.google.com/maps?q=23.3935,120.1649", "source": "第三方"}, {"id": 6340, "name": "水利署水資源 嘉義縣政府水利處 內田排水(新塭電信局後方)-攝影機畫面#1", "region": "水利署防災", "city": "嘉義縣市/台南市", "lat": 23.3252, "lng": 120.1619, "url": "https://c01.第三方.com/cam/snapshot/wra-000711.jpg", "map": "https://www.google.com/maps?q=23.3252,120.1619", "source": "第三方"}, {"id": 6341, "name": "水利署水資源 嘉義縣政府水利處 布袋鎮鎮北宮旁-攝影機畫面#1", "region": "水利署防災", "city": "嘉義縣市/台南市", "lat": 23.3744, "lng": 120.1858, "url": "https://c01.第三方.com/cam/snapshot/wra-001516.jpg", "map": "https://www.google.com/maps?q=23.3744,120.1858", "source": "第三方"}, {"id": 6342, "name": "水利署水資源 嘉義縣政府水利處 新店大排(嘉25與嘉26線交界處)-攝影機畫面#1", "region": "水利署防災", "city": "嘉義縣市/台南市", "lat": 23.342, "lng": 120.1959, "url": "https://c01.第三方.com/cam/snapshot/wra-002279.jpg", "map": "https://www.google.com/maps?q=23.342,120.1959", "source": "第三方"}, {"id": 6343, "name": "水利署水資源 嘉義縣政府水利處 新店大排(新店紹徽宮附近)-攝影機畫面#1", "region": "水利署防災", "city": "嘉義縣市/台南市", "lat": 23.3368, "lng": 120.1966, "url": "https://c01.第三方.com/cam/snapshot/wra-000307.jpg", "map": "https://www.google.com/maps?q=23.3368,120.1966", "source": "第三方"}, {"id": 6344, "name": "水利署水資源 嘉義縣政府水利處 東石鄉塭港村活動中心-攝影機畫面#1", "region": "水利署防災", "city": "嘉義縣市/台南市", "lat": 23.4704, "lng": 120.1458, "url": "https://c01.第三方.com/cam/snapshot/wra-002247.jpg", "map": "https://www.google.com/maps?q=23.4704,120.1458", "source": "第三方"}, {"id": 6345, "name": "水利署水資源 嘉義縣政府水利處 柴林腳抽水站_出水工水位影像", "region": "水利署防災", "city": "彰化縣/南投縣/雲林縣", "lat": 23.601, "lng": 120.3669, "url": "https://c01.第三方.com/cam/snapshot/wra-003220.jpg", "map": "https://www.google.com/maps?q=23.601,120.3669", "source": "第三方"}, {"id": 6346, "name": "水利署水資源 嘉義縣政府水利處 柴林腳抽水站_調節池水位影像", "region": "水利署防災", "city": "彰化縣/南投縣/雲林縣", "lat": 23.601, "lng": 120.3669, "url": "https://c01.第三方.com/cam/snapshot/wra-003219.jpg", "map": "https://www.google.com/maps?q=23.601,120.3669", "source": "第三方"}, {"id": 6347, "name": "水利署水資源 嘉義縣政府水利處 溪墘排水(前東港排水抽水站)-攝影機畫面#1", "region": "水利署防災", "city": "嘉義縣市/台南市", "lat": 23.3553, "lng": 120.1862, "url": "https://c01.第三方.com/cam/snapshot/wra-002782.jpg", "map": "https://www.google.com/maps?q=23.3553,120.1862", "source": "第三方"}, {"id": 6348, "name": "水利署水資源 嘉義縣政府水利處 考試潭排水(考試潭排水出口閘門)-攝影機畫面#1", "region": "水利署防災", "city": "嘉義縣市/台南市", "lat": 23.4045, "lng": 120.1641, "url": "https://c01.第三方.com/cam/snapshot/wra-002963.jpg", "map": "https://www.google.com/maps?q=23.4045,120.1641", "source": "第三方"}, {"id": 6349, "name": "水利署水資源 嘉義縣政府水利處 贊寮溝排水(七孔水門抽水站)-攝影機畫面#1", "region": "水利署防災", "city": "嘉義縣市/台南市", "lat": 23.3755, "lng": 120.1628, "url": "https://c01.第三方.com/cam/snapshot/wra-002358.jpg", "map": "https://www.google.com/maps?q=23.3755,120.1628", "source": "第三方"}, {"id": 6350, "name": "水利署水資源 嘉義縣政府水利處 贊寮溝排水(贊寮溝滯洪池分洪閘門)-攝影機畫面#1", "region": "水利署防災", "city": "嘉義縣市/台南市", "lat": 23.3755, "lng": 120.1628, "url": "https://c01.第三方.com/cam/snapshot/wra-002359.jpg", "map": "https://www.google.com/maps?q=23.3755,120.1628", "source": "第三方"}, {"id": 6351, "name": "水利署水資源 嘉義縣政府水利處 過溝排水(九司伯抽水站)-攝影機畫面#1", "region": "水利署防災", "city": "嘉義縣市/台南市", "lat": 23.4211, "lng": 120.1826, "url": "https://c01.第三方.com/cam/snapshot/wra-000535.jpg", "map": "https://www.google.com/maps?q=23.4211,120.1826", "source": "第三方"}, {"id": 6352, "name": "水利署水資源 嘉義縣政府水利處 金陵排水(好美里東側抽水站)-攝影機畫面#1", "region": "水利署防災", "city": "嘉義縣市/台南市", "lat": 23.3389, "lng": 120.1409, "url": "https://c01.第三方.com/cam/snapshot/wra-002527.jpg", "map": "https://www.google.com/maps?q=23.3389,120.1409", "source": "第三方"}, {"id": 6353, "name": "水利署水資源 嘉義縣政府水利處 金陵排水(好美里西側抽水站)-攝影機畫面#1", "region": "水利署防災", "city": "嘉義縣市/台南市", "lat": 23.3402, "lng": 120.1367, "url": "https://c01.第三方.com/cam/snapshot/wra-000597.jpg", "map": "https://www.google.com/maps?q=23.3402,120.1367", "source": "第三方"}, {"id": 6354, "name": "水利署水資源 嘉義縣政府水利處 龍宮排水(龍宮橋)-攝影機畫面#1", "region": "水利署防災", "city": "嘉義縣市/台南市", "lat": 23.3389, "lng": 120.1706, "url": "https://c01.第三方.com/cam/snapshot/wra-000534.jpg", "map": "https://www.google.com/maps?q=23.3389,120.1706", "source": "第三方"}, {"id": 6355, "name": "水利署水資源 嘉義縣政府水利處 龍宮溪排水(北海道社區)-攝影機畫面#1", "region": "水利署防災", "city": "嘉義縣市/台南市", "lat": 23.3298, "lng": 120.1635, "url": "https://c01.第三方.com/cam/snapshot/wra-001261.jpg", "map": "https://www.google.com/maps?q=23.3298,120.1635", "source": "第三方"}, {"id": 6356, "name": "水利署水資源 基隆市政府水利科 仁一路站", "region": "水利署防災", "city": "台北市/新北市/基隆市", "lat": 25.1297, "lng": 121.7455, "url": "https://c01.第三方.com/cam/snapshot/wra-n223478.jpg", "map": "https://www.google.com/maps?q=25.1297,121.7455", "source": "第三方"}, {"id": 6357, "name": "水利署水資源 基隆市政府水利科 南榮河監測站", "region": "水利署防災", "city": "台北市/新北市/基隆市", "lat": 25.1242, "lng": 121.7427, "url": "https://c01.第三方.com/cam/snapshot/wra-n223321.jpg", "map": "https://www.google.com/maps?q=25.1242,121.7427", "source": "第三方"}, {"id": 6358, "name": "水利署水資源 基隆市政府水利科 友蚋溪_友諒橋", "region": "水利署防災", "city": "台北市/新北市/基隆市", "lat": 25.0938, "lng": 121.6694, "url": "https://c01.第三方.com/cam/snapshot/wra-000887.jpg", "map": "https://www.google.com/maps?q=25.0938,121.6694", "source": "第三方"}, {"id": 6359, "name": "水利署水資源 基隆市政府水利科 大武崙工業區路口", "region": "水利署防災", "city": "台北市/新北市/基隆市", "lat": 25.1488, "lng": 121.6997, "url": "https://c01.第三方.com/cam/snapshot/wra-001537.jpg", "map": "https://www.google.com/maps?q=25.1488,121.6997", "source": "第三方"}, {"id": 6360, "name": "水利署水資源 基隆市政府水利科 大武崙溪_得勝橋", "region": "水利署防災", "city": "台北市/新北市/基隆市", "lat": 25.1184, "lng": 121.7247, "url": "https://c01.第三方.com/cam/snapshot/wra-000524.jpg", "map": "https://www.google.com/maps?q=25.1184,121.7247", "source": "第三方"}, {"id": 6361, "name": "水利署水資源 基隆市政府水利科 大武崙溪監測站", "region": "水利署防災", "city": "台北市/新北市/基隆市", "lat": 25.142, "lng": 121.7096, "url": "https://c01.第三方.com/cam/snapshot/wra-001003.jpg", "map": "https://www.google.com/maps?q=25.142,121.7096", "source": "第三方"}, {"id": 6362, "name": "水利署水資源 基隆市政府水利科 安瀾橋站", "region": "水利署防災", "city": "台北市/新北市/基隆市", "lat": 25.1421, "lng": 121.7607, "url": "https://c01.第三方.com/cam/snapshot/wra-n223476.jpg", "map": "https://www.google.com/maps?q=25.1421,121.7607", "source": "第三方"}, {"id": 6363, "name": "水利署水資源 基隆市政府水利科 定國站", "region": "水利署防災", "city": "台北市/新北市/基隆市", "lat": 25.1345, "lng": 121.734, "url": "https://c01.第三方.com/cam/snapshot/wra-n223576.jpg", "map": "https://www.google.com/maps?q=25.1345,121.734", "source": "第三方"}, {"id": 6364, "name": "水利署水資源 基隆市政府水利科 成功站", "region": "水利署防災", "city": "台北市/新北市/基隆市", "lat": 25.1271, "lng": 121.7394, "url": "https://c01.第三方.com/cam/snapshot/wra-n223546.jpg", "map": "https://www.google.com/maps?q=25.1271,121.7394", "source": "第三方"}, {"id": 6365, "name": "水利署水資源 基隆市政府水利科 暖暖溪_水源橋", "region": "水利署防災", "city": "台北市/新北市/基隆市", "lat": 25.1012, "lng": 121.7359, "url": "https://c01.第三方.com/cam/snapshot/wra-000285.jpg", "map": "https://www.google.com/maps?q=25.1012,121.7359", "source": "第三方"}, {"id": 6366, "name": "水利署水資源 基隆市政府水利科 東四站", "region": "水利署防災", "city": "台北市/新北市/基隆市", "lat": 25.1352, "lng": 121.7457, "url": "https://c01.第三方.com/cam/snapshot/wra-n223320.jpg", "map": "https://www.google.com/maps?q=25.1352,121.7457", "source": "第三方"}, {"id": 6367, "name": "水利署水資源 基隆市政府水利科 深澳坑溪監測站", "region": "水利署防災", "city": "台北市/新北市/基隆市", "lat": 25.1321, "lng": 121.7778, "url": "https://c01.第三方.com/cam/snapshot/wra-n223545.jpg", "map": "https://www.google.com/maps?q=25.1321,121.7778", "source": "第三方"}, {"id": 6368, "name": "水利署水資源 基隆市政府水利科 瑪陵坑溪監測站", "region": "水利署防災", "city": "台北市/新北市/基隆市", "lat": 25.1119, "lng": 121.6866, "url": "https://c01.第三方.com/cam/snapshot/wra-002655.jpg", "map": "https://www.google.com/maps?q=25.1119,121.6866", "source": "第三方"}, {"id": 6369, "name": "水利署水資源 基隆市政府水利科 田寮河監測站", "region": "水利署防災", "city": "台北市/新北市/基隆市", "lat": 25.1285, "lng": 121.7476, "url": "https://c01.第三方.com/cam/snapshot/wra-003428.jpg", "map": "https://www.google.com/maps?q=25.1285,121.7476", "source": "第三方"}, {"id": 6370, "name": "水利署水資源 基隆市政府水利科 石厝坑溪監測站", "region": "水利署防災", "city": "台北市/新北市/基隆市", "lat": 25.109, "lng": 121.7128, "url": "https://c01.第三方.com/cam/snapshot/wra-000624.jpg", "map": "https://www.google.com/maps?q=25.109,121.7128", "source": "第三方"}, {"id": 6371, "name": "水利署水資源 基隆市政府水利科 西定河監測站", "region": "水利署防災", "city": "台北市/新北市/基隆市", "lat": 25.1316, "lng": 121.7351, "url": "https://c01.第三方.com/cam/snapshot/wra-n223500.jpg", "map": "https://www.google.com/maps?q=25.1316,121.7351", "source": "第三方"}, {"id": 6372, "name": "水利署水資源 屏東縣政府水利處 35號橋#1", "region": "水利署防災", "city": "屏東縣/台東縣", "lat": 22.3683, "lng": 120.5913, "url": "https://c01.第三方.com/cam/snapshot/wra-000342.jpg", "map": "https://www.google.com/maps?q=22.3683,120.5913", "source": "第三方"}, {"id": 6373, "name": "水利署水資源 屏東縣政府水利處 35號橋#2", "region": "水利署防災", "city": "屏東縣/台東縣", "lat": 22.3683, "lng": 120.5913, "url": "https://c01.第三方.com/cam/snapshot/wra-000344.jpg", "map": "https://www.google.com/maps?q=22.3683,120.5913", "source": "第三方"}, {"id": 6374, "name": "水利署水資源 屏東縣政府水利處 35號橋#3", "region": "水利署防災", "city": "屏東縣/台東縣", "lat": 22.3683, "lng": 120.5913, "url": "https://c01.第三方.com/cam/snapshot/wra-000343.jpg", "map": "https://www.google.com/maps?q=22.3683,120.5913", "source": "第三方"}, {"id": 6375, "name": "水利署水資源 屏東縣政府水利處 A幹線抽水站#1", "region": "水利署防災", "city": "屏東縣/台東縣", "lat": 22.4304, "lng": 120.5215, "url": "https://c01.第三方.com/cam/snapshot/wra-002739.jpg", "map": "https://www.google.com/maps?q=22.4304,120.5215", "source": "第三方"}, {"id": 6376, "name": "水利署水資源 屏東縣政府水利處 A幹線抽水站#2", "region": "水利署防災", "city": "屏東縣/台東縣", "lat": 22.4304, "lng": 120.5215, "url": "https://c01.第三方.com/cam/snapshot/wra-002738.jpg", "map": "https://www.google.com/maps?q=22.4304,120.5215", "source": "第三方"}, {"id": 6377, "name": "水利署水資源 屏東縣政府水利處 A幹線抽水站#3", "region": "水利署防災", "city": "屏東縣/台東縣", "lat": 22.4304, "lng": 120.5215, "url": "https://c01.第三方.com/cam/snapshot/wra-002740.jpg", "map": "https://www.google.com/maps?q=22.4304,120.5215", "source": "第三方"}, {"id": 6378, "name": "水利署水資源 屏東縣政府水利處 A幹線抽水站#4", "region": "水利署防災", "city": "屏東縣/台東縣", "lat": 22.4304, "lng": 120.5215, "url": "https://c01.第三方.com/cam/snapshot/wra-002741.jpg", "map": "https://www.google.com/maps?q=22.4304,120.5215", "source": "第三方"}, {"id": 6379, "name": "水利署水資源 屏東縣政府水利處 中林路(水月軒) - 1", "region": "水利署防災", "city": "屏東縣/台東縣", "lat": 22.438, "lng": 120.5193, "url": "https://c01.第三方.com/cam/snapshot/wra-000440.jpg", "map": "https://www.google.com/maps?q=22.438,120.5193", "source": "第三方"}, {"id": 6380, "name": "水利署水資源 屏東縣政府水利處 中林路(水月軒) - 2", "region": "水利署防災", "city": "屏東縣/台東縣", "lat": 22.438, "lng": 120.5193, "url": "https://c01.第三方.com/cam/snapshot/wra-000439.jpg", "map": "https://www.google.com/maps?q=22.438,120.5193", "source": "第三方"}, {"id": 6381, "name": "水利署水資源 屏東縣政府水利處 中林路(水月軒) - 3", "region": "水利署防災", "city": "屏東縣/台東縣", "lat": 22.438, "lng": 120.5193, "url": "https://c01.第三方.com/cam/snapshot/wra-000438.jpg", "map": "https://www.google.com/maps?q=22.438,120.5193", "source": "第三方"}, {"id": 6382, "name": "水利署水資源 屏東縣政府水利處 中林路與農專街路口(屏東科大門口)監視器影格照片01", "region": "水利署防災", "city": "高雄市/屏東縣", "lat": 22.6415, "lng": 120.5957, "url": "https://c01.第三方.com/cam/snapshot/wra-000250.jpg", "map": "https://www.google.com/maps?q=22.6415,120.5957", "source": "第三方"}, {"id": 6383, "name": "水利署水資源 屏東縣政府水利處 中林路與農專街路口(屏東科大門口)監視器影格照片02", "region": "水利署防災", "city": "高雄市/屏東縣", "lat": 22.6415, "lng": 120.5957, "url": "https://c01.第三方.com/cam/snapshot/wra-000252.jpg", "map": "https://www.google.com/maps?q=22.6415,120.5957", "source": "第三方"}, {"id": 6384, "name": "水利署水資源 屏東縣政府水利處 中林路與農專街路口(屏東科大門口)監視器影格照片03", "region": "水利署防災", "city": "高雄市/屏東縣", "lat": 22.6415, "lng": 120.5957, "url": "https://c01.第三方.com/cam/snapshot/wra-000251.jpg", "map": "https://www.google.com/maps?q=22.6415,120.5957", "source": "第三方"}, {"id": 6385, "name": "水利署水資源 屏東縣政府水利處 丹林大橋#1", "region": "水利署防災", "city": "高雄市/屏東縣", "lat": 22.5219, "lng": 120.6324, "url": "https://c01.第三方.com/cam/snapshot/wra-001458.jpg", "map": "https://www.google.com/maps?q=22.5219,120.6324", "source": "第三方"}, {"id": 6386, "name": "水利署水資源 屏東縣政府水利處 丹林大橋#2", "region": "水利署防災", "city": "高雄市/屏東縣", "lat": 22.5219, "lng": 120.6324, "url": "https://c01.第三方.com/cam/snapshot/wra-001459.jpg", "map": "https://www.google.com/maps?q=22.5219,120.6324", "source": "第三方"}, {"id": 6387, "name": "水利署水資源 屏東縣政府水利處 丹林大橋#3", "region": "水利署防災", "city": "高雄市/屏東縣", "lat": 22.5219, "lng": 120.6324, "url": "https://c01.第三方.com/cam/snapshot/wra-001457.jpg", "map": "https://www.google.com/maps?q=22.5219,120.6324", "source": "第三方"}, {"id": 6388, "name": "水利署水資源 屏東縣政府水利處 佳冬鄉海埔橋監視器影格照片01", "region": "水利署防災", "city": "屏東縣/台東縣", "lat": 22.4205, "lng": 120.5279, "url": "https://c01.第三方.com/cam/snapshot/wra-003019.jpg", "map": "https://www.google.com/maps?q=22.4205,120.5279", "source": "第三方"}, {"id": 6389, "name": "水利署水資源 屏東縣政府水利處 佳冬鄉海埔橋監視器影格照片02", "region": "水利署防災", "city": "屏東縣/台東縣", "lat": 22.4205, "lng": 120.5279, "url": "https://c01.第三方.com/cam/snapshot/wra-003021.jpg", "map": "https://www.google.com/maps?q=22.4205,120.5279", "source": "第三方"}, {"id": 6390, "name": "水利署水資源 屏東縣政府水利處 佳冬鄉海埔橋監視器影格照片03", "region": "水利署防災", "city": "屏東縣/台東縣", "lat": 22.4205, "lng": 120.5279, "url": "https://c01.第三方.com/cam/snapshot/wra-003020.jpg", "map": "https://www.google.com/maps?q=22.4205,120.5279", "source": "第三方"}, {"id": 6391, "name": "水利署水資源 屏東縣政府水利處 來義大橋#1", "region": "水利署防災", "city": "高雄市/屏東縣", "lat": 22.5251, "lng": 120.6551, "url": "https://c01.第三方.com/cam/snapshot/wra-001992.jpg", "map": "https://www.google.com/maps?q=22.5251,120.6551", "source": "第三方"}, {"id": 6392, "name": "水利署水資源 屏東縣政府水利處 來義大橋#2", "region": "水利署防災", "city": "高雄市/屏東縣", "lat": 22.5251, "lng": 120.6551, "url": "https://c01.第三方.com/cam/snapshot/wra-001993.jpg", "map": "https://www.google.com/maps?q=22.5251,120.6551", "source": "第三方"}, {"id": 6393, "name": "水利署水資源 屏東縣政府水利處 來義大橋#3", "region": "水利署防災", "city": "高雄市/屏東縣", "lat": 22.5251, "lng": 120.6551, "url": "https://c01.第三方.com/cam/snapshot/wra-001994.jpg", "map": "https://www.google.com/maps?q=22.5251,120.6551", "source": "第三方"}, {"id": 6394, "name": "水利署水資源 屏東縣政府水利處 保力橋#1", "region": "水利署防災", "city": "屏東縣/台東縣", "lat": 22.0541, "lng": 120.7214, "url": "https://c01.第三方.com/cam/snapshot/wra-003049.jpg", "map": "https://www.google.com/maps?q=22.0541,120.7214", "source": "第三方"}, {"id": 6395, "name": "水利署水資源 屏東縣政府水利處 保力橋#2", "region": "水利署防災", "city": "屏東縣/台東縣", "lat": 22.0541, "lng": 120.7214, "url": "https://c01.第三方.com/cam/snapshot/wra-003050.jpg", "map": "https://www.google.com/maps?q=22.0541,120.7214", "source": "第三方"}, {"id": 6396, "name": "水利署水資源 屏東縣政府水利處 保力橋#3", "region": "水利署防災", "city": "屏東縣/台東縣", "lat": 22.0541, "lng": 120.7214, "url": "https://c01.第三方.com/cam/snapshot/wra-003048.jpg", "map": "https://www.google.com/maps?q=22.0541,120.7214", "source": "第三方"}, {"id": 6397, "name": "水利署水資源 屏東縣政府水利處 光復路抽水站#1", "region": "水利署防災", "city": "屏東縣/台東縣", "lat": 22.4637, "lng": 120.4474, "url": "https://c01.第三方.com/cam/snapshot/wra-003114.jpg", "map": "https://www.google.com/maps?q=22.4637,120.4474", "source": "第三方"}, {"id": 6398, "name": "水利署水資源 屏東縣政府水利處 光復路抽水站#2", "region": "水利署防災", "city": "屏東縣/台東縣", "lat": 22.4637, "lng": 120.4474, "url": "https://c01.第三方.com/cam/snapshot/wra-003116.jpg", "map": "https://www.google.com/maps?q=22.4637,120.4474", "source": "第三方"}, {"id": 6399, "name": "水利署水資源 屏東縣政府水利處 光復路抽水站#3", "region": "水利署防災", "city": "屏東縣/台東縣", "lat": 22.4637, "lng": 120.4474, "url": "https://c01.第三方.com/cam/snapshot/wra-003115.jpg", "map": "https://www.google.com/maps?q=22.4637,120.4474", "source": "第三方"}, {"id": 6400, "name": "水利署水資源 屏東縣政府水利處 力力溪大橋#1", "region": "水利署防災", "city": "屏東縣/台東縣", "lat": 22.449, "lng": 120.6074, "url": "https://c01.第三方.com/cam/snapshot/wra-002788.jpg", "map": "https://www.google.com/maps?q=22.449,120.6074", "source": "第三方"}, {"id": 6401, "name": "水利署水資源 屏東縣政府水利處 力力溪大橋#2", "region": "水利署防災", "city": "屏東縣/台東縣", "lat": 22.449, "lng": 120.6074, "url": "https://c01.第三方.com/cam/snapshot/wra-002789.jpg", "map": "https://www.google.com/maps?q=22.449,120.6074", "source": "第三方"}, {"id": 6402, "name": "水利署水資源 屏東縣政府水利處 力力溪大橋#3", "region": "水利署防災", "city": "屏東縣/台東縣", "lat": 22.449, "lng": 120.6074, "url": "https://c01.第三方.com/cam/snapshot/wra-002787.jpg", "map": "https://www.google.com/maps?q=22.449,120.6074", "source": "第三方"}, {"id": 6403, "name": "水利署水資源 屏東縣政府水利處 南和大橋#1", "region": "水利署防災", "city": "屏東縣/台東縣", "lat": 22.4373, "lng": 120.6452, "url": "https://c01.第三方.com/cam/snapshot/wra-003007.jpg", "map": "https://www.google.com/maps?q=22.4373,120.6452", "source": "第三方"}, {"id": 6404, "name": "水利署水資源 屏東縣政府水利處 南和大橋#2", "region": "水利署防災", "city": "屏東縣/台東縣", "lat": 22.4373, "lng": 120.6452, "url": "https://c01.第三方.com/cam/snapshot/wra-003006.jpg", "map": "https://www.google.com/maps?q=22.4373,120.6452", "source": "第三方"}, {"id": 6405, "name": "水利署水資源 屏東縣政府水利處 南和大橋#3", "region": "水利署防災", "city": "屏東縣/台東縣", "lat": 22.4373, "lng": 120.6452, "url": "https://c01.第三方.com/cam/snapshot/wra-003008.jpg", "map": "https://www.google.com/maps?q=22.4373,120.6452", "source": "第三方"}, {"id": 6406, "name": "水利署水資源 屏東縣政府水利處 南州橋#1", "region": "水利署防災", "city": "屏東縣/台東縣", "lat": 22.4915, "lng": 120.5078, "url": "https://c01.第三方.com/cam/snapshot/wra-000337.jpg", "map": "https://www.google.com/maps?q=22.4915,120.5078", "source": "第三方"}, {"id": 6407, "name": "水利署水資源 屏東縣政府水利處 南州橋#2", "region": "水利署防災", "city": "屏東縣/台東縣", "lat": 22.4915, "lng": 120.5078, "url": "https://c01.第三方.com/cam/snapshot/wra-000335.jpg", "map": "https://www.google.com/maps?q=22.4915,120.5078", "source": "第三方"}, {"id": 6408, "name": "水利署水資源 屏東縣政府水利處 南州橋#3", "region": "水利署防災", "city": "屏東縣/台東縣", "lat": 22.4915, "lng": 120.5078, "url": "https://c01.第三方.com/cam/snapshot/wra-000336.jpg", "map": "https://www.google.com/maps?q=22.4915,120.5078", "source": "第三方"}, {"id": 6409, "name": "水利署水資源 屏東縣政府水利處 南州萬華村(萬華路12號)", "region": "水利署防災", "city": "屏東縣/台東縣", "lat": 22.4641, "lng": 120.5043, "url": "https://c01.第三方.com/cam/snapshot/wra-n223297.jpg", "map": "https://www.google.com/maps?q=22.4641,120.5043", "source": "第三方"}, {"id": 6410, "name": "水利署水資源 屏東縣政府水利處 南州萬華村(萬華路12號) - 1", "region": "水利署防災", "city": "屏東縣/台東縣", "lat": 22.4641, "lng": 120.5043, "url": "https://c01.第三方.com/cam/snapshot/wra-000547.jpg", "map": "https://www.google.com/maps?q=22.4641,120.5043", "source": "第三方"}, {"id": 6411, "name": "水利署水資源 屏東縣政府水利處 南州萬華村(萬華路12號) - 2", "region": "水利署防災", "city": "屏東縣/台東縣", "lat": 22.4641, "lng": 120.5043, "url": "https://c01.第三方.com/cam/snapshot/wra-000548.jpg", "map": "https://www.google.com/maps?q=22.4641,120.5043", "source": "第三方"}, {"id": 6412, "name": "水利署水資源 屏東縣政府水利處 善良宮聖賢殿(中和路126號) - 1", "region": "水利署防災", "city": "高雄市/屏東縣", "lat": 22.5092, "lng": 120.4574, "url": "https://c01.第三方.com/cam/snapshot/wra-000717.jpg", "map": "https://www.google.com/maps?q=22.5092,120.4574", "source": "第三方"}, {"id": 6413, "name": "水利署水資源 屏東縣政府水利處 善良宮聖賢殿(中和路126號) - 2", "region": "水利署防災", "city": "高雄市/屏東縣", "lat": 22.5092, "lng": 120.4574, "url": "https://c01.第三方.com/cam/snapshot/wra-000718.jpg", "map": "https://www.google.com/maps?q=22.5092,120.4574", "source": "第三方"}, {"id": 6414, "name": "水利署水資源 屏東縣政府水利處 善良宮聖賢殿(中和路126號) - 3", "region": "水利署防災", "city": "高雄市/屏東縣", "lat": 22.5092, "lng": 120.4574, "url": "https://c01.第三方.com/cam/snapshot/wra-000716.jpg", "map": "https://www.google.com/maps?q=22.5092,120.4574", "source": "第三方"}, {"id": 6415, "name": "水利署水資源 屏東縣政府水利處 嘉豐路與豐漁路路口監視器影格照片01", "region": "水利署防災", "city": "屏東縣/台東縣", "lat": 22.4113, "lng": 120.534, "url": "https://c01.第三方.com/cam/snapshot/wra-001794.jpg", "map": "https://www.google.com/maps?q=22.4113,120.534", "source": "第三方"}, {"id": 6416, "name": "水利署水資源 屏東縣政府水利處 嘉豐路與豐漁路路口監視器影格照片02", "region": "水利署防災", "city": "屏東縣/台東縣", "lat": 22.4113, "lng": 120.534, "url": "https://c01.第三方.com/cam/snapshot/wra-001793.jpg", "map": "https://www.google.com/maps?q=22.4113,120.534", "source": "第三方"}, {"id": 6417, "name": "水利署水資源 屏東縣政府水利處 嘉豐路與豐漁路路口監視器影格照片03", "region": "水利署防災", "city": "屏東縣/台東縣", "lat": 22.4113, "lng": 120.534, "url": "https://c01.第三方.com/cam/snapshot/wra-001792.jpg", "map": "https://www.google.com/maps?q=22.4113,120.534", "source": "第三方"}, {"id": 6418, "name": "水利署水資源 屏東縣政府水利處 固定式槍型攝影機-01", "region": "水利署防災", "city": "屏東縣/台東縣", "lat": 22.4715, "lng": 120.4807, "url": "https://c01.第三方.com/cam/snapshot/wra-001483.jpg", "map": "https://www.google.com/maps?q=22.4715,120.4807", "source": "第三方"}, {"id": 6419, "name": "水利署水資源 屏東縣政府水利處 固定式槍型攝影機-02", "region": "水利署防災", "city": "屏東縣/台東縣", "lat": 22.4715, "lng": 120.4807, "url": "https://c01.第三方.com/cam/snapshot/wra-001481.jpg", "map": "https://www.google.com/maps?q=22.4715,120.4807", "source": "第三方"}, {"id": 6420, "name": "水利署水資源 屏東縣政府水利處 固定式槍型攝影機-03", "region": "水利署防災", "city": "屏東縣/台東縣", "lat": 22.4715, "lng": 120.4807, "url": "https://c01.第三方.com/cam/snapshot/wra-001482.jpg", "map": "https://www.google.com/maps?q=22.4715,120.4807", "source": "第三方"}, {"id": 6421, "name": "水利署水資源 屏東縣政府水利處 固定式槍型攝影機-04", "region": "水利署防災", "city": "屏東縣/台東縣", "lat": 22.4715, "lng": 120.4807, "url": "https://c01.第三方.com/cam/snapshot/wra-001484.jpg", "map": "https://www.google.com/maps?q=22.4715,120.4807", "source": "第三方"}, {"id": 6422, "name": "水利署水資源 屏東縣政府水利處 塭仔抽水站#1", "region": "水利署防災", "city": "屏東縣/台東縣", "lat": 22.4166, "lng": 120.5196, "url": "https://c01.第三方.com/cam/snapshot/wra-002674.jpg", "map": "https://www.google.com/maps?q=22.4166,120.5196", "source": "第三方"}, {"id": 6423, "name": "水利署水資源 屏東縣政府水利處 塭仔抽水站#2", "region": "水利署防災", "city": "屏東縣/台東縣", "lat": 22.4166, "lng": 120.5196, "url": "https://c01.第三方.com/cam/snapshot/wra-002673.jpg", "map": "https://www.google.com/maps?q=22.4166,120.5196", "source": "第三方"}, {"id": 6424, "name": "水利署水資源 屏東縣政府水利處 塭仔抽水站#3", "region": "水利署防災", "city": "屏東縣/台東縣", "lat": 22.4166, "lng": 120.5196, "url": "https://c01.第三方.com/cam/snapshot/wra-002672.jpg", "map": "https://www.google.com/maps?q=22.4166,120.5196", "source": "第三方"}, {"id": 6425, "name": "水利署水資源 屏東縣政府水利處 塭仔抽水站調節池監視器影格照片01", "region": "水利署防災", "city": "屏東縣/台東縣", "lat": 22.4175, "lng": 120.5197, "url": "https://c01.第三方.com/cam/snapshot/wra-001347.jpg", "map": "https://www.google.com/maps?q=22.4175,120.5197", "source": "第三方"}, {"id": 6426, "name": "水利署水資源 屏東縣政府水利處 塭仔抽水站調節池監視器影格照片02", "region": "水利署防災", "city": "屏東縣/台東縣", "lat": 22.4175, "lng": 120.5197, "url": "https://c01.第三方.com/cam/snapshot/wra-001348.jpg", "map": "https://www.google.com/maps?q=22.4175,120.5197", "source": "第三方"}, {"id": 6427, "name": "水利署水資源 屏東縣政府水利處 塭仔抽水站調節池監視器影格照片03", "region": "水利署防災", "city": "屏東縣/台東縣", "lat": 22.4175, "lng": 120.5197, "url": "https://c01.第三方.com/cam/snapshot/wra-001346.jpg", "map": "https://www.google.com/maps?q=22.4175,120.5197", "source": "第三方"}, {"id": 6428, "name": "水利署水資源 屏東縣政府水利處 塭豐抽水站#1", "region": "水利署防災", "city": "屏東縣/台東縣", "lat": 22.4136, "lng": 120.5184, "url": "https://c01.第三方.com/cam/snapshot/wra-002825.jpg", "map": "https://www.google.com/maps?q=22.4136,120.5184", "source": "第三方"}, {"id": 6429, "name": "水利署水資源 屏東縣政府水利處 塭豐抽水站#2", "region": "水利署防災", "city": "屏東縣/台東縣", "lat": 22.4136, "lng": 120.5184, "url": "https://c01.第三方.com/cam/snapshot/wra-002826.jpg", "map": "https://www.google.com/maps?q=22.4136,120.5184", "source": "第三方"}, {"id": 6430, "name": "水利署水資源 屏東縣政府水利處 塭豐抽水站#3", "region": "水利署防災", "city": "屏東縣/台東縣", "lat": 22.4136, "lng": 120.5184, "url": "https://c01.第三方.com/cam/snapshot/wra-002827.jpg", "map": "https://www.google.com/maps?q=22.4136,120.5184", "source": "第三方"}, {"id": 6431, "name": "水利署水資源 屏東縣政府水利處 塭豐橋", "region": "水利署防災", "city": "屏東縣/台東縣", "lat": 22.4052, "lng": 120.534, "url": "https://c01.第三方.com/cam/snapshot/wra-n223523.jpg", "map": "https://www.google.com/maps?q=22.4052,120.534", "source": "第三方"}, {"id": 6432, "name": "水利署水資源 屏東縣政府水利處 塭豐橋", "region": "水利署防災", "city": "屏東縣/台東縣", "lat": 22.4052, "lng": 120.534, "url": "https://c01.第三方.com/cam/snapshot/wra-n223524.jpg", "map": "https://www.google.com/maps?q=22.4052,120.534", "source": "第三方"}, {"id": 6433, "name": "水利署水資源 屏東縣政府水利處 塭豐橋", "region": "水利署防災", "city": "屏東縣/台東縣", "lat": 22.4052, "lng": 120.534, "url": "https://c01.第三方.com/cam/snapshot/wra-n223525.jpg", "map": "https://www.google.com/maps?q=22.4052,120.534", "source": "第三方"}, {"id": 6434, "name": "水利署水資源 屏東縣政府水利處 大仁科技大學 - 1", "region": "水利署防災", "city": "高雄市/屏東縣", "lat": 22.726, "lng": 120.5411, "url": "https://c01.第三方.com/cam/snapshot/wra-002388.jpg", "map": "https://www.google.com/maps?q=22.726,120.5411", "source": "第三方"}, {"id": 6435, "name": "水利署水資源 屏東縣政府水利處 大仁科技大學 - 2", "region": "水利署防災", "city": "高雄市/屏東縣", "lat": 22.726, "lng": 120.5411, "url": "https://c01.第三方.com/cam/snapshot/wra-002389.jpg", "map": "https://www.google.com/maps?q=22.726,120.5411", "source": "第三方"}, {"id": 6436, "name": "水利署水資源 屏東縣政府水利處 大仁科技大學 - 3", "region": "水利署防災", "city": "高雄市/屏東縣", "lat": 22.726, "lng": 120.5411, "url": "https://c01.第三方.com/cam/snapshot/wra-002390.jpg", "map": "https://www.google.com/maps?q=22.726,120.5411", "source": "第三方"}, {"id": 6437, "name": "水利署水資源 屏東縣政府水利處 大武丁抽水站#1", "region": "水利署防災", "city": "屏東縣/台東縣", "lat": 22.4373, "lng": 120.5282, "url": "https://c01.第三方.com/cam/snapshot/wra-002975.jpg", "map": "https://www.google.com/maps?q=22.4373,120.5282", "source": "第三方"}, {"id": 6438, "name": "水利署水資源 屏東縣政府水利處 大武丁抽水站#2", "region": "水利署防災", "city": "屏東縣/台東縣", "lat": 22.4373, "lng": 120.5282, "url": "https://c01.第三方.com/cam/snapshot/wra-002976.jpg", "map": "https://www.google.com/maps?q=22.4373,120.5282", "source": "第三方"}, {"id": 6439, "name": "水利署水資源 屏東縣政府水利處 大武丁抽水站#3", "region": "水利署防災", "city": "屏東縣/台東縣", "lat": 22.4373, "lng": 120.5282, "url": "https://c01.第三方.com/cam/snapshot/wra-002977.jpg", "map": "https://www.google.com/maps?q=22.4373,120.5282", "source": "第三方"}, {"id": 6440, "name": "水利署水資源 屏東縣政府水利處 大武丁抽水站#4", "region": "水利署防災", "city": "屏東縣/台東縣", "lat": 22.4373, "lng": 120.5282, "url": "https://c01.第三方.com/cam/snapshot/wra-002978.jpg", "map": "https://www.google.com/maps?q=22.4373,120.5282", "source": "第三方"}, {"id": 6441, "name": "水利署水資源 屏東縣政府水利處 大武丁排水分洪道#1", "region": "水利署防災", "city": "屏東縣/台東縣", "lat": 22.4447, "lng": 120.5331, "url": "https://c01.第三方.com/cam/snapshot/wra-000855.jpg", "map": "https://www.google.com/maps?q=22.4447,120.5331", "source": "第三方"}, {"id": 6442, "name": "水利署水資源 屏東縣政府水利處 大武丁排水分洪道#2", "region": "水利署防災", "city": "屏東縣/台東縣", "lat": 22.4447, "lng": 120.5331, "url": "https://c01.第三方.com/cam/snapshot/wra-000853.jpg", "map": "https://www.google.com/maps?q=22.4447,120.5331", "source": "第三方"}, {"id": 6443, "name": "水利署水資源 屏東縣政府水利處 大武丁排水分洪道#3", "region": "水利署防災", "city": "屏東縣/台東縣", "lat": 22.4447, "lng": 120.5331, "url": "https://c01.第三方.com/cam/snapshot/wra-000854.jpg", "map": "https://www.google.com/maps?q=22.4447,120.5331", "source": "第三方"}, {"id": 6444, "name": "水利署水資源 屏東縣政府水利處 山上胡椒蝦 - 1", "region": "水利署防災", "city": "屏東縣/台東縣", "lat": 22.4564, "lng": 120.5094, "url": "https://c01.第三方.com/cam/snapshot/wra-003102.jpg", "map": "https://www.google.com/maps?q=22.4564,120.5094", "source": "第三方"}, {"id": 6445, "name": "水利署水資源 屏東縣政府水利處 山上胡椒蝦 - 2", "region": "水利署防災", "city": "屏東縣/台東縣", "lat": 22.4564, "lng": 120.5094, "url": "https://c01.第三方.com/cam/snapshot/wra-003100.jpg", "map": "https://www.google.com/maps?q=22.4564,120.5094", "source": "第三方"}, {"id": 6446, "name": "水利署水資源 屏東縣政府水利處 山上胡椒蝦 - 3", "region": "水利署防災", "city": "屏東縣/台東縣", "lat": 22.4564, "lng": 120.5094, "url": "https://c01.第三方.com/cam/snapshot/wra-003101.jpg", "map": "https://www.google.com/maps?q=22.4564,120.5094", "source": "第三方"}, {"id": 6447, "name": "水利署水資源 屏東縣政府水利處 崎峰抽水站#1", "region": "水利署防災", "city": "屏東縣/台東縣", "lat": 22.4331, "lng": 120.4839, "url": "https://c01.第三方.com/cam/snapshot/wra-002154.jpg", "map": "https://www.google.com/maps?q=22.4331,120.4839", "source": "第三方"}, {"id": 6448, "name": "水利署水資源 屏東縣政府水利處 崎峰抽水站#2", "region": "水利署防災", "city": "屏東縣/台東縣", "lat": 22.4331, "lng": 120.4839, "url": "https://c01.第三方.com/cam/snapshot/wra-002156.jpg", "map": "https://www.google.com/maps?q=22.4331,120.4839", "source": "第三方"}, {"id": 6449, "name": "水利署水資源 屏東縣政府水利處 崎峰抽水站#3", "region": "水利署防災", "city": "屏東縣/台東縣", "lat": 22.4331, "lng": 120.4839, "url": "https://c01.第三方.com/cam/snapshot/wra-002155.jpg", "map": "https://www.google.com/maps?q=22.4331,120.4839", "source": "第三方"}, {"id": 6450, "name": "水利署水資源 屏東縣政府水利處 平和路(新惠宮) - 1", "region": "水利署防災", "city": "高雄市/屏東縣", "lat": 22.5271, "lng": 120.4531, "url": "https://c01.第三方.com/cam/snapshot/wra-003111.jpg", "map": "https://www.google.com/maps?q=22.5271,120.4531", "source": "第三方"}, {"id": 6451, "name": "水利署水資源 屏東縣政府水利處 平和路(新惠宮) - 2", "region": "水利署防災", "city": "高雄市/屏東縣", "lat": 22.5271, "lng": 120.4531, "url": "https://c01.第三方.com/cam/snapshot/wra-003112.jpg", "map": "https://www.google.com/maps?q=22.5271,120.4531", "source": "第三方"}, {"id": 6452, "name": "水利署水資源 屏東縣政府水利處 平和路(新惠宮) - 3", "region": "水利署防災", "city": "高雄市/屏東縣", "lat": 22.5271, "lng": 120.4531, "url": "https://c01.第三方.com/cam/snapshot/wra-003110.jpg", "map": "https://www.google.com/maps?q=22.5271,120.4531", "source": "第三方"}, {"id": 6453, "name": "水利署水資源 屏東縣政府水利處 建安橋#1", "region": "水利署防災", "city": "屏東縣/台東縣", "lat": 22.462, "lng": 120.4869, "url": "https://c01.第三方.com/cam/snapshot/wra-001361.jpg", "map": "https://www.google.com/maps?q=22.462,120.4869", "source": "第三方"}, {"id": 6454, "name": "水利署水資源 屏東縣政府水利處 建安橋#2", "region": "水利署防災", "city": "屏東縣/台東縣", "lat": 22.462, "lng": 120.4869, "url": "https://c01.第三方.com/cam/snapshot/wra-001360.jpg", "map": "https://www.google.com/maps?q=22.462,120.4869", "source": "第三方"}, {"id": 6455, "name": "水利署水資源 屏東縣政府水利處 建安橋#3", "region": "水利署防災", "city": "屏東縣/台東縣", "lat": 22.462, "lng": 120.4869, "url": "https://c01.第三方.com/cam/snapshot/wra-001359.jpg", "map": "https://www.google.com/maps?q=22.462,120.4869", "source": "第三方"}, {"id": 6456, "name": "水利署水資源 屏東縣政府水利處 德和橋#1", "region": "水利署防災", "city": "屏東縣/台東縣", "lat": 21.9998, "lng": 120.7342, "url": "https://c01.第三方.com/cam/snapshot/wra-000225.jpg", "map": "https://www.google.com/maps?q=21.9998,120.7342", "source": "第三方"}, {"id": 6457, "name": "水利署水資源 屏東縣政府水利處 德和橋#2", "region": "水利署防災", "city": "屏東縣/台東縣", "lat": 21.9998, "lng": 120.7342, "url": "https://c01.第三方.com/cam/snapshot/wra-000223.jpg", "map": "https://www.google.com/maps?q=21.9998,120.7342", "source": "第三方"}, {"id": 6458, "name": "水利署水資源 屏東縣政府水利處 德和橋#3", "region": "水利署防災", "city": "屏東縣/台東縣", "lat": 21.9998, "lng": 120.7342, "url": "https://c01.第三方.com/cam/snapshot/wra-000224.jpg", "map": "https://www.google.com/maps?q=21.9998,120.7342", "source": "第三方"}, {"id": 6459, "name": "水利署水資源 屏東縣政府水利處 恆春東門溪滯洪池#1", "region": "水利署防災", "city": "屏東縣/台東縣", "lat": 22.0065, "lng": 120.753, "url": "https://c01.第三方.com/cam/snapshot/wra-000714.jpg", "map": "https://www.google.com/maps?q=22.0065,120.753", "source": "第三方"}, {"id": 6460, "name": "水利署水資源 屏東縣政府水利處 恆春東門溪滯洪池#2", "region": "水利署防災", "city": "屏東縣/台東縣", "lat": 22.0065, "lng": 120.753, "url": "https://c01.第三方.com/cam/snapshot/wra-000713.jpg", "map": "https://www.google.com/maps?q=22.0065,120.753", "source": "第三方"}, {"id": 6461, "name": "水利署水資源 屏東縣政府水利處 恆春東門溪滯洪池#3", "region": "水利署防災", "city": "屏東縣/台東縣", "lat": 22.0065, "lng": 120.753, "url": "https://c01.第三方.com/cam/snapshot/wra-000715.jpg", "map": "https://www.google.com/maps?q=22.0065,120.753", "source": "第三方"}, {"id": 6462, "name": "水利署水資源 屏東縣政府水利處 成功抽水站#1", "region": "水利署防災", "city": "屏東縣/台東縣", "lat": 22.4709, "lng": 120.4522, "url": "https://c01.第三方.com/cam/snapshot/wra-002540.jpg", "map": "https://www.google.com/maps?q=22.4709,120.4522", "source": "第三方"}, {"id": 6463, "name": "水利署水資源 屏東縣政府水利處 成功抽水站#2", "region": "水利署防災", "city": "屏東縣/台東縣", "lat": 22.4709, "lng": 120.4522, "url": "https://c01.第三方.com/cam/snapshot/wra-002541.jpg", "map": "https://www.google.com/maps?q=22.4709,120.4522", "source": "第三方"}, {"id": 6464, "name": "水利署水資源 屏東縣政府水利處 成功抽水站#3", "region": "水利署防災", "city": "屏東縣/台東縣", "lat": 22.4709, "lng": 120.4522, "url": "https://c01.第三方.com/cam/snapshot/wra-002539.jpg", "map": "https://www.google.com/maps?q=22.4709,120.4522", "source": "第三方"}, {"id": 6465, "name": "水利署水資源 屏東縣政府水利處 放索溝抽水站#1", "region": "水利署防災", "city": "屏東縣/台東縣", "lat": 22.4194, "lng": 120.5126, "url": "https://c01.第三方.com/cam/snapshot/wra-003293.jpg", "map": "https://www.google.com/maps?q=22.4194,120.5126", "source": "第三方"}, {"id": 6466, "name": "水利署水資源 屏東縣政府水利處 放索溝抽水站#2", "region": "水利署防災", "city": "屏東縣/台東縣", "lat": 22.4194, "lng": 120.5126, "url": "https://c01.第三方.com/cam/snapshot/wra-003294.jpg", "map": "https://www.google.com/maps?q=22.4194,120.5126", "source": "第三方"}, {"id": 6467, "name": "水利署水資源 屏東縣政府水利處 放索溝抽水站#3", "region": "水利署防災", "city": "屏東縣/台東縣", "lat": 22.4194, "lng": 120.5126, "url": "https://c01.第三方.com/cam/snapshot/wra-003292.jpg", "map": "https://www.google.com/maps?q=22.4194,120.5126", "source": "第三方"}, {"id": 6468, "name": "水利署水資源 屏東縣政府水利處 新園抽水站#1", "region": "水利署防災", "city": "高雄市/屏東縣", "lat": 22.5095, "lng": 120.4635, "url": "https://c01.第三方.com/cam/snapshot/wra-001143.jpg", "map": "https://www.google.com/maps?q=22.5095,120.4635", "source": "第三方"}, {"id": 6469, "name": "水利署水資源 屏東縣政府水利處 新園抽水站#2", "region": "水利署防災", "city": "高雄市/屏東縣", "lat": 22.5095, "lng": 120.4635, "url": "https://c01.第三方.com/cam/snapshot/wra-001142.jpg", "map": "https://www.google.com/maps?q=22.5095,120.4635", "source": "第三方"}, {"id": 6470, "name": "水利署水資源 屏東縣政府水利處 新園抽水站#3", "region": "水利署防災", "city": "高雄市/屏東縣", "lat": 22.5095, "lng": 120.4635, "url": "https://c01.第三方.com/cam/snapshot/wra-001141.jpg", "map": "https://www.google.com/maps?q=22.5095,120.4635", "source": "第三方"}, {"id": 6471, "name": "水利署水資源 屏東縣政府水利處 新埤大橋#1", "region": "水利署防災", "city": "屏東縣/台東縣", "lat": 22.4612, "lng": 120.5502, "url": "https://c01.第三方.com/cam/snapshot/wra-003301.jpg", "map": "https://www.google.com/maps?q=22.4612,120.5502", "source": "第三方"}, {"id": 6472, "name": "水利署水資源 屏東縣政府水利處 新埤大橋#2", "region": "水利署防災", "city": "屏東縣/台東縣", "lat": 22.4612, "lng": 120.5502, "url": "https://c01.第三方.com/cam/snapshot/wra-003302.jpg", "map": "https://www.google.com/maps?q=22.4612,120.5502", "source": "第三方"}, {"id": 6473, "name": "水利署水資源 屏東縣政府水利處 新埤大橋#3", "region": "水利署防災", "city": "屏東縣/台東縣", "lat": 22.4612, "lng": 120.5502, "url": "https://c01.第三方.com/cam/snapshot/wra-003300.jpg", "map": "https://www.google.com/maps?q=22.4612,120.5502", "source": "第三方"}, {"id": 6474, "name": "水利署水資源 屏東縣政府水利處 新龍村廣澤宮前 - 1", "region": "水利署防災", "city": "屏東縣/台東縣", "lat": 22.3835, "lng": 120.5737, "url": "https://c01.第三方.com/cam/snapshot/wra-000447.jpg", "map": "https://www.google.com/maps?q=22.3835,120.5737", "source": "第三方"}, {"id": 6475, "name": "水利署水資源 屏東縣政府水利處 新龍村廣澤宮前 - 2", "region": "水利署防災", "city": "屏東縣/台東縣", "lat": 22.3835, "lng": 120.5737, "url": "https://c01.第三方.com/cam/snapshot/wra-000445.jpg", "map": "https://www.google.com/maps?q=22.3835,120.5737", "source": "第三方"}, {"id": 6476, "name": "水利署水資源 屏東縣政府水利處 新龍村廣澤宮前 - 3", "region": "水利署防災", "city": "屏東縣/台東縣", "lat": 22.3835, "lng": 120.5737, "url": "https://c01.第三方.com/cam/snapshot/wra-000446.jpg", "map": "https://www.google.com/maps?q=22.3835,120.5737", "source": "第三方"}, {"id": 6477, "name": "水利署水資源 屏東縣政府水利處 東寧橋#1", "region": "水利署防災", "city": "高雄市/屏東縣", "lat": 22.7363, "lng": 120.5076, "url": "https://c01.第三方.com/cam/snapshot/wra-000602.jpg", "map": "https://www.google.com/maps?q=22.7363,120.5076", "source": "第三方"}, {"id": 6478, "name": "水利署水資源 屏東縣政府水利處 東寧橋#2", "region": "水利署防災", "city": "高雄市/屏東縣", "lat": 22.7363, "lng": 120.5076, "url": "https://c01.第三方.com/cam/snapshot/wra-000603.jpg", "map": "https://www.google.com/maps?q=22.7363,120.5076", "source": "第三方"}, {"id": 6479, "name": "水利署水資源 屏東縣政府水利處 東寧橋#3", "region": "水利署防災", "city": "高雄市/屏東縣", "lat": 22.7363, "lng": 120.5076, "url": "https://c01.第三方.com/cam/snapshot/wra-000604.jpg", "map": "https://www.google.com/maps?q=22.7363,120.5076", "source": "第三方"}, {"id": 6480, "name": "水利署水資源 屏東縣政府水利處 東港陸橋 - 1", "region": "水利署防災", "city": "屏東縣/台東縣", "lat": 22.4759, "lng": 120.4611, "url": "https://c01.第三方.com/cam/snapshot/wra-000468.jpg", "map": "https://www.google.com/maps?q=22.4759,120.4611", "source": "第三方"}, {"id": 6481, "name": "水利署水資源 屏東縣政府水利處 東港陸橋 - 2", "region": "水利署防災", "city": "屏東縣/台東縣", "lat": 22.4759, "lng": 120.4611, "url": "https://c01.第三方.com/cam/snapshot/wra-000469.jpg", "map": "https://www.google.com/maps?q=22.4759,120.4611", "source": "第三方"}, {"id": 6482, "name": "水利署水資源 屏東縣政府水利處 東港陸橋 - 3", "region": "水利署防災", "city": "屏東縣/台東縣", "lat": 22.4759, "lng": 120.4611, "url": "https://c01.第三方.com/cam/snapshot/wra-000470.jpg", "map": "https://www.google.com/maps?q=22.4759,120.4611", "source": "第三方"}, {"id": 6483, "name": "水利署水資源 屏東縣政府水利處 枋寮大橋 - 1", "region": "水利署防災", "city": "屏東縣/台東縣", "lat": 22.3433, "lng": 120.6111, "url": "https://c01.第三方.com/cam/snapshot/wra-003171.jpg", "map": "https://www.google.com/maps?q=22.3433,120.6111", "source": "第三方"}, {"id": 6484, "name": "水利署水資源 屏東縣政府水利處 枋寮大橋 - 2", "region": "水利署防災", "city": "屏東縣/台東縣", "lat": 22.3433, "lng": 120.6111, "url": "https://c01.第三方.com/cam/snapshot/wra-003173.jpg", "map": "https://www.google.com/maps?q=22.3433,120.6111", "source": "第三方"}, {"id": 6485, "name": "水利署水資源 屏東縣政府水利處 枋寮大橋 - 3", "region": "水利署防災", "city": "屏東縣/台東縣", "lat": 22.3433, "lng": 120.6111, "url": "https://c01.第三方.com/cam/snapshot/wra-003172.jpg", "map": "https://www.google.com/maps?q=22.3433,120.6111", "source": "第三方"}, {"id": 6486, "name": "水利署水資源 屏東縣政府水利處 枋山大橋 - 1", "region": "水利署防災", "city": "屏東縣/台東縣", "lat": 22.2573, "lng": 120.6541, "url": "https://c01.第三方.com/cam/snapshot/wra-001637.jpg", "map": "https://www.google.com/maps?q=22.2573,120.6541", "source": "第三方"}, {"id": 6487, "name": "水利署水資源 屏東縣政府水利處 枋山大橋 - 2", "region": "水利署防災", "city": "屏東縣/台東縣", "lat": 22.2573, "lng": 120.6541, "url": "https://c01.第三方.com/cam/snapshot/wra-001639.jpg", "map": "https://www.google.com/maps?q=22.2573,120.6541", "source": "第三方"}, {"id": 6488, "name": "水利署水資源 屏東縣政府水利處 枋山大橋 - 3", "region": "水利署防災", "city": "屏東縣/台東縣", "lat": 22.2573, "lng": 120.6541, "url": "https://c01.第三方.com/cam/snapshot/wra-001638.jpg", "map": "https://www.google.com/maps?q=22.2573,120.6541", "source": "第三方"}, {"id": 6489, "name": "水利署水資源 屏東縣政府水利處 林邊大橋#1", "region": "水利署防災", "city": "屏東縣/台東縣", "lat": 22.4314, "lng": 120.5222, "url": "https://c01.第三方.com/cam/snapshot/wra-000552.jpg", "map": "https://www.google.com/maps?q=22.4314,120.5222", "source": "第三方"}, {"id": 6490, "name": "水利署水資源 屏東縣政府水利處 林邊大橋#2", "region": "水利署防災", "city": "屏東縣/台東縣", "lat": 22.4314, "lng": 120.5222, "url": "https://c01.第三方.com/cam/snapshot/wra-000554.jpg", "map": "https://www.google.com/maps?q=22.4314,120.5222", "source": "第三方"}, {"id": 6491, "name": "水利署水資源 屏東縣政府水利處 林邊大橋#3", "region": "水利署防災", "city": "屏東縣/台東縣", "lat": 22.4314, "lng": 120.5222, "url": "https://c01.第三方.com/cam/snapshot/wra-000553.jpg", "map": "https://www.google.com/maps?q=22.4314,120.5222", "source": "第三方"}, {"id": 6492, "name": "水利署水資源 屏東縣政府水利處 林邊抽水站#1", "region": "水利署防災", "city": "屏東縣/台東縣", "lat": 22.443, "lng": 120.4898, "url": "https://c01.第三方.com/cam/snapshot/wra-000499.jpg", "map": "https://www.google.com/maps?q=22.443,120.4898", "source": "第三方"}, {"id": 6493, "name": "水利署水資源 屏東縣政府水利處 林邊抽水站#2", "region": "水利署防災", "city": "屏東縣/台東縣", "lat": 22.443, "lng": 120.4898, "url": "https://c01.第三方.com/cam/snapshot/wra-000500.jpg", "map": "https://www.google.com/maps?q=22.443,120.4898", "source": "第三方"}, {"id": 6494, "name": "水利署水資源 屏東縣政府水利處 林邊抽水站#3", "region": "水利署防災", "city": "屏東縣/台東縣", "lat": 22.443, "lng": 120.4898, "url": "https://c01.第三方.com/cam/snapshot/wra-000502.jpg", "map": "https://www.google.com/maps?q=22.443,120.4898", "source": "第三方"}, {"id": 6495, "name": "水利署水資源 屏東縣政府水利處 林邊抽水站#4", "region": "水利署防災", "city": "屏東縣/台東縣", "lat": 22.443, "lng": 120.4898, "url": "https://c01.第三方.com/cam/snapshot/wra-000501.jpg", "map": "https://www.google.com/maps?q=22.443,120.4898", "source": "第三方"}, {"id": 6496, "name": "水利署水資源 屏東縣政府水利處 楓港大橋(舊庒路) - 1", "region": "水利署防災", "city": "屏東縣/台東縣", "lat": 22.1951, "lng": 120.6908, "url": "https://c01.第三方.com/cam/snapshot/wra-000757.jpg", "map": "https://www.google.com/maps?q=22.1951,120.6908", "source": "第三方"}, {"id": 6497, "name": "水利署水資源 屏東縣政府水利處 楓港大橋(舊庒路) - 2", "region": "水利署防災", "city": "屏東縣/台東縣", "lat": 22.1951, "lng": 120.6908, "url": "https://c01.第三方.com/cam/snapshot/wra-000759.jpg", "map": "https://www.google.com/maps?q=22.1951,120.6908", "source": "第三方"}, {"id": 6498, "name": "水利署水資源 屏東縣政府水利處 楓港大橋(舊庒路) - 3", "region": "水利署防災", "city": "屏東縣/台東縣", "lat": 22.1951, "lng": 120.6908, "url": "https://c01.第三方.com/cam/snapshot/wra-000758.jpg", "map": "https://www.google.com/maps?q=22.1951,120.6908", "source": "第三方"}, {"id": 6499, "name": "水利署水資源 屏東縣政府水利處 武洛溪大仁支線排水治理工程(第三期)暨滯洪池", "region": "水利署防災", "city": "高雄市/屏東縣", "lat": 22.726, "lng": 120.5519, "url": "https://c01.第三方.com/cam/snapshot/wra-000736.jpg", "map": "https://www.google.com/maps?q=22.726,120.5519", "source": "第三方"}, {"id": 6500, "name": "水利署水資源 屏東縣政府水利處 武洛溪大仁支線排水治理工程(第三期)暨滯洪池", "region": "水利署防災", "city": "高雄市/屏東縣", "lat": 22.726, "lng": 120.5519, "url": "https://c01.第三方.com/cam/snapshot/wra-000737.jpg", "map": "https://www.google.com/maps?q=22.726,120.5519", "source": "第三方"}, {"id": 6501, "name": "水利署水資源 屏東縣政府水利處 武洛溪大仁支線排水治理工程(第三期)暨滯洪池", "region": "水利署防災", "city": "高雄市/屏東縣", "lat": 22.726, "lng": 120.5519, "url": "https://c01.第三方.com/cam/snapshot/wra-000738.jpg", "map": "https://www.google.com/maps?q=22.726,120.5519", "source": "第三方"}, {"id": 6502, "name": "水利署水資源 屏東縣政府水利處 武洛溪大仁支線排水治理工程(第三期)暨滯洪池", "region": "水利署防災", "city": "高雄市/屏東縣", "lat": 22.726, "lng": 120.5519, "url": "https://c01.第三方.com/cam/snapshot/wra-000739.jpg", "map": "https://www.google.com/maps?q=22.726,120.5519", "source": "第三方"}, {"id": 6503, "name": "水利署水資源 屏東縣政府水利處 民治橋#1", "region": "水利署防災", "city": "高雄市/屏東縣", "lat": 22.5464, "lng": 120.5373, "url": "https://c01.第三方.com/cam/snapshot/wra-001042.jpg", "map": "https://www.google.com/maps?q=22.5464,120.5373", "source": "第三方"}, {"id": 6504, "name": "水利署水資源 屏東縣政府水利處 民治橋#2", "region": "水利署防災", "city": "高雄市/屏東縣", "lat": 22.5464, "lng": 120.5373, "url": "https://c01.第三方.com/cam/snapshot/wra-001041.jpg", "map": "https://www.google.com/maps?q=22.5464,120.5373", "source": "第三方"}, {"id": 6505, "name": "水利署水資源 屏東縣政府水利處 民治橋#3", "region": "水利署防災", "city": "高雄市/屏東縣", "lat": 22.5464, "lng": 120.5373, "url": "https://c01.第三方.com/cam/snapshot/wra-001043.jpg", "map": "https://www.google.com/maps?q=22.5464,120.5373", "source": "第三方"}, {"id": 6506, "name": "水利署水資源 屏東縣政府水利處 水底寮加油站(博愛橋) - 1", "region": "水利署防災", "city": "屏東縣/台東縣", "lat": 22.3746, "lng": 120.6016, "url": "https://c01.第三方.com/cam/snapshot/wra-001500.jpg", "map": "https://www.google.com/maps?q=22.3746,120.6016", "source": "第三方"}, {"id": 6507, "name": "水利署水資源 屏東縣政府水利處 水底寮加油站(博愛橋) - 2", "region": "水利署防災", "city": "屏東縣/台東縣", "lat": 22.3746, "lng": 120.6016, "url": "https://c01.第三方.com/cam/snapshot/wra-001502.jpg", "map": "https://www.google.com/maps?q=22.3746,120.6016", "source": "第三方"}, {"id": 6508, "name": "水利署水資源 屏東縣政府水利處 水底寮加油站(博愛橋) - 3", "region": "水利署防災", "city": "屏東縣/台東縣", "lat": 22.3746, "lng": 120.6016, "url": "https://c01.第三方.com/cam/snapshot/wra-001501.jpg", "map": "https://www.google.com/maps?q=22.3746,120.6016", "source": "第三方"}, {"id": 6509, "name": "水利署水資源 屏東縣政府水利處 泰義大橋#1", "region": "水利署防災", "city": "高雄市/屏東縣", "lat": 22.563, "lng": 120.6625, "url": "https://c01.第三方.com/cam/snapshot/wra-002890.jpg", "map": "https://www.google.com/maps?q=22.563,120.6625", "source": "第三方"}, {"id": 6510, "name": "水利署水資源 屏東縣政府水利處 泰義大橋#2", "region": "水利署防災", "city": "高雄市/屏東縣", "lat": 22.563, "lng": 120.6625, "url": "https://c01.第三方.com/cam/snapshot/wra-002889.jpg", "map": "https://www.google.com/maps?q=22.563,120.6625", "source": "第三方"}, {"id": 6511, "name": "水利署水資源 屏東縣政府水利處 泰義大橋#3", "region": "水利署防災", "city": "高雄市/屏東縣", "lat": 22.563, "lng": 120.6625, "url": "https://c01.第三方.com/cam/snapshot/wra-002888.jpg", "map": "https://www.google.com/maps?q=22.563,120.6625", "source": "第三方"}, {"id": 6512, "name": "水利署水資源 屏東縣政府水利處 海埔抽水站#1", "region": "水利署防災", "city": "屏東縣/台東縣", "lat": 22.4206, "lng": 120.5276, "url": "https://c01.第三方.com/cam/snapshot/wra-001086.jpg", "map": "https://www.google.com/maps?q=22.4206,120.5276", "source": "第三方"}, {"id": 6513, "name": "水利署水資源 屏東縣政府水利處 海埔抽水站#2", "region": "水利署防災", "city": "屏東縣/台東縣", "lat": 22.4206, "lng": 120.5276, "url": "https://c01.第三方.com/cam/snapshot/wra-001085.jpg", "map": "https://www.google.com/maps?q=22.4206,120.5276", "source": "第三方"}, {"id": 6514, "name": "水利署水資源 屏東縣政府水利處 海埔抽水站#3", "region": "水利署防災", "city": "屏東縣/台東縣", "lat": 22.4206, "lng": 120.5276, "url": "https://c01.第三方.com/cam/snapshot/wra-001084.jpg", "map": "https://www.google.com/maps?q=22.4206,120.5276", "source": "第三方"}, {"id": 6515, "name": "水利署水資源 屏東縣政府水利處 港東抽水站#1", "region": "水利署防災", "city": "屏東縣/台東縣", "lat": 22.4902, "lng": 120.4686, "url": "https://c01.第三方.com/cam/snapshot/wra-002536.jpg", "map": "https://www.google.com/maps?q=22.4902,120.4686", "source": "第三方"}, {"id": 6516, "name": "水利署水資源 屏東縣政府水利處 港東抽水站#2", "region": "水利署防災", "city": "屏東縣/台東縣", "lat": 22.4902, "lng": 120.4686, "url": "https://c01.第三方.com/cam/snapshot/wra-002535.jpg", "map": "https://www.google.com/maps?q=22.4902,120.4686", "source": "第三方"}, {"id": 6517, "name": "水利署水資源 屏東縣政府水利處 港東抽水站#3", "region": "水利署防災", "city": "屏東縣/台東縣", "lat": 22.4902, "lng": 120.4686, "url": "https://c01.第三方.com/cam/snapshot/wra-002538.jpg", "map": "https://www.google.com/maps?q=22.4902,120.4686", "source": "第三方"}, {"id": 6518, "name": "水利署水資源 屏東縣政府水利處 港東抽水站#4", "region": "水利署防災", "city": "屏東縣/台東縣", "lat": 22.4902, "lng": 120.4686, "url": "https://c01.第三方.com/cam/snapshot/wra-002537.jpg", "map": "https://www.google.com/maps?q=22.4902,120.4686", "source": "第三方"}, {"id": 6519, "name": "水利署水資源 屏東縣政府水利處 溪洲溪抽水站#1", "region": "水利署防災", "city": "高雄市/屏東縣", "lat": 22.5002, "lng": 120.482, "url": "https://c01.第三方.com/cam/snapshot/wra-001283.jpg", "map": "https://www.google.com/maps?q=22.5002,120.482", "source": "第三方"}, {"id": 6520, "name": "水利署水資源 屏東縣政府水利處 溪洲溪抽水站#2", "region": "水利署防災", "city": "高雄市/屏東縣", "lat": 22.5002, "lng": 120.482, "url": "https://c01.第三方.com/cam/snapshot/wra-001282.jpg", "map": "https://www.google.com/maps?q=22.5002,120.482", "source": "第三方"}, {"id": 6521, "name": "水利署水資源 屏東縣政府水利處 溪洲溪抽水站#3", "region": "水利署防災", "city": "高雄市/屏東縣", "lat": 22.5002, "lng": 120.482, "url": "https://c01.第三方.com/cam/snapshot/wra-001285.jpg", "map": "https://www.google.com/maps?q=22.5002,120.482", "source": "第三方"}, {"id": 6522, "name": "水利署水資源 屏東縣政府水利處 溪洲溪抽水站#4", "region": "水利署防災", "city": "高雄市/屏東縣", "lat": 22.5002, "lng": 120.482, "url": "https://c01.第三方.com/cam/snapshot/wra-001284.jpg", "map": "https://www.google.com/maps?q=22.5002,120.482", "source": "第三方"}, {"id": 6523, "name": "水利署水資源 屏東縣政府水利處 滿州橋 - 1", "region": "水利署防災", "city": "屏東縣/台東縣", "lat": 22.0277, "lng": 120.8352, "url": "https://c01.第三方.com/cam/snapshot/wra-003040.jpg", "map": "https://www.google.com/maps?q=22.0277,120.8352", "source": "第三方"}, {"id": 6524, "name": "水利署水資源 屏東縣政府水利處 滿州橋 - 2", "region": "水利署防災", "city": "屏東縣/台東縣", "lat": 22.0277, "lng": 120.8352, "url": "https://c01.第三方.com/cam/snapshot/wra-003041.jpg", "map": "https://www.google.com/maps?q=22.0277,120.8352", "source": "第三方"}, {"id": 6525, "name": "水利署水資源 屏東縣政府水利處 滿州橋 - 3", "region": "水利署防災", "city": "屏東縣/台東縣", "lat": 22.0277, "lng": 120.8352, "url": "https://c01.第三方.com/cam/snapshot/wra-003042.jpg", "map": "https://www.google.com/maps?q=22.0277,120.8352", "source": "第三方"}, {"id": 6526, "name": "水利署水資源 屏東縣政府水利處 烏龍抽水站#1", "region": "水利署防災", "city": "屏東縣/台東縣", "lat": 22.4732, "lng": 120.4486, "url": "https://c01.第三方.com/cam/snapshot/wra-003349.jpg", "map": "https://www.google.com/maps?q=22.4732,120.4486", "source": "第三方"}, {"id": 6527, "name": "水利署水資源 屏東縣政府水利處 烏龍抽水站#2", "region": "水利署防災", "city": "屏東縣/台東縣", "lat": 22.4732, "lng": 120.4486, "url": "https://c01.第三方.com/cam/snapshot/wra-003350.jpg", "map": "https://www.google.com/maps?q=22.4732,120.4486", "source": "第三方"}, {"id": 6528, "name": "水利署水資源 屏東縣政府水利處 烏龍抽水站#3", "region": "水利署防災", "city": "屏東縣/台東縣", "lat": 22.4732, "lng": 120.4486, "url": "https://c01.第三方.com/cam/snapshot/wra-003351.jpg", "map": "https://www.google.com/maps?q=22.4732,120.4486", "source": "第三方"}, {"id": 6529, "name": "水利署水資源 屏東縣政府水利處 烏龍抽水站#4", "region": "水利署防災", "city": "屏東縣/台東縣", "lat": 22.4732, "lng": 120.4486, "url": "https://c01.第三方.com/cam/snapshot/wra-003348.jpg", "map": "https://www.google.com/maps?q=22.4732,120.4486", "source": "第三方"}, {"id": 6530, "name": "水利署水資源 屏東縣政府水利處 牛埔溪滯洪池#1", "region": "水利署防災", "city": "屏東縣/台東縣", "lat": 22.4679, "lng": 120.4802, "url": "https://c01.第三方.com/cam/snapshot/wra-001326.jpg", "map": "https://www.google.com/maps?q=22.4679,120.4802", "source": "第三方"}, {"id": 6531, "name": "水利署水資源 屏東縣政府水利處 牛埔溪滯洪池#2", "region": "水利署防災", "city": "屏東縣/台東縣", "lat": 22.4679, "lng": 120.4802, "url": "https://c01.第三方.com/cam/snapshot/wra-001327.jpg", "map": "https://www.google.com/maps?q=22.4679,120.4802", "source": "第三方"}, {"id": 6532, "name": "水利署水資源 屏東縣政府水利處 牛埔溪滯洪池#3", "region": "水利署防災", "city": "屏東縣/台東縣", "lat": 22.4679, "lng": 120.4802, "url": "https://c01.第三方.com/cam/snapshot/wra-001325.jpg", "map": "https://www.google.com/maps?q=22.4679,120.4802", "source": "第三方"}, {"id": 6533, "name": "水利署水資源 屏東縣政府水利處 瑤仔口橋#1", "region": "水利署防災", "city": "屏東縣/台東縣", "lat": 22.4485, "lng": 120.5035, "url": "https://c01.第三方.com/cam/snapshot/wra-000662.jpg", "map": "https://www.google.com/maps?q=22.4485,120.5035", "source": "第三方"}, {"id": 6534, "name": "水利署水資源 屏東縣政府水利處 瑤仔口橋#2", "region": "水利署防災", "city": "屏東縣/台東縣", "lat": 22.4485, "lng": 120.5035, "url": "https://c01.第三方.com/cam/snapshot/wra-000664.jpg", "map": "https://www.google.com/maps?q=22.4485,120.5035", "source": "第三方"}, {"id": 6535, "name": "水利署水資源 屏東縣政府水利處 瑤仔口橋#3", "region": "水利署防災", "city": "屏東縣/台東縣", "lat": 22.4485, "lng": 120.5035, "url": "https://c01.第三方.com/cam/snapshot/wra-000663.jpg", "map": "https://www.google.com/maps?q=22.4485,120.5035", "source": "第三方"}, {"id": 6536, "name": "水利署水資源 屏東縣政府水利處 箕湖大橋#1", "region": "水利署防災", "city": "屏東縣/台東縣", "lat": 22.4695, "lng": 120.5734, "url": "https://c01.第三方.com/cam/snapshot/wra-002061.jpg", "map": "https://www.google.com/maps?q=22.4695,120.5734", "source": "第三方"}, {"id": 6537, "name": "水利署水資源 屏東縣政府水利處 箕湖大橋#2", "region": "水利署防災", "city": "屏東縣/台東縣", "lat": 22.4695, "lng": 120.5734, "url": "https://c01.第三方.com/cam/snapshot/wra-002059.jpg", "map": "https://www.google.com/maps?q=22.4695,120.5734", "source": "第三方"}, {"id": 6538, "name": "水利署水資源 屏東縣政府水利處 箕湖大橋#3", "region": "水利署防災", "city": "屏東縣/台東縣", "lat": 22.4695, "lng": 120.5734, "url": "https://c01.第三方.com/cam/snapshot/wra-002060.jpg", "map": "https://www.google.com/maps?q=22.4695,120.5734", "source": "第三方"}, {"id": 6539, "name": "水利署水資源 屏東縣政府水利處 縣189與美華路口 - 1", "region": "水利署防災", "city": "屏東縣/台東縣", "lat": 22.4417, "lng": 120.5205, "url": "https://c01.第三方.com/cam/snapshot/wra-001967.jpg", "map": "https://www.google.com/maps?q=22.4417,120.5205", "source": "第三方"}, {"id": 6540, "name": "水利署水資源 屏東縣政府水利處 縣189與美華路口 - 2", "region": "水利署防災", "city": "屏東縣/台東縣", "lat": 22.4417, "lng": 120.5205, "url": "https://c01.第三方.com/cam/snapshot/wra-001969.jpg", "map": "https://www.google.com/maps?q=22.4417,120.5205", "source": "第三方"}, {"id": 6541, "name": "水利署水資源 屏東縣政府水利處 縣189與美華路口 - 3", "region": "水利署防災", "city": "屏東縣/台東縣", "lat": 22.4417, "lng": 120.5205, "url": "https://c01.第三方.com/cam/snapshot/wra-001968.jpg", "map": "https://www.google.com/maps?q=22.4417,120.5205", "source": "第三方"}, {"id": 6542, "name": "水利署水資源 屏東縣政府水利處 羌光橋#1", "region": "水利署防災", "city": "屏東縣/台東縣", "lat": 22.4298, "lng": 120.5281, "url": "https://c01.第三方.com/cam/snapshot/wra-003259.jpg", "map": "https://www.google.com/maps?q=22.4298,120.5281", "source": "第三方"}, {"id": 6543, "name": "水利署水資源 屏東縣政府水利處 羌光橋#2", "region": "水利署防災", "city": "屏東縣/台東縣", "lat": 22.4298, "lng": 120.5281, "url": "https://c01.第三方.com/cam/snapshot/wra-003260.jpg", "map": "https://www.google.com/maps?q=22.4298,120.5281", "source": "第三方"}, {"id": 6544, "name": "水利署水資源 屏東縣政府水利處 羌光橋#3", "region": "水利署防災", "city": "屏東縣/台東縣", "lat": 22.4298, "lng": 120.5281, "url": "https://c01.第三方.com/cam/snapshot/wra-003261.jpg", "map": "https://www.google.com/maps?q=22.4298,120.5281", "source": "第三方"}, {"id": 6545, "name": "水利署水資源 屏東縣政府水利處 羌園二號橋#1", "region": "水利署防災", "city": "屏東縣/台東縣", "lat": 22.425, "lng": 120.5331, "url": "https://c01.第三方.com/cam/snapshot/wra-000860.jpg", "map": "https://www.google.com/maps?q=22.425,120.5331", "source": "第三方"}, {"id": 6546, "name": "水利署水資源 屏東縣政府水利處 羌園二號橋#2", "region": "水利署防災", "city": "屏東縣/台東縣", "lat": 22.425, "lng": 120.5331, "url": "https://c01.第三方.com/cam/snapshot/wra-000859.jpg", "map": "https://www.google.com/maps?q=22.425,120.5331", "source": "第三方"}, {"id": 6547, "name": "水利署水資源 屏東縣政府水利處 羌園二號橋#3", "region": "水利署防災", "city": "屏東縣/台東縣", "lat": 22.425, "lng": 120.5331, "url": "https://c01.第三方.com/cam/snapshot/wra-000858.jpg", "map": "https://www.google.com/maps?q=22.425,120.5331", "source": "第三方"}, {"id": 6548, "name": "水利署水資源 屏東縣政府水利處 羌園國小 - 1", "region": "水利署防災", "city": "屏東縣/台東縣", "lat": 22.4265, "lng": 120.5258, "url": "https://c01.第三方.com/cam/snapshot/wra-001666.jpg", "map": "https://www.google.com/maps?q=22.4265,120.5258", "source": "第三方"}, {"id": 6549, "name": "水利署水資源 屏東縣政府水利處 羌園國小 - 2", "region": "水利署防災", "city": "屏東縣/台東縣", "lat": 22.4265, "lng": 120.5258, "url": "https://c01.第三方.com/cam/snapshot/wra-001668.jpg", "map": "https://www.google.com/maps?q=22.4265,120.5258", "source": "第三方"}, {"id": 6550, "name": "水利署水資源 屏東縣政府水利處 羌園國小 - 3", "region": "水利署防災", "city": "屏東縣/台東縣", "lat": 22.4265, "lng": 120.5258, "url": "https://c01.第三方.com/cam/snapshot/wra-001667.jpg", "map": "https://www.google.com/maps?q=22.4265,120.5258", "source": "第三方"}, {"id": 6551, "name": "水利署水資源 屏東縣政府水利處 羌園抽水站#1", "region": "水利署防災", "city": "屏東縣/台東縣", "lat": 22.4282, "lng": 120.5257, "url": "https://c01.第三方.com/cam/snapshot/wra-002881.jpg", "map": "https://www.google.com/maps?q=22.4282,120.5257", "source": "第三方"}, {"id": 6552, "name": "水利署水資源 屏東縣政府水利處 羌園抽水站#2", "region": "水利署防災", "city": "屏東縣/台東縣", "lat": 22.4282, "lng": 120.5257, "url": "https://c01.第三方.com/cam/snapshot/wra-002880.jpg", "map": "https://www.google.com/maps?q=22.4282,120.5257", "source": "第三方"}, {"id": 6553, "name": "水利署水資源 屏東縣政府水利處 羌園抽水站#3", "region": "水利署防災", "city": "屏東縣/台東縣", "lat": 22.4282, "lng": 120.5257, "url": "https://c01.第三方.com/cam/snapshot/wra-002883.jpg", "map": "https://www.google.com/maps?q=22.4282,120.5257", "source": "第三方"}, {"id": 6554, "name": "水利署水資源 屏東縣政府水利處 羌園抽水站#4", "region": "水利署防災", "city": "屏東縣/台東縣", "lat": 22.4282, "lng": 120.5257, "url": "https://c01.第三方.com/cam/snapshot/wra-002882.jpg", "map": "https://www.google.com/maps?q=22.4282,120.5257", "source": "第三方"}, {"id": 6555, "name": "水利署水資源 屏東縣政府水利處 羌園排水分洪道#1", "region": "水利署防災", "city": "屏東縣/台東縣", "lat": 22.4352, "lng": 120.5273, "url": "https://c01.第三方.com/cam/snapshot/wra-002633.jpg", "map": "https://www.google.com/maps?q=22.4352,120.5273", "source": "第三方"}, {"id": 6556, "name": "水利署水資源 屏東縣政府水利處 羌園排水分洪道#2", "region": "水利署防災", "city": "屏東縣/台東縣", "lat": 22.4352, "lng": 120.5273, "url": "https://c01.第三方.com/cam/snapshot/wra-002635.jpg", "map": "https://www.google.com/maps?q=22.4352,120.5273", "source": "第三方"}, {"id": 6557, "name": "水利署水資源 屏東縣政府水利處 羌園排水分洪道#3", "region": "水利署防災", "city": "屏東縣/台東縣", "lat": 22.4352, "lng": 120.5273, "url": "https://c01.第三方.com/cam/snapshot/wra-002634.jpg", "map": "https://www.google.com/maps?q=22.4352,120.5273", "source": "第三方"}, {"id": 6558, "name": "水利署水資源 屏東縣政府水利處 臨海橋#1", "region": "水利署防災", "city": "屏東縣/台東縣", "lat": 22.0578, "lng": 120.711, "url": "https://c01.第三方.com/cam/snapshot/wra-002422.jpg", "map": "https://www.google.com/maps?q=22.0578,120.711", "source": "第三方"}, {"id": 6559, "name": "水利署水資源 屏東縣政府水利處 臨海橋#2", "region": "水利署防災", "city": "屏東縣/台東縣", "lat": 22.0578, "lng": 120.711, "url": "https://c01.第三方.com/cam/snapshot/wra-002423.jpg", "map": "https://www.google.com/maps?q=22.0578,120.711", "source": "第三方"}, {"id": 6560, "name": "水利署水資源 屏東縣政府水利處 臨海橋#3", "region": "水利署防災", "city": "屏東縣/台東縣", "lat": 22.0578, "lng": 120.711, "url": "https://c01.第三方.com/cam/snapshot/wra-002421.jpg", "map": "https://www.google.com/maps?q=22.0578,120.711", "source": "第三方"}, {"id": 6561, "name": "水利署水資源 屏東縣政府水利處 萬丹抽水站#1", "region": "水利署防災", "city": "高雄市/屏東縣", "lat": 22.5576, "lng": 120.4481, "url": "https://c01.第三方.com/cam/snapshot/wra-002680.jpg", "map": "https://www.google.com/maps?q=22.5576,120.4481", "source": "第三方"}, {"id": 6562, "name": "水利署水資源 屏東縣政府水利處 萬丹抽水站#2", "region": "水利署防災", "city": "高雄市/屏東縣", "lat": 22.5576, "lng": 120.4481, "url": "https://c01.第三方.com/cam/snapshot/wra-002681.jpg", "map": "https://www.google.com/maps?q=22.5576,120.4481", "source": "第三方"}, {"id": 6563, "name": "水利署水資源 屏東縣政府水利處 萬丹抽水站#3", "region": "水利署防災", "city": "高雄市/屏東縣", "lat": 22.5576, "lng": 120.4481, "url": "https://c01.第三方.com/cam/snapshot/wra-002679.jpg", "map": "https://www.google.com/maps?q=22.5576,120.4481", "source": "第三方"}, {"id": 6564, "name": "水利署水資源 屏東縣政府水利處 萬華村滯洪池 - 1", "region": "水利署防災", "city": "屏東縣/台東縣", "lat": 22.4606, "lng": 120.5016, "url": "https://c01.第三方.com/cam/snapshot/wra-000138.jpg", "map": "https://www.google.com/maps?q=22.4606,120.5016", "source": "第三方"}, {"id": 6565, "name": "水利署水資源 屏東縣政府水利處 萬華村滯洪池 - 2", "region": "水利署防災", "city": "屏東縣/台東縣", "lat": 22.4606, "lng": 120.5016, "url": "https://c01.第三方.com/cam/snapshot/wra-000136.jpg", "map": "https://www.google.com/maps?q=22.4606,120.5016", "source": "第三方"}, {"id": 6566, "name": "水利署水資源 屏東縣政府水利處 萬華村滯洪池 - 3", "region": "水利署防災", "city": "屏東縣/台東縣", "lat": 22.4606, "lng": 120.5016, "url": "https://c01.第三方.com/cam/snapshot/wra-000135.jpg", "map": "https://www.google.com/maps?q=22.4606,120.5016", "source": "第三方"}, {"id": 6567, "name": "水利署水資源 屏東縣政府水利處 萬華村滯洪池 - 4", "region": "水利署防災", "city": "屏東縣/台東縣", "lat": 22.4606, "lng": 120.5016, "url": "https://c01.第三方.com/cam/snapshot/wra-000137.jpg", "map": "https://www.google.com/maps?q=22.4606,120.5016", "source": "第三方"}, {"id": 6568, "name": "水利署水資源 屏東縣政府水利處 萬金滯洪池#1", "region": "水利署防災", "city": "高雄市/屏東縣", "lat": 22.6037, "lng": 120.6099, "url": "https://c01.第三方.com/cam/snapshot/wra-001986.jpg", "map": "https://www.google.com/maps?q=22.6037,120.6099", "source": "第三方"}, {"id": 6569, "name": "水利署水資源 屏東縣政府水利處 萬金滯洪池#2", "region": "水利署防災", "city": "高雄市/屏東縣", "lat": 22.6037, "lng": 120.6099, "url": "https://c01.第三方.com/cam/snapshot/wra-001987.jpg", "map": "https://www.google.com/maps?q=22.6037,120.6099", "source": "第三方"}, {"id": 6570, "name": "水利署水資源 屏東縣政府水利處 萬金滯洪池#3", "region": "水利署防災", "city": "高雄市/屏東縣", "lat": 22.6037, "lng": 120.6099, "url": "https://c01.第三方.com/cam/snapshot/wra-001985.jpg", "map": "https://www.google.com/maps?q=22.6037,120.6099", "source": "第三方"}, {"id": 6571, "name": "水利署水資源 屏東縣政府水利處 長治交流道 - 1", "region": "水利署防災", "city": "高雄市/屏東縣", "lat": 22.6964, "lng": 120.5558, "url": "https://c01.第三方.com/cam/snapshot/wra-002319.jpg", "map": "https://www.google.com/maps?q=22.6964,120.5558", "source": "第三方"}, {"id": 6572, "name": "水利署水資源 屏東縣政府水利處 長治交流道 - 2", "region": "水利署防災", "city": "高雄市/屏東縣", "lat": 22.6964, "lng": 120.5558, "url": "https://c01.第三方.com/cam/snapshot/wra-002318.jpg", "map": "https://www.google.com/maps?q=22.6964,120.5558", "source": "第三方"}, {"id": 6573, "name": "水利署水資源 屏東縣政府水利處 長治交流道 - 3", "region": "水利署防災", "city": "高雄市/屏東縣", "lat": 22.6964, "lng": 120.5558, "url": "https://c01.第三方.com/cam/snapshot/wra-002320.jpg", "map": "https://www.google.com/maps?q=22.6964,120.5558", "source": "第三方"}, {"id": 6574, "name": "水利署水資源 屏東縣政府水利處 長源橋#1", "region": "水利署防災", "city": "屏東縣/台東縣", "lat": 22.4415, "lng": 120.5094, "url": "https://c01.第三方.com/cam/snapshot/wra-000332.jpg", "map": "https://www.google.com/maps?q=22.4415,120.5094", "source": "第三方"}, {"id": 6575, "name": "水利署水資源 屏東縣政府水利處 長源橋#2", "region": "水利署防災", "city": "屏東縣/台東縣", "lat": 22.4415, "lng": 120.5094, "url": "https://c01.第三方.com/cam/snapshot/wra-000334.jpg", "map": "https://www.google.com/maps?q=22.4415,120.5094", "source": "第三方"}, {"id": 6576, "name": "水利署水資源 屏東縣政府水利處 長源橋#3", "region": "水利署防災", "city": "屏東縣/台東縣", "lat": 22.4415, "lng": 120.5094, "url": "https://c01.第三方.com/cam/snapshot/wra-000333.jpg", "map": "https://www.google.com/maps?q=22.4415,120.5094", "source": "第三方"}, {"id": 6577, "name": "水利署水資源 屏東縣政府水利處 革新橋 - 1", "region": "水利署防災", "city": "屏東縣/台東縣", "lat": 22.4641, "lng": 120.463, "url": "https://c01.第三方.com/cam/snapshot/wra-002566.jpg", "map": "https://www.google.com/maps?q=22.4641,120.463", "source": "第三方"}, {"id": 6578, "name": "水利署水資源 屏東縣政府水利處 革新橋 - 2", "region": "水利署防災", "city": "屏東縣/台東縣", "lat": 22.4641, "lng": 120.463, "url": "https://c01.第三方.com/cam/snapshot/wra-002565.jpg", "map": "https://www.google.com/maps?q=22.4641,120.463", "source": "第三方"}, {"id": 6579, "name": "水利署水資源 屏東縣政府水利處 革新橋 - 3", "region": "水利署防災", "city": "屏東縣/台東縣", "lat": 22.4641, "lng": 120.463, "url": "https://c01.第三方.com/cam/snapshot/wra-002564.jpg", "map": "https://www.google.com/maps?q=22.4641,120.463", "source": "第三方"},