[
  {
    "id": 785,
    "name": "台南市道路 中山路與民族路二段口(南桿)",
    "region": "其他",
    "city": "高雄市/屏東縣",
    "lat": 22.9947,
    "lng": 120.208,
    "url": "https://trafficvideo.tainan.gov.tw/1159e087",
    "map": "https://www.google.com/maps?q=22.9947,120.208",
    "source": "第三方"
  },
  {
    "id": 786,
    "name": "台南市道路 中正路與忠義路二段口南桿(向南)",
    "region": "其他",
    "city": "高雄市/屏東縣",
    "lat": 22.9917,
    "lng": 120.2027,
    "url": "https://trafficvideo2.tainan.gov.tw/82520774",
    "map": "https://www.google.com/maps?q=22.9917,120.2027",
    "source": "第三方"
  },
  {
    "id": 787,
    "name": "台南市道路 中正路與海安路二段口南桿(向北)",
    "region": "其他",
    "city": "高雄市/屏東縣",
    "lat": 22.9931,
    "lng": 120.1961,
    "url": "https://trafficvideo2.tainan.gov.tw/e3538e54",
    "map": "https://www.google.com/maps?q=22.9931,120.1961",
    "source": "第三方"
  },
  {
    "id": 791,
    "name": "台南市道路 中華南路二段與永成路二段口南桿(向北)",
    "region": "其他",
    "city": "高雄市/屏東縣",
    "lat": 22.9619,
    "lng": 120.1955,
    "url": "https://trafficvideo3.tainan.gov.tw/512e1c50",
    "map": "https://www.google.com/maps?q=22.9619,120.1955",
    "source": "第三方"
  },
  {
    "id": 792,
    "name": "台南市道路 中華東路三段與中華東路三段377巷口東桿(向西)",
    "region": "其他",
    "city": "高雄市/屏東縣",
    "lat": 22.9738,
    "lng": 120.222,
    "url": "https://trafficvideo.tainan.gov.tw/5feea41b",
    "map": "https://www.google.com/maps?q=22.9738,120.222",
    "source": "第三方"
  },
  {
    "id": 793,
    "name": "台南市道路 中華東路三段與大同路二段口南桿(向北)",
    "region": "其他",
    "city": "高雄市/屏東縣",
    "lat": 22.9721,
    "lng": 120.2149,
    "url": "https://trafficvideo.tainan.gov.tw/51f4c476",
    "map": "https://www.google.com/maps?q=22.9721,120.2149",
    "source": "第三方"
  },
  {
    "id": 794,
    "name": "台南市道路 中華東路三段與大同路二段口西桿(向東)",
    "region": "其他",
    "city": "高雄市/屏東縣",
    "lat": 22.9724,
    "lng": 120.2146,
    "url": "https://trafficvideo5.tainan.gov.tw/2e32132e",
    "map": "https://www.google.com/maps?q=22.9724,120.2146",
    "source": "第三方"
  },
  {
    "id": 795,
    "name": "台南市道路 中華東路二段與東門路二段口東北桿(向東北)",
    "region": "其他",
    "city": "高雄市/屏東縣",
    "lat": 22.9815,
    "lng": 120.2298,
    "url": "https://trafficvideo.tainan.gov.tw/beabed1d",
    "map": "https://www.google.com/maps?q=22.9815,120.2298",
    "source": "第三方"
  },
  {
    "id": 796,
    "name": "台南市道路 中華東路二段與東門路二段口西北桿(向西北)",
    "region": "其他",
    "city": "高雄市/屏東縣",
    "lat": 22.9813,
    "lng": 120.2291,
    "url": "https://trafficvideo.tainan.gov.tw/22fb191f",
    "map": "https://www.google.com/maps?q=22.9813,120.2291",
    "source": "第三方"
  },
  {
    "id": 797,
    "name": "台南市道路 中華西路一段與中華西路一段2巷口北桿(向北)",
    "region": "其他",
    "city": "高雄市/屏東縣",
    "lat": 22.9636,
    "lng": 120.1838,
    "url": "https://trafficvideo4.tainan.gov.tw/cdab5ef2",
    "map": "https://www.google.com/maps?q=22.9636,120.1838",
    "source": "第三方"
  },
  {
    "id": 798,
    "name": "台南市道路 中華西路一段與中華西路一段70巷口南桿(向北)",
    "region": "其他",
    "city": "高雄市/屏東縣",
    "lat": 22.9715,
    "lng": 120.1838,
    "url": "https://trafficvideo4.tainan.gov.tw/fa63cb0a",
    "map": "https://www.google.com/maps?q=22.9715,120.1838",
    "source": "第三方"
  },
  {
    "id": 799,
    "name": "台南市道路 中華西路一段與中華西路一段70巷口西桿(向東)",
    "region": "其他",
    "city": "高雄市/屏東縣",
    "lat": 22.9717,
    "lng": 120.1836,
    "url": "https://trafficvideo4.tainan.gov.tw/cb23ee9e",
    "map": "https://www.google.com/maps?q=22.9717,120.1836",
    "source": "第三方"
  },
  {
    "id": 800,
    "name": "台南市道路 中華西路一段與新信路口東桿(向東)",
    "region": "其他",
    "city": "高雄市/屏東縣",
    "lat": 22.9733,
    "lng": 120.1841,
    "url": "https://trafficvideo4.tainan.gov.tw/5c4d3684",
    "map": "https://www.google.com/maps?q=22.9733,120.1841",
    "source": "第三方"
  },
  {
    "id": 801,
    "name": "台南市道路 中華西路一段與新信路口東桿(向西)-廣角",
    "region": "其他",
    "city": "高雄市/屏東縣",
    "lat": 22.9732,
    "lng": 120.184,
    "url": "https://trafficvideo4.tainan.gov.tw/583a0450",
    "map": "https://www.google.com/maps?q=22.9732,120.184",
    "source": "第三方"
  },
  {
    "id": 802,
    "name": "台南市道路 中華西路一段與新興國中旁(向南)",
    "region": "其他",
    "city": "高雄市/屏東縣",
    "lat": 22.9774,
    "lng": 120.1845,
    "url": "https://trafficvideo4.tainan.gov.tw/bbb0718a",
    "map": "https://www.google.com/maps?q=22.9774,120.1845",
    "source": "第三方"
  },
  {
    "id": 803,
    "name": "台南市道路 中華西路一段與清水路口(向南)",
    "region": "其他",
    "city": "高雄市/屏東縣",
    "lat": 22.9623,
    "lng": 120.1838,
    "url": "https://trafficvideo3.tainan.gov.tw/b8251731",
    "map": "https://www.google.com/maps?q=22.9623,120.1838",
    "source": "第三方"
  },
  {
    "id": 805,
    "name": "台南市道路 中華西路二段與南島路口南桿(向北)",
    "region": "其他",
    "city": "高雄市/屏東縣",
    "lat": 22.9908,
    "lng": 120.187,
    "url": "https://trafficvideo3.tainan.gov.tw/a30ef60b",
    "map": "https://www.google.com/maps?q=22.9908,120.187",
    "source": "第三方"
  },
  {
    "id": 808,
    "name": "台南市道路 中華西路二段與府前路二段口東桿(向北)",
    "region": "其他",
    "city": "高雄市/屏東縣",
    "lat": 22.9926,
    "lng": 120.1871,
    "url": "https://trafficvideo.tainan.gov.tw/6a0feb9b",
    "map": "https://www.google.com/maps?q=22.9926,120.1871",
    "source": "第三方"
  },
  {
    "id": 809,
    "name": "台南市道路 中華西路二段與府前路二段口東桿(向東)",
    "region": "其他",
    "city": "高雄市/屏東縣",
    "lat": 22.9926,
    "lng": 120.1872,
    "url": "https://trafficvideo4.tainan.gov.tw/600910c0",
    "map": "https://www.google.com/maps?q=22.9926,120.1872",
    "source": "第三方"
  },
  {
    "id": 810,
    "name": "台南市道路 中華西路二段與建平十六街口東桿(向北)",
    "region": "其他",
    "city": "高雄市/屏東縣",
    "lat": 22.9965,
    "lng": 120.1865,
    "url": "https://trafficvideo.tainan.gov.tw/fda98b59",
    "map": "https://www.google.com/maps?q=22.9965,120.1865",
    "source": "第三方"
  },
  {
    "id": 811,
    "name": "台南市道路 中華西路二段與建平十六街東桿(向西)",
    "region": "其他",
    "city": "高雄市/屏東縣",
    "lat": 22.9965,
    "lng": 120.1866,
    "url": "https://trafficvideo4.tainan.gov.tw/28dd38e0",
    "map": "https://www.google.com/maps?q=22.9965,120.1866",
    "source": "第三方"
  },
  {
    "id": 812,
    "name": "台南市道路 中華西路二段與民權路四段口北桿(向南)",
    "region": "其他",
    "city": "高雄市/屏東縣",
    "lat": 22.9991,
    "lng": 120.1868,
    "url": "https://trafficvideo.tainan.gov.tw/2e4f2c79",
    "map": "https://www.google.com/maps?q=22.9991,120.1868",
    "source": "第三方"
  },
  {
    "id": 813,
    "name": "台南市道路 中華西路二段與民生路二段口北桿(向南)-廣角",
    "region": "其他",
    "city": "高雄市/屏東縣",
    "lat": 22.9983,
    "lng": 120.1867,
    "url": "https://trafficvideo4.tainan.gov.tw/8aed97ce",
    "map": "https://www.google.com/maps?q=22.9983,120.1867",
    "source": "第三方"
  },
  {
    "id": 814,
    "name": "台南市道路 中華西路二段與民生路二段口東桿(向西)",
    "region": "其他",
    "city": "高雄市/屏東縣",
    "lat": 22.9978,
    "lng": 120.1869,
    "url": "https://trafficvideo3.tainan.gov.tw/8ebfa053",
    "map": "https://www.google.com/maps?q=22.9978,120.1869",
    "source": "第三方"
  },
  {
    "id": 815,
    "name": "台南市道路 中華西路二段與永華路一段口南桿(向北)",
    "region": "其他",
    "city": "高雄市/屏東縣",
    "lat": 22.9887,
    "lng": 120.1869,
    "url": "https://trafficvideo2.tainan.gov.tw/a750dee6",
    "map": "https://www.google.com/maps?q=22.9887,120.1869",
    "source": "第三方"
  },
  {
    "id": 816,
    "name": "台南市道路 中華西路二段與永華路一段口東桿(向西)",
    "region": "其他",
    "city": "高雄市/屏東縣",
    "lat": 22.989,
    "lng": 120.1872,
    "url": "https://trafficvideo.tainan.gov.tw/32a097df",
    "map": "https://www.google.com/maps?q=22.989,120.1872",
    "source": "第三方"
  },
  {
    "id": 817,
    "name": "台南市道路 中西區 府前路一段與永福路一段口北桿(向南)",
    "region": "其他",
    "city": "高雄市/屏東縣",
    "lat": 22.9902,
    "lng": 120.2004,
    "url": "https://trafficvideo3.tainan.gov.tw/074f6684",
    "map": "https://www.google.com/maps?q=22.9902,120.2004",
    "source": "第三方"
  },
  {
    "id": 818,
    "name": "台南市道路 仁德區 中山路與中正路二段口北桿(向南)",
    "region": "其他",
    "city": "高雄市/屏東縣",
    "lat": 22.9719,
    "lng": 120.2517,
    "url": "https://trafficvideo5.tainan.gov.tw/2a9b8f8d",
    "map": "https://www.google.com/maps?q=22.9719,120.2517",
    "source": "第三方"
  },
  {
    "id": 819,
    "name": "台南市道路 仁德區 中山路與中正路二段口東桿(向西)-廣角",
    "region": "其他",
    "city": "高雄市/屏東縣",
    "lat": 22.9716,
    "lng": 120.2519,
    "url": "https://trafficvideo4.tainan.gov.tw/f13fbe4d",
    "map": "https://www.google.com/maps?q=22.9716,120.2519",
    "source": "第三方"
  },
  {
    "id": 820,
    "name": "台南市道路 仁德區 中山路與國1南上匝道西桿(向東)-廣角",
    "region": "其他",
    "city": "高雄市/屏東縣",
    "lat": 22.9724,
    "lng": 120.2487,
    "url": "https://trafficvideo4.tainan.gov.tw/64086579",
    "map": "https://www.google.com/maps?q=22.9724,120.2487",
    "source": "第三方"
  },
  {
    "id": 821,
    "name": "台南市道路 仁德區 中山路與國1南下上匝道口-廣角",
    "region": "其他",
    "city": "高雄市/屏東縣",
    "lat": 22.9723,
    "lng": 120.249,
    "url": "https://trafficvideo4.tainan.gov.tw/c386868b",
    "map": "https://www.google.com/maps?q=22.9723,120.249",
    "source": "第三方"
  },
  {
    "id": 822,
    "name": "台南市道路 仁德區 中山路與國1南下上匝道路口西桿(向西)",
    "region": "其他",
    "city": "高雄市/屏東縣",
    "lat": 22.9724,
    "lng": 120.2488,
    "url": "https://trafficvideo2.tainan.gov.tw/bf52d154",
    "map": "https://www.google.com/maps?q=22.9724,120.2488",
    "source": "第三方"
  },
  {
    "id": 823,
    "name": "台南市道路 仁德區 中山路與國1南下匝道出口-廣角",
    "region": "其他",
    "city": "高雄市/屏東縣",
    "lat": 22.9727,
    "lng": 120.2486,
    "url": "https://trafficvideo4.tainan.gov.tw/4f8972af",
    "map": "https://www.google.com/maps?q=22.9727,120.2486",
    "source": "第三方"
  },
  {
    "id": 824,
    "name": "台南市道路 仁德區 中山路與文德路口西桿(向東)",
    "region": "其他",
    "city": "高雄市/屏東縣",
    "lat": 22.9727,
    "lng": 120.2477,
    "url": "https://trafficvideo2.tainan.gov.tw/50794012",
    "map": "https://www.google.com/maps?q=22.9727,120.2477",
    "source": "第三方"
  },
  {
    "id": 825,
    "name": "台南市道路 仁德區 中山路與文華路三段口北桿(向南)-廣角",
    "region": "其他",
    "city": "高雄市/屏東縣",
    "lat": 22.9742,
    "lng": 120.2441,
    "url": "https://trafficvideo4.tainan.gov.tw/8153a080",
    "map": "https://www.google.com/maps?q=22.9742,120.2441",
    "source": "第三方"
  },
  {
    "id": 826,
    "name": "台南市道路 仁德區 中山路與文華路三段口南桿(向北)-廣角",
    "region": "其他",
    "city": "高雄市/屏東縣",
    "lat": 22.9733,
    "lng": 120.2439,
    "url": "https://trafficvideo4.tainan.gov.tw/bba7532f",
    "map": "https://www.google.com/maps?q=22.9733,120.2439",
    "source": "第三方"
  },
  {
    "id": 827,
    "name": "台南市道路 仁德區 中山路與文華路三段口東桿(向西)-廣角",
    "region": "其他",
    "city": "高雄市/屏東縣",
    "lat": 22.9737,
    "lng": 120.2443,
    "url": "https://trafficvideo4.tainan.gov.tw/df24796f",
    "map": "https://www.google.com/maps?q=22.9737,120.2443",
    "source": "第三方"
  },
  {
    "id": 828,
    "name": "台南市道路 仁德區 中山路與文華路三段口西桿(向東)",
    "region": "其他",
    "city": "高雄市/屏東縣",
    "lat": 22.9739,
    "lng": 120.2437,
    "url": "https://trafficvideo2.tainan.gov.tw/cf2ec896",
    "map": "https://www.google.com/maps?q=22.9739,120.2437",
    "source": "第三方"
  },
  {
    "id": 829,
    "name": "台南市道路 仁德區 中山路與文華路三段口西桿(向東)-廣角",
    "region": "其他",
    "city": "高雄市/屏東縣",
    "lat": 22.9739,
    "lng": 120.2437,
    "url": "https://trafficvideo4.tainan.gov.tw/f97bec86",
    "map": "https://www.google.com/maps?q=22.9739,120.2437",
    "source": "第三方"
  },
  {
    "id": 830,
    "name": "台南市道路 仁德區 中山路與文華路三段口西桿(向西)-廣角",
    "region": "其他",
    "city": "高雄市/屏東縣",
    "lat": 22.9739,
    "lng": 120.2437,
    "url": "https://trafficvideo4.tainan.gov.tw/f578dd22",
    "map": "https://www.google.com/maps?q=22.9739,120.2437",
    "source": "第三方"
  },
  {
    "id": 831,
    "name": "台南市道路 仁德區 中山路與文華路三段東側路段(向東)-廣角",
    "region": "其他",
    "city": "高雄市/屏東縣",
    "lat": 22.9734,
    "lng": 120.2457,
    "url": "https://trafficvideo3.tainan.gov.tw/5dc22104",
    "map": "https://www.google.com/maps?q=22.9734,120.2457",
    "source": "第三方"
  },
  {
    "id": 832,
    "name": "台南市道路 仁德區 中山路與文華路三段東側路段(向西)-廣角",
    "region": "其他",
    "city": "高雄市/屏東縣",
    "lat": 22.9732,
    "lng": 120.2457,
    "url": "https://trafficvideo3.tainan.gov.tw/23cee798",
    "map": "https://www.google.com/maps?q=22.9732,120.2457",
    "source": "第三方"
  },
  {
    "id": 833,
    "name": "台南市道路 仁德區 中山路與高速一街口南桿(向南)",
    "region": "其他",
    "city": "高雄市/屏東縣",
    "lat": 22.9717,
    "lng": 120.2499,
    "url": "https://trafficvideo2.tainan.gov.tw/6a8efbdb",
    "map": "https://www.google.com/maps?q=22.9717,120.2499",
    "source": "第三方"
  },
  {
    "id": 834,
    "name": "台南市道路 仁德區 中山路與高速一街口東桿(向西北)-廣角",
    "region": "其他",
    "city": "高雄市/屏東縣",
    "lat": 22.972,
    "lng": 120.2502,
    "url": "https://trafficvideo4.tainan.gov.tw/c47e847c",
    "map": "https://www.google.com/maps?q=22.972,120.2502",
    "source": "第三方"
  },
  {
    "id": 835,
    "name": "台南市道路 仁德區 二仁路二段與文華路二段口北桿(向南)",
    "region": "其他",
    "city": "高雄市/屏東縣",
    "lat": 22.9376,
    "lng": 120.221,
    "url": "https://trafficvideo2.tainan.gov.tw/c4e4218e",
    "map": "https://www.google.com/maps?q=22.9376,120.221",
    "source": "第三方"
  },
  {
    "id": 836,
    "name": "台南市道路 仁德區 二仁路二段與文賢路一段口南桿(向北)",
    "region": "其他",
    "city": "高雄市/屏東縣",
    "lat": 22.9438,
    "lng": 120.2204,
    "url": "https://trafficvideo5.tainan.gov.tw/7e2a596b",
    "map": "https://www.google.com/maps?q=22.9438,120.2204",
    "source": "第三方"
  },
  {
    "id": 837,
    "name": "台南市道路 仁德區 太子路與德泰彈簧床公司前西桿(向東)-廣角",
    "region": "其他",
    "city": "高雄市/屏東縣",
    "lat": 22.9914,
    "lng": 120.2523,
    "url": "https://trafficvideo3.tainan.gov.tw/459ff867",
    "map": "https://www.google.com/maps?q=22.9914,120.2523",
    "source": "第三方"
  },
  {
    "id": 838,
    "name": "台南市道路 仁德區 太子路與高速一街口南桿(向北)",
    "region": "其他",
    "city": "高雄市/屏東縣",
    "lat": 22.9905,
    "lng": 120.2485,
    "url": "https://trafficvideo3.tainan.gov.tw/b909f2c8",
    "map": "https://www.google.com/maps?q=22.9905,120.2485",
    "source": "第三方"
  },
  {
    "id": 839,
    "name": "台南市道路 仁德區 太子路與高速一街口南桿(向北)-廣角",
    "region": "其他",
    "city": "高雄市/屏東縣",
    "lat": 22.9904,
    "lng": 120.2485,
    "url": "https://trafficvideo3.tainan.gov.tw/b91fc00b",
    "map": "https://www.google.com/maps?q=22.9904,120.2485",
    "source": "第三方"
  },
  {
    "id": 840,
    "name": "台南市道路 仁德區 太子路與高速一街口東桿(向東)-廣角",
    "region": "其他",
    "city": "高雄市/屏東縣",
    "lat": 22.9908,
    "lng": 120.2487,
    "url": "https://trafficvideo4.tainan.gov.tw/fd0b1f88",
    "map": "https://www.google.com/maps?q=22.9908,120.2487",
    "source": "第三方"
  },
  {
    "id": 841,
    "name": "台南市道路 仁德區 太子路與高速一街口東桿(向西)-廣角",
    "region": "其他",
    "city": "高雄市/屏東縣",
    "lat": 22.9908,
    "lng": 120.2488,
    "url": "https://trafficvideo3.tainan.gov.tw/2c7e88ed",
    "map": "https://www.google.com/maps?q=22.9908,120.2488",
    "source": "第三方"
  },
  {
    "id": 842,
    "name": "台南市道路 仁德區 文德路與文山路口南桿(向北)-廣角",
    "region": "其他",
    "city": "高雄市/屏東縣",
    "lat": 22.9753,
    "lng": 120.2482,
    "url": "https://trafficvideo4.tainan.gov.tw/46774c7c",
    "map": "https://www.google.com/maps?q=22.9753,120.2482",
    "source": "第三方"
  },
  {
    "id": 843,
    "name": "台南市道路 健康路一段與南門路口南桿(向北)",
    "region": "其他",
    "city": "高雄市/屏東縣",
    "lat": 22.9811,
    "lng": 120.2037,
    "url": "https://trafficvideo.tainan.gov.tw/ef80a475",
    "map": "https://www.google.com/maps?q=22.9811,120.2037",
    "source": "第三方"
  },
  {
    "id": 844,
    "name": "台南市道路 健康路一段與南門路口東桿(向東)",
    "region": "其他",
    "city": "高雄市/屏東縣",
    "lat": 22.9813,
    "lng": 120.204,
    "url": "https://trafficvideo2.tainan.gov.tw/539b8083",
    "map": "https://www.google.com/maps?q=22.9813,120.204",
    "source": "第三方"
  },
  {
    "id": 845,
    "name": "台南市道路 健康路一段與忠烈祠(向西)",
    "region": "其他",
    "city": "高雄市/屏東縣",
    "lat": 22.9812,
    "lng": 120.211,
    "url": "https://trafficvideo3.tainan.gov.tw/1e6cb46f",
    "map": "https://www.google.com/maps?q=22.9812,120.211",
    "source": "第三方"
  },
  {
    "id": 846,
    "name": "台南市道路 健康路三段與光州路口西桿(向西)",
    "region": "其他",
    "city": "高雄市/屏東縣",
    "lat": 22.985,
    "lng": 120.1616,
    "url": "https://trafficvideo.tainan.gov.tw/87627986",
    "map": "https://www.google.com/maps?q=22.985,120.1616",
    "source": "第三方"
  },
  {
    "id": 847,
    "name": "台南市道路 健康路三段與建平路口西桿(向東)-廣角",
    "region": "其他",
    "city": "高雄市/屏東縣",
    "lat": 22.9827,
    "lng": 120.1811,
    "url": "https://trafficvideo4.tainan.gov.tw/e3160e9e",
    "map": "https://www.google.com/maps?q=22.9827,120.1811",
    "source": "第三方"
  },
  {
    "id": 848,
    "name": "台南市道路 健康路三段與文平路口(向西)",
    "region": "其他",
    "city": "高雄市/屏東縣",
    "lat": 22.983,
    "lng": 120.1778,
    "url": "https://trafficvideo3.tainan.gov.tw/537b249c",
    "map": "https://www.google.com/maps?q=22.983,120.1778",
    "source": "第三方"
  },
  {
    "id": 849,
    "name": "台南市道路 健康路二段與中華西路二段口北桿(向南)-廣角",
    "region": "其他",
    "city": "高雄市/屏東縣",
    "lat": 22.9825,
    "lng": 120.1861,
    "url": "https://trafficvideo4.tainan.gov.tw/ec4c2948",
    "map": "https://www.google.com/maps?q=22.9825,120.1861",
    "source": "第三方"
  },
  {
    "id": 853,
    "name": "台南市道路 公園路與成功路口(東桿)",
    "region": "其他",
    "city": "高雄市/屏東縣",
    "lat": 22.998,
    "lng": 120.2073,
    "url": "https://trafficvideo.tainan.gov.tw/23bc9f21",
    "map": "https://www.google.com/maps?q=22.998,120.2073",
    "source": "第三方"
  },
  {
    "id": 854,
    "name": "台南市道路 公園路與成功路口(西桿)",
    "region": "其他",
    "city": "高雄市/屏東縣",
    "lat": 22.9981,
    "lng": 120.2067,
    "url": "https://trafficvideo.tainan.gov.tw/b80aa7ab",
    "map": "https://www.google.com/maps?q=22.9981,120.2067",
    "source": "第三方"
  },
  {
    "id": 858,
    "name": "台南市道路 北門路一段與民族路二段口(西桿)",
    "region": "其他",
    "city": "高雄市/屏東縣",
    "lat": 22.9945,
    "lng": 120.2117,
    "url": "https://trafficvideo.tainan.gov.tw/6a130eaf",
    "map": "https://www.google.com/maps?q=22.9945,120.2117",
    "source": "第三方"
  },
  {
    "id": 859,
    "name": "台南市道路 北門路一段與衛民街口南桿(向北)",
    "region": "其他",
    "city": "高雄市/屏東縣",
    "lat": 22.9927,
    "lng": 120.2117,
    "url": "https://trafficvideo.tainan.gov.tw/32c0000a",
    "map": "https://www.google.com/maps?q=22.9927,120.2117",
    "source": "第三方"
  },
  {
    "id": 860,
    "name": "台南市道路 北門路二段與公園南路口東桿(向西)",
    "region": "其他",
    "city": "高雄市/屏東縣",
    "lat": 22.9999,
    "lng": 120.2128,
    "url": "https://trafficvideo3.tainan.gov.tw/19c2596a",
    "map": "https://www.google.com/maps?q=22.9999,120.2128",
    "source": "第三方"
  },
  {
    "id": 861,
    "name": "台南市道路 北門路二段與北忠街口(向北)",
    "region": "其他",
    "city": "高雄市/屏東縣",
    "lat": 22.9985,
    "lng": 120.2124,
    "url": "https://trafficvideo3.tainan.gov.tw/5a295548",
    "map": "https://www.google.com/maps?q=22.9985,120.2124",
    "source": "第三方"
  },
  {
    "id": 865,
    "name": "台南市道路 南門路與府前路一段口(北桿)",
    "region": "其他",
    "city": "高雄市/屏東縣",
    "lat": 22.9892,
    "lng": 120.2046,
    "url": "https://trafficvideo.tainan.gov.tw/172021003100",
    "map": "https://www.google.com/maps?q=22.9892,120.2046",
    "source": "第三方"
  },
  {
    "id": 866,
    "name": "台南市道路 南門路與府前路一段口(西桿)",
    "region": "其他",
    "city": "高雄市/屏東縣",
    "lat": 22.9891,
    "lng": 120.2044,
    "url": "https://trafficvideo.tainan.gov.tw/172021004100",
    "map": "https://www.google.com/maps?q=22.9891,120.2044",
    "source": "第三方"
  },
  {
    "id": 874,
    "name": "台南市道路 大同路一段與法華街口西桿(向東)-廣角",
    "region": "其他",
    "city": "高雄市/屏東縣",
    "lat": 22.9847,
    "lng": 120.2111,
    "url": "https://trafficvideo3.tainan.gov.tw/3837f66a",
    "map": "https://www.google.com/maps?q=22.9847,120.2111",
    "source": "第三方"
  },
  {
    "id": 875,
    "name": "台南市道路 大同路一段與法華街口西桿(向西)-廣角",
    "region": "其他",
    "city": "高雄市/屏東縣",
    "lat": 22.9847,
    "lng": 120.2111,
    "url": "https://trafficvideo3.tainan.gov.tw/cf1d895e",
    "map": "https://www.google.com/maps?q=22.9847,120.2111",
    "source": "第三方"
  },
  {
    "id": 876,
    "name": "台南市道路 大同路一段與開山路與府連路口南桿(向南)",
    "region": "其他",
    "city": "高雄市/屏東縣",
    "lat": 22.9848,
    "lng": 120.2112,
    "url": "https://trafficvideo2.tainan.gov.tw/54b2e135",
    "map": "https://www.google.com/maps?q=22.9848,120.2112",
    "source": "第三方"
  },
  {
    "id": 877,
    "name": "台南市道路 大同路一段與開山路與府連路口東桿(向東)",
    "region": "其他",
    "city": "高雄市/屏東縣",
    "lat": 22.9848,
    "lng": 120.2113,
    "url": "https://trafficvideo2.tainan.gov.tw/b596d902",
    "map": "https://www.google.com/maps?q=22.9848,120.2113",
    "source": "第三方"
  },
  {
    "id": 878,
    "name": "台南市道路 大同路一段與開山路與府連路口西南桿(向西南)-廣角",
    "region": "其他",
    "city": "高雄市/屏東縣",
    "lat": 22.9845,
    "lng": 120.2111,
    "url": "https://trafficvideo3.tainan.gov.tw/afe2f3dc",
    "map": "https://www.google.com/maps?q=22.9845,120.2111",
    "source": "第三方"
  },
  {
    "id": 879,
    "name": "台南市道路 大同路二段與健康路一段口(北桿)",
    "region": "其他",
    "city": "高雄市/屏東縣",
    "lat": 22.9814,
    "lng": 120.212,
    "url": "https://trafficvideo.tainan.gov.tw/172022003100",
    "map": "https://www.google.com/maps?q=22.9814,120.212",
    "source": "第三方"
  },
  {
    "id": 880,
    "name": "台南市道路 大同路二段與健康路一段口(南桿)",
    "region": "其他",
    "city": "高雄市/屏東縣",
    "lat": 22.9807,
    "lng": 120.2123,
    "url": "https://trafficvideo.tainan.gov.tw/df17076a",
    "map": "https://www.google.com/maps?q=22.9807,120.2123",
    "source": "第三方"
  },
  {
    "id": 881,
    "name": "台南市道路 大同路二段與健康路一段口(東桿)-1",
    "region": "其他",
    "city": "高雄市/屏東縣",
    "lat": 22.9812,
    "lng": 120.2123,
    "url": "https://trafficvideo.tainan.gov.tw/172022006100",
    "map": "https://www.google.com/maps?q=22.9812,120.2123",
    "source": "第三方"
  },
  {
    "id": 882,
    "name": "台南市道路 大同路二段與健康路一段口(東桿)-2",
    "region": "其他",
    "city": "高雄市/屏東縣",
    "lat": 22.981,
    "lng": 120.2125,
    "url": "https://trafficvideo.tainan.gov.tw/172022006200",
    "map": "https://www.google.com/maps?q=22.981,120.2125",
    "source": "第三方"
  },
  {
    "id": 883,
    "name": "台南市道路 大同路二段與健康路一段口(西桿)-1",
    "region": "其他",
    "city": "高雄市/屏東縣",
    "lat": 22.9812,
    "lng": 120.2119,
    "url": "https://trafficvideo.tainan.gov.tw/172022005100",
    "map": "https://www.google.com/maps?q=22.9812,120.2119",
    "source": "第三方"
  },
  {
    "id": 884,
    "name": "台南市道路 大同路二段與健康路一段口(西桿)-2",
    "region": "其他",
    "city": "高雄市/屏東縣",
    "lat": 22.9811,
    "lng": 120.2118,
    "url": "https://trafficvideo.tainan.gov.tw/172022005200",
    "map": "https://www.google.com/maps?q=22.9811,120.2118",
    "source": "第三方"
  },
  {
    "id": 885,
    "name": "台南市道路 大同路二段與國民路口北桿(向北)-廣角",
    "region": "其他",
    "city": "高雄市/屏東縣",
    "lat": 22.9678,
    "lng": 120.2158,
    "url": "https://trafficvideo5.tainan.gov.tw/27a0ed7d",
    "map": "https://www.google.com/maps?q=22.9678,120.2158",
    "source": "第三方"
  },
  {
    "id": 886,
    "name": "台南市道路 大同路二段與國民路口北桿(向南)",
    "region": "其他",
    "city": "高雄市/屏東縣",
    "lat": 22.9678,
    "lng": 120.2158,
    "url": "https://trafficvideo.tainan.gov.tw/705eee1e",
    "map": "https://www.google.com/maps?q=22.9678,120.2158",
    "source": "第三方"
  },
  {
    "id": 887,
    "name": "台南市道路 大同路二段與國民路口南桿(向南)-廣角",
    "region": "其他",
    "city": "高雄市/屏東縣",
    "lat": 22.9671,
    "lng": 120.216,
    "url": "https://trafficvideo5.tainan.gov.tw/24f035a0",
    "map": "https://www.google.com/maps?q=22.9671,120.216",
    "source": "第三方"
  },
  {
    "id": 889,
    "name": "台南市道路 安億橋停車場",
    "region": "其他",
    "city": "高雄市/屏東縣",
    "lat": 22.997,
    "lng": 120.1636,
    "url": "https://trafficvideo2.tainan.gov.tw/192168234004",
    "map": "https://www.google.com/maps?q=22.997,120.1636",
    "source": "第三方"
  },
  {
    "id": 890,
    "name": "台南市道路 安億路與光州路口北桿(向南)",
    "region": "其他",
    "city": "高雄市/屏東縣",
    "lat": 22.9939,
    "lng": 120.1593,
    "url": "https://trafficvideo3.tainan.gov.tw/55e53372",
    "map": "https://www.google.com/maps?q=22.9939,120.1593",
    "source": "第三方"
  },
  {
    "id": 892,
    "name": "台南市道路 安北路與安平路口",
    "region": "其他",
    "city": "高雄市/屏東縣",
    "lat": 22.999,
    "lng": 120.1681,
    "url": "https://trafficvideo2.tainan.gov.tw/192168234006",
    "map": "https://www.google.com/maps?q=22.999,120.1681",
    "source": "第三方"
  },
  {
    "id": 907,
    "name": "台南市道路 安平路與健康三街口南桿(向北)",
    "region": "其他",
    "city": "高雄市/屏東縣",
    "lat": 22.9986,
    "lng": 120.17,
    "url": "https://trafficvideo3.tainan.gov.tw/74263822",
    "map": "https://www.google.com/maps?q=22.9986,120.17",
    "source": "第三方"
  },
  {
    "id": 913,
    "name": "台南市道路 小東路與中華東路一段口北桿(向南)",
    "region": "其他",
    "city": "高雄市/屏東縣",
    "lat": 22.9989,
    "lng": 120.2347,
    "url": "https://trafficvideo2.tainan.gov.tw/942eb11e",
    "map": "https://www.google.com/maps?q=22.9989,120.2347",
    "source": "第三方"
  },
  {
    "id": 914,
    "name": "台南市道路 小東路與中華東路一段口南桿(向北)",
    "region": "其他",
    "city": "高雄市/屏東縣",
    "lat": 22.9981,
    "lng": 120.2347,
    "url": "https://trafficvideo3.tainan.gov.tw/832244da",
    "map": "https://www.google.com/maps?q=22.9981,120.2347",
    "source": "第三方"
  },
  {
    "id": 915,
    "name": "台南市道路 小東路與中華東路一段口東桿(向西)",
    "region": "其他",
    "city": "高雄市/屏東縣",
    "lat": 22.9984,
    "lng": 120.2351,
    "url": "https://trafficvideo3.tainan.gov.tw/cd763386",
    "map": "https://www.google.com/maps?q=22.9984,120.2351",
    "source": "第三方"
  },
  {
    "id": 916,
    "name": "台南市道路 小東路與中華東路一段口西桿(向東)",
    "region": "其他",
    "city": "高雄市/屏東縣",
    "lat": 22.9985,
    "lng": 120.2343,
    "url": "https://trafficvideo2.tainan.gov.tw/43fb527c",
    "map": "https://www.google.com/maps?q=22.9985,120.2343",
    "source": "第三方"
  },
  {
    "id": 920,
    "name": "台南市道路 小東路與忠孝路口南桿(向北)",
    "region": "其他",
    "city": "高雄市/屏東縣",
    "lat": 22.9982,
    "lng": 120.2399,
    "url": "https://trafficvideo3.tainan.gov.tw/208a0d1a",
    "map": "https://www.google.com/maps?q=22.9982,120.2399",
    "source": "第三方"
  },
  {
    "id": 921,
    "name": "台南市道路 小東路與忠孝路口西桿(向東)-廣角",
    "region": "其他",
    "city": "高雄市/屏東縣",
    "lat": 22.9985,
    "lng": 120.2397,
    "url": "https://trafficvideo4.tainan.gov.tw/bc3034af",
    "map": "https://www.google.com/maps?q=22.9985,120.2397",
    "source": "第三方"
  },
  {
    "id": 923,
    "name": "台南市道路 平生路與安億橋頭西桿(向東)",
    "region": "其他",
    "city": "高雄市/屏東縣",
    "lat": 22.9988,
    "lng": 120.1636,
    "url": "https://trafficvideo3.tainan.gov.tw/eb396b49",
    "map": "https://www.google.com/maps?q=22.9988,120.1636",
    "source": "第三方"
  },
  {
    "id": 924,
    "name": "台南市道路 府前路一段與台灣銀行前西桿(向西)",
    "region": "其他",
    "city": "高雄市/屏東縣",
    "lat": 22.989,
    "lng": 120.2072,
    "url": "https://trafficvideo.tainan.gov.tw/7e8d489e",
    "map": "https://www.google.com/maps?q=22.989,120.2072",
    "source": "第三方"
  },
  {
    "id": 925,
    "name": "台南市道路 府前路一段與忠義路二段口東桿(向西)",
    "region": "其他",
    "city": "高雄市/屏東縣",
    "lat": 22.9895,
    "lng": 120.2023,
    "url": "https://trafficvideo.tainan.gov.tw/e2e14cfa",
    "map": "https://www.google.com/maps?q=22.9895,120.2023",
    "source": "第三方"
  },
  {
    "id": 926,
    "name": "台南市道路 府前路一段與開山路口北桿(向南)",
    "region": "其他",
    "city": "高雄市/屏東縣",
    "lat": 22.9891,
    "lng": 120.2076,
    "url": "https://trafficvideo3.tainan.gov.tw/2c1d09d0",
    "map": "https://www.google.com/maps?q=22.9891,120.2076",
    "source": "第三方"
  },
  {
    "id": 927,
    "name": "台南市道路 府前路二段與建平路口西桿(向東)",
    "region": "其他",
    "city": "高雄市/屏東縣",
    "lat": 22.9934,
    "lng": 120.1833,
    "url": "https://trafficvideo2.tainan.gov.tw/16f3a7e0",
    "map": "https://www.google.com/maps?q=22.9934,120.1833",
    "source": "第三方"
  },
  {
    "id": 928,
    "name": "台南市道路 後甲圓環南桿(向北)",
    "region": "其他",
    "city": "高雄市/屏東縣",
    "lat": 22.988,
    "lng": 120.2336,
    "url": "https://trafficvideo2.tainan.gov.tw/c9db808b",
    "map": "https://www.google.com/maps?q=22.988,120.2336",
    "source": "第三方"
  },
  {
    "id": 929,
    "name": "台南市道路 慶平路與華平路口北桿(向北)",
    "region": "其他",
    "city": "高雄市/屏東縣",
    "lat": 22.997,
    "lng": 120.1759,
    "url": "https://trafficvideo4.tainan.gov.tw/92d375d3",
    "map": "https://www.google.com/maps?q=22.997,120.1759",
    "source": "第三方"
  },
  {
    "id": 930,
    "name": "台南市道路 成功路與忠義路三段口北桿(向南)",
    "region": "其他",
    "city": "高雄市/屏東縣",
    "lat": 22.9987,
    "lng": 120.205,
    "url": "https://trafficvideo4.tainan.gov.tw/9e238f19",
    "map": "https://www.google.com/maps?q=22.9987,120.205",
    "source": "第三方"
  },
  {
    "id": 934,
    "name": "台南市道路 新興路與新建路北桿(向南)",
    "region": "其他",
    "city": "高雄市/屏東縣",
    "lat": 22.9743,
    "lng": 120.1853,
    "url": "https://trafficvideo4.tainan.gov.tw/0ed121c7",
    "map": "https://www.google.com/maps?q=22.9743,120.1853",
    "source": "第三方"
  },
  {
    "id": 935,
    "name": "台南市道路 東區 東門路三段與富農街一段口南桿(向北)",
    "region": "其他",
    "city": "高雄市/屏東縣",
    "lat": 22.9773,
    "lng": 120.2345,
    "url": "https://trafficvideo2.tainan.gov.tw/67ea931f",
    "map": "https://www.google.com/maps?q=22.9773,120.2345",
    "source": "第三方"
  },
  {
    "id": 936,
    "name": "台南市道路 東區-四維地下道(編號352)",
    "region": "其他",
    "city": "高雄市/屏東縣",
    "lat": 22.9957,
    "lng": 120.2124,
    "url": "https://c01.第三方.com/cam/snapshot/tnn-805358.jpg",
    "map": "https://www.google.com/maps?q=22.9957,120.2124",
    "source": "第三方"
  },
  {
    "id": 937,
    "name": "台南市道路 東寧路與裕農路口西桿(向東)",
    "region": "其他",
    "city": "高雄市/屏東縣",
    "lat": 22.9886,
    "lng": 120.2327,
    "url": "https://trafficvideo4.tainan.gov.tw/0588da9f",
    "map": "https://www.google.com/maps?q=22.9886,120.2327",
    "source": "第三方"
  },
  {
    "id": 940,
    "name": "台南市道路 東門圓環與北門路一段電動車前分隔島(向東)",
    "region": "其他",
    "city": "高雄市/屏東縣",
    "lat": 22.9893,
    "lng": 120.2114,
    "url": "https://trafficvideo.tainan.gov.tw/d997d872",
    "map": "https://www.google.com/maps?q=22.9893,120.2114",
    "source": "第三方"
  },
  {
    "id": 941,
    "name": "台南市道路 東門圓環與大同路一段北桿(向南)",
    "region": "其他",
    "city": "高雄市/屏東縣",
    "lat": 22.9886,
    "lng": 120.2114,
    "url": "https://trafficvideo.tainan.gov.tw/9dc2f929",
    "map": "https://www.google.com/maps?q=22.9886,120.2114",
    "source": "第三方"
  },
  {
    "id": 942,
    "name": "台南市道路 東門路三段與崇學路口西桿(向東)",
    "region": "其他",
    "city": "高雄市/屏東縣",
    "lat": 22.9834,
    "lng": 120.2264,
    "url": "https://trafficvideo2.tainan.gov.tw/21f184a1",
    "map": "https://www.google.com/maps?q=22.9834,120.2264",
    "source": "第三方"
  },
  {
    "id": 943,
    "name": "台南市道路 東門路三段與自由路二段口北桿(向南)-廣角",
    "region": "其他",
    "city": "高雄市/屏東縣",
    "lat": 22.9762,
    "lng": 120.2375,
    "url": "https://trafficvideo4.tainan.gov.tw/3f17d100",
    "map": "https://www.google.com/maps?q=22.9762,120.2375",
    "source": "第三方"
  },
  {
    "id": 944,
    "name": "台南市道路 東門路三段與自由路二段口南桿(向北)-廣角",
    "region": "其他",
    "city": "高雄市/屏東縣",
    "lat": 22.9756,
    "lng": 120.2374,
    "url": "https://trafficvideo4.tainan.gov.tw/963bacbc",
    "map": "https://www.google.com/maps?q=22.9756,120.2374",
    "source": "第三方"
  },
  {
    "id": 945,
    "name": "台南市道路 東門路三段與自由路二段口東桿(向西)-廣角",
    "region": "其他",
    "city": "高雄市/屏東縣",
    "lat": 22.9758,
    "lng": 120.2377,
    "url": "https://trafficvideo4.tainan.gov.tw/56fc6adb",
    "map": "https://www.google.com/maps?q=22.9758,120.2377",
    "source": "第三方"
  },
  {
    "id": 946,
    "name": "台南市道路 東門路三段與自由路二段口西桿(向西)-廣角",
    "region": "其他",
    "city": "高雄市/屏東縣",
    "lat": 22.9759,
    "lng": 120.2372,
    "url": "https://trafficvideo4.tainan.gov.tw/dada1e71",
    "map": "https://www.google.com/maps?q=22.9759,120.2372",
    "source": "第三方"
  },
  {
    "id": 947,
    "name": "台南市道路 東門路二段與富德街口(向東)",
    "region": "其他",
    "city": "高雄市/屏東縣",
    "lat": 22.9853,
    "lng": 120.223,
    "url": "https://trafficvideo.tainan.gov.tw/17dcd3fb",
    "map": "https://www.google.com/maps?q=22.9853,120.223",
    "source": "第三方"
  },
  {
    "id": 948,
    "name": "台南市道路 東門路二段與裕農路口南桿(向北)",
    "region": "其他",
    "city": "高雄市/屏東縣",
    "lat": 22.9849,
    "lng": 120.2243,
    "url": "https://trafficvideo.tainan.gov.tw/786ae899",
    "map": "https://www.google.com/maps?q=22.9849,120.2243",
    "source": "第三方"
  },
  {
    "id": 949,
    "name": "台南市道路 林森路一段與崇明路口東桿(向西)",
    "region": "其他",
    "city": "高雄市/屏東縣",
    "lat": 22.9822,
    "lng": 120.216,
    "url": "https://trafficvideo.tainan.gov.tw/eadc632c",
    "map": "https://www.google.com/maps?q=22.9822,120.216",
    "source": "第三方"
  },
  {
    "id": 950,
    "name": "台南市道路 林森路二段與東門路二段口東桿(向西)",
    "region": "其他",
    "city": "高雄市/屏東縣",
    "lat": 22.9854,
    "lng": 120.2226,
    "url": "https://trafficvideo.tainan.gov.tw/0de1aa08",
    "map": "https://www.google.com/maps?q=22.9854,120.2226",
    "source": "第三方"
  },
  {
    "id": 951,
    "name": "台南市道路 歸仁區 中正南路二段與中油高鐵站(向北)",
    "region": "其他",
    "city": "高雄市/屏東縣",
    "lat": 22.9288,
    "lng": 120.2774,
    "url": "https://trafficvideo2.tainan.gov.tw/b15b446c",
    "map": "https://www.google.com/maps?q=22.9288,120.2774",
    "source": "第三方"
  },
  {
    "id": 952,
    "name": "台南市道路 歸仁區 中正南路二段與大武路二段口南桿(向北)",
    "region": "其他",
    "city": "高雄市/屏東縣",
    "lat": 22.9207,
    "lng": 120.2742,
    "url": "https://trafficvideo.tainan.gov.tw/819b1ef2",
    "map": "https://www.google.com/maps?q=22.9207,120.2742",
    "source": "第三方"
  },
  {
    "id": 953,
    "name": "台南市道路 歸仁區 中正南路二段與歸仁八路口南桿(向北)",
    "region": "其他",
    "city": "高雄市/屏東縣",
    "lat": 22.9267,
    "lng": 120.2768,
    "url": "https://trafficvideo.tainan.gov.tw/687a906d",
    "map": "https://www.google.com/maps?q=22.9267,120.2768",
    "source": "第三方"
  },
  {
    "id": 954,
    "name": "台南市道路 歸仁區 中正南路二段與歸仁八路口東桿(向北)",
    "region": "其他",
    "city": "高雄市/屏東縣",
    "lat": 22.9268,
    "lng": 120.2771,
    "url": "https://trafficvideo.tainan.gov.tw/cf98a255",
    "map": "https://www.google.com/maps?q=22.9268,120.2771",
    "source": "第三方"
  },
  {
    "id": 955,
    "name": "台南市道路 歸仁區 大武路二段與高鐵一路口東桿(向西)",
    "region": "其他",
    "city": "高雄市/屏東縣",
    "lat": 22.9182,
    "lng": 120.2818,
    "url": "https://trafficvideo3.tainan.gov.tw/7be4f24d",
    "map": "https://www.google.com/maps?q=22.9182,120.2818",
    "source": "第三方"
  },
  {
    "id": 956,
    "name": "台南市道路 歸仁區 武當路與歸仁十二路口西桿(向東)",
    "region": "其他",
    "city": "高雄市/屏東縣",
    "lat": 22.9222,
    "lng": 120.2853,
    "url": "https://trafficvideo2.tainan.gov.tw/ebf851be",
    "map": "https://www.google.com/maps?q=22.9222,120.2853",
    "source": "第三方"
  },
  {
    "id": 957,
    "name": "台南市道路 歸仁區 武當路與站區南路口北桿(向南)",
    "region": "其他",
    "city": "高雄市/屏東縣",
    "lat": 22.9231,
    "lng": 120.2851,
    "url": "https://trafficvideo3.tainan.gov.tw/a8b6a3ab",
    "map": "https://www.google.com/maps?q=22.9231,120.2851",
    "source": "第三方"
  },
  {
    "id": 958,
    "name": "台南市道路 歸仁區 歸仁七路與高發一路口東桿(向西)",
    "region": "其他",
    "city": "高雄市/屏東縣",
    "lat": 22.9276,
    "lng": 120.2874,
    "url": "https://trafficvideo.tainan.gov.tw/1914bcd5",
    "map": "https://www.google.com/maps?q=22.9276,120.2874",
    "source": "第三方"
  },
  {
    "id": 959,
    "name": "台南市道路 歸仁區 歸仁十三路與高發一路口西桿(向東)",
    "region": "其他",
    "city": "高雄市/屏東縣",
    "lat": 22.9236,
    "lng": 120.289,
    "url": "https://trafficvideo.tainan.gov.tw/3e6342c7",
    "map": "https://www.google.com/maps?q=22.9236,120.289",
    "source": "第三方"
  },
  {
    "id": 960,
    "name": "台南市道路 歸仁區 歸仁十三路與高發二路口南桿(向北)",
    "region": "其他",
    "city": "高雄市/屏東縣",
    "lat": 22.9242,
    "lng": 120.291,
    "url": "https://trafficvideo3.tainan.gov.tw/1927fe8b",
    "map": "https://www.google.com/maps?q=22.9242,120.291",
    "source": "第三方"
  },
  {
    "id": 961,
    "name": "台南市道路 歸仁區 歸仁大道與大武路二段口東側西桿(向東)",
    "region": "其他",
    "city": "高雄市/屏東縣",
    "lat": 22.919,
    "lng": 120.2894,
    "url": "https://trafficvideo3.tainan.gov.tw/3b688653",
    "map": "https://www.google.com/maps?q=22.919,120.2894",
    "source": "第三方"
  },
  {
    "id": 962,
    "name": "台南市道路 歸仁區 歸仁大道與歸仁七路口北桿(向南)",
    "region": "其他",
    "city": "高雄市/屏東縣",
    "lat": 22.927,
    "lng": 120.286,
    "url": "https://trafficvideo2.tainan.gov.tw/3b0cdb38",
    "map": "https://www.google.com/maps?q=22.927,120.286",
    "source": "第三方"
  },
  {
    "id": 963,
    "name": "台南市道路 歸仁區 歸仁大道與歸仁十三路口東南桿(向北)",
    "region": "其他",
    "city": "高雄市/屏東縣",
    "lat": 22.923,
    "lng": 120.288,
    "url": "https://trafficvideo2.tainan.gov.tw/26f189b2",
    "map": "https://www.google.com/maps?q=22.923,120.288",
    "source": "第三方"
  },
  {
    "id": 964,
    "name": "台南市道路 歸仁區 歸仁大道與站區北路口北桿(向南)",
    "region": "其他",
    "city": "高雄市/屏東縣",
    "lat": 22.9256,
    "lng": 120.2856,
    "url": "https://trafficvideo.tainan.gov.tw/48e70b5d",
    "map": "https://www.google.com/maps?q=22.9256,120.2856",
    "source": "第三方"
  },
  {
    "id": 965,
    "name": "台南市道路 歸仁區 高鐵一路與歸仁十二路口南桿(向北)",
    "region": "其他",
    "city": "高雄市/屏東縣",
    "lat": 22.9215,
    "lng": 120.283,
    "url": "https://trafficvideo3.tainan.gov.tw/4266157c",
    "map": "https://www.google.com/maps?q=22.9215,120.283",
    "source": "第三方"
  },
  {
    "id": 966,
    "name": "台南市道路 歸仁區 高鐵大道與高鐵一路口南桿(向南)",
    "region": "其他",
    "city": "高雄市/屏東縣",
    "lat": 22.9231,
    "lng": 120.2829,
    "url": "https://trafficvideo3.tainan.gov.tw/80e4cb77",
    "map": "https://www.google.com/maps?q=22.9231,120.2829",
    "source": "第三方"
  },
  {
    "id": 967,
    "name": "台南市道路 民族路一段與前鋒路口南桿(向北)",
    "region": "其他",
    "city": "高雄市/屏東縣",
    "lat": 22.9944,
    "lng": 120.2132,
    "url": "https://trafficvideo2.tainan.gov.tw/a0c6236b",
    "map": "https://www.google.com/maps?q=22.9944,120.2132",
    "source": "第三方"
  },
  {
    "id": 968,
    "name": "台南市道路 民族路一段與前鋒路口西桿(向東)",
    "region": "其他",
    "city": "高雄市/屏東縣",
    "lat": 22.9945,
    "lng": 120.2129,
    "url": "https://trafficvideo3.tainan.gov.tw/5a3969c8",
    "map": "https://www.google.com/maps?q=22.9945,120.2129",
    "source": "第三方"
  },
  {
    "id": 969,
    "name": "台南市道路 民族路二段與北門路一段口南桿(向北)",
    "region": "其他",
    "city": "高雄市/屏東縣",
    "lat": 22.9943,
    "lng": 120.2118,
    "url": "https://trafficvideo.tainan.gov.tw/4bf7bdf5",
    "map": "https://www.google.com/maps?q=22.9943,120.2118",
    "source": "第三方"
  },
  {
    "id": 972,
    "name": "台南市道路 民生路一段與忠義路二段口(向西)",
    "region": "其他",
    "city": "高雄市/屏東縣",
    "lat": 22.9933,
    "lng": 120.2033,
    "url": "https://trafficvideo2.tainan.gov.tw/0fd0a1cc",
    "map": "https://www.google.com/maps?q=22.9933,120.2033",
    "source": "第三方"
  },
  {
    "id": 978,
    "name": "台南市道路 水利局 五空橋",
    "region": "其他",
    "city": "高雄市/屏東縣",
    "lat": 22.9273,
    "lng": 120.2215,
    "url": "https://cctv-ss06.thb.gov.tw:443/T1-343K+191",
    "map": "https://www.google.com/maps?q=22.9273,120.2215",
    "source": "第三方"
  },
  {
    "id": 980,
    "name": "台南市道路 水利局 仁德滯洪北池",
    "region": "其他",
    "city": "高雄市/屏東縣",
    "lat": 22.9654,
    "lng": 120.2474,
    "url": "https://c01.第三方.com/cam/snapshot/tnn-805204.jpg",
    "map": "https://www.google.com/maps?q=22.9654,120.2474",
    "source": "第三方"
  },
  {
    "id": 981,
    "name": "台南市道路 水利局 仁德滯洪南池",
    "region": "其他",
    "city": "高雄市/屏東縣",
    "lat": 22.9613,
    "lng": 120.2472,
    "url": "https://c01.第三方.com/cam/snapshot/tnn-805203.jpg",
    "map": "https://www.google.com/maps?q=22.9613,120.2472",
    "source": "第三方"
  },
  {
    "id": 992,
    "name": "台南市道路 水利局 土庫溝排水(檢修中)",
    "region": "其他",
    "city": "高雄市/屏東縣",
    "lat": 22.9918,
    "lng": 120.2865,
    "url": "https://c01.第三方.com/cam/snapshot/tnn-805282.jpg",
    "map": "https://www.google.com/maps?q=22.9918,120.2865",
    "source": "第三方"
  },
  {
    "id": 995,
    "name": "台南市道路 水利局 大同地下道1",
    "region": "其他",
    "city": "高雄市/屏東縣",
    "lat": 22.9816,
    "lng": 120.2149,
    "url": "https://c01.第三方.com/cam/snapshot/tnn-805149.jpg",
    "map": "https://www.google.com/maps?q=22.9816,120.2149",
    "source": "第三方"
  },
  {
    "id": 996,
    "name": "台南市道路 水利局 大同地下道2",
    "region": "其他",
    "city": "高雄市/屏東縣",
    "lat": 22.9816,
    "lng": 120.2149,
    "url": "https://c01.第三方.com/cam/snapshot/tnn-805150.jpg",
    "map": "https://www.google.com/maps?q=22.9816,120.2149",
    "source": "第三方"
  },
  {
    "id": 999,
    "name": "台南市道路 水利局 大甲排水上游",
    "region": "其他",
    "city": "高雄市/屏東縣",
    "lat": 22.9263,
    "lng": 120.2186,
    "url": "https://c01.第三方.com/cam/snapshot/tnn-805154.jpg",
    "map": "https://www.google.com/maps?q=22.9263,120.2186",
    "source": "第三方"
  },
  {
    "id": 1002,
    "name": "台南市道路 水利局 媽廟橋",
    "region": "其他",
    "city": "高雄市/屏東縣",
    "lat": 22.9921,
    "lng": 120.2984,
    "url": "https://c01.第三方.com/cam/snapshot/tnn-805305.jpg",
    "map": "https://www.google.com/maps?q=22.9921,120.2984",
    "source": "第三方"
  },
  {
    "id": 1012,
    "name": "台南市道路 水利局 府連地下道",
    "region": "其他",
    "city": "高雄市/屏東縣",
    "lat": 22.9855,
    "lng": 120.2137,
    "url": "https://c01.第三方.com/cam/snapshot/tnn-805144.jpg",
    "map": "https://www.google.com/maps?q=22.9855,120.2137",
    "source": "第三方"
  },
  {
    "id": 1014,
    "name": "台南市道路 水利局 復興路高速公路涵洞",
    "region": "其他",
    "city": "高雄市/屏東縣",
    "lat": 22.9988,
    "lng": 120.2485,
    "url": "https://cctvs.freeway.gov.tw/live-view/mjpg/video.cgi?camera=155",
    "map": "https://www.google.com/maps?q=22.9988,120.2485",
    "source": "第三方"
  },
  {
    "id": 1028,
    "name": "台南市道路 水利局 東寧地下道",
    "region": "其他",
    "city": "高雄市/屏東縣",
    "lat": 22.9932,
    "lng": 120.2137,
    "url": "https://c01.第三方.com/cam/snapshot/tnn-805145.jpg",
    "map": "https://www.google.com/maps?q=22.9932,120.2137",
    "source": "第三方"
  },
  {
    "id": 1036,
    "name": "台南市道路 水利局 洋子下橋",
    "region": "其他",
    "city": "高雄市/屏東縣",
    "lat": 22.9562,
    "lng": 120.2429,
    "url": "https://c01.第三方.com/cam/snapshot/tnn-805198.jpg",
    "map": "https://www.google.com/maps?q=22.9562,120.2429",
    "source": "第三方"
  },
  {
    "id": 1042,
    "name": "台南市道路 水利局 港尾溝溪分洪匯流口",
    "region": "其他",
    "city": "高雄市/屏東縣",
    "lat": 22.9031,
    "lng": 120.2677,
    "url": "https://c01.第三方.com/cam/snapshot/tnn-805258.jpg",
    "map": "https://www.google.com/maps?q=22.9031,120.2677",
    "source": "第三方"
  },
  {
    "id": 1043,
    "name": "台南市道路 水利局 港尾溝溪分洪口",
    "region": "其他",
    "city": "高雄市/屏東縣",
    "lat": 22.9273,
    "lng": 120.2571,
    "url": "https://c01.第三方.com/cam/snapshot/tnn-805235.jpg",
    "map": "https://www.google.com/maps?q=22.9273,120.2571",
    "source": "第三方"
  },
  {
    "id": 1044,
    "name": "台南市道路 水利局 灣裡人工溼地(施工中)",
    "region": "其他",
    "city": "高雄市/屏東縣",
    "lat": 22.9315,
    "lng": 120.1825,
    "url": "https://c01.第三方.com/cam/snapshot/tnn-805105.jpg",
    "map": "https://www.google.com/maps?q=22.9315,120.1825",
    "source": "第三方"
  },
  {
    "id": 1055,
    "name": "台南市道路 水利局 網寮橋",
    "region": "其他",
    "city": "高雄市/屏東縣",
    "lat": 22.9986,
    "lng": 120.2505,
    "url": "https://trafficvideo2.tainan.gov.tw/7411ad4f",
    "map": "https://www.google.com/maps?q=22.9986,120.2505",
    "source": "第三方"
  },
  {
    "id": 1064,
    "name": "台南市道路 水利局 萬代橋",
    "region": "其他",
    "city": "高雄市/屏東縣",
    "lat": 22.9721,
    "lng": 120.2491,
    "url": "https://trafficvideo4.tainan.gov.tw/c386868b",
    "map": "https://www.google.com/maps?q=22.9721,120.2491",
    "source": "第三方"
  },
  {
    "id": 1077,
    "name": "台南市道路 水利局 鯽潭橋(檢修中)",
    "region": "其他",
    "city": "高雄市/屏東縣",
    "lat": 22.9911,
    "lng": 120.2504,
    "url": "https://c01.第三方.com/cam/snapshot/tnn-805215.jpg",
    "map": "https://www.google.com/maps?q=22.9911,120.2504",
    "source": "第三方"
  },
  {
    "id": 1132,
    "name": "台南市道路 永康區 國一迴轉道南側(向南)",
    "region": "其他",
    "city": "高雄市/屏東縣",
    "lat": 22.9968,
    "lng": 120.248,
    "url": "https://trafficvideo2.tainan.gov.tw/569dd93e",
    "map": "https://www.google.com/maps?q=22.9968,120.248",
    "source": "第三方"
  },
  {
    "id": 1134,
    "name": "台南市道路 永康區 小東路與小東路647巷口(向東)",
    "region": "其他",
    "city": "高雄市/屏東縣",
    "lat": 22.9985,
    "lng": 120.2386,
    "url": "https://trafficvideo3.tainan.gov.tw/d608d0a3",
    "map": "https://www.google.com/maps?q=22.9985,120.2386",
    "source": "第三方"
  },
  {
    "id": 1137,
    "name": "台南市道路 永康區 復興路與復國路口西桿(向東)",
    "region": "其他",
    "city": "高雄市/屏東縣",
    "lat": 22.9986,
    "lng": 120.2467,
    "url": "https://trafficvideo2.tainan.gov.tw/e452449h",
    "map": "https://www.google.com/maps?q=22.9986,120.2467",
    "source": "第三方"
  },
  {
    "id": 1138,
    "name": "台南市道路 永康區 復興路與復興路26巷口東桿(向西)",
    "region": "其他",
    "city": "高雄市/屏東縣",
    "lat": 22.9986,
    "lng": 120.2498,
    "url": "https://trafficvideo2.tainan.gov.tw/7411ad4f",
    "map": "https://www.google.com/maps?q=22.9986,120.2498",
    "source": "第三方"
  },
  {
    "id": 1139,
    "name": "台南市道路 永康區 復興路與消防局前東桿(向東)-廣角",
    "region": "其他",
    "city": "高雄市/屏東縣",
    "lat": 22.9986,
    "lng": 120.2452,
    "url": "https://trafficvideo5.tainan.gov.tw/f3e82874",
    "map": "https://www.google.com/maps?q=22.9986,120.2452",
    "source": "第三方"
  },
  {
    "id": 1140,
    "name": "台南市道路 永康區 復興路與消防局前東桿(向西)",
    "region": "其他",
    "city": "高雄市/屏東縣",
    "lat": 22.9986,
    "lng": 120.245,
    "url": "https://trafficvideo2.tainan.gov.tw/8d436ff5",
    "map": "https://www.google.com/maps?q=22.9986,120.245",
    "source": "第三方"
  },
  {
    "id": 1141,
    "name": "台南市道路 永康區 復興路與消防局前西桿(向西)-廣角",
    "region": "其他",
    "city": "高雄市/屏東縣",
    "lat": 22.9986,
    "lng": 120.2446,
    "url": "https://trafficvideo5.tainan.gov.tw/96256787",
    "map": "https://www.google.com/maps?q=22.9986,120.2446",
    "source": "第三方"
  },
  {
    "id": 1142,
    "name": "台南市道路 永康區 復興路與高速一街南桿(向北)",
    "region": "其他",
    "city": "高雄市/屏東縣",
    "lat": 22.9984,
    "lng": 120.2485,
    "url": "https://trafficvideo2.tainan.gov.tw/685f3c55",
    "map": "https://www.google.com/maps?q=22.9984,120.2485",
    "source": "第三方"
  },
  {
    "id": 1143,
    "name": "台南市道路 永康區 復興路與高速二街口北桿(向南)",
    "region": "其他",
    "city": "高雄市/屏東縣",
    "lat": 22.9989,
    "lng": 120.2479,
    "url": "https://trafficvideo3.tainan.gov.tw/74b4b124",
    "map": "https://www.google.com/maps?q=22.9989,120.2479",
    "source": "第三方"
  },
  {
    "id": 1144,
    "name": "台南市道路 永康區 復興路與高速二街口西桿(向東北)",
    "region": "其他",
    "city": "高雄市/屏東縣",
    "lat": 22.9986,
    "lng": 120.2477,
    "url": "https://trafficvideo3.tainan.gov.tw/c7c4eb0f",
    "map": "https://www.google.com/maps?q=22.9986,120.2477",
    "source": "第三方"
  },
  {
    "id": 1145,
    "name": "台南市道路 永康區 復興路與高速二街口西桿(向東南)",
    "region": "其他",
    "city": "高雄市/屏東縣",
    "lat": 22.9986,
    "lng": 120.2477,
    "url": "https://trafficvideo3.tainan.gov.tw/ce4b4e50",
    "map": "https://www.google.com/maps?q=22.9986,120.2477",
    "source": "第三方"
  },
  {
    "id": 1167,
    "name": "台南市道路 永康區-崑大路155巷58弄底",
    "region": "其他",
    "city": "高雄市/屏東縣",
    "lat": 22.9843,
    "lng": 120.2509,
    "url": "https://c01.第三方.com/cam/snapshot/tnn-805350.jpg",
    "map": "https://www.google.com/maps?q=22.9843,120.2509",
    "source": "第三方"
  },
  {
    "id": 1169,
    "name": "台南市道路 永華路二段與建平路口西桿(向東)-廣角",
    "region": "其他",
    "city": "高雄市/屏東縣",
    "lat": 22.9897,
    "lng": 120.1823,
    "url": "https://trafficvideo4.tainan.gov.tw/5b5c1a34",
    "map": "https://www.google.com/maps?q=22.9897,120.1823",
    "source": "第三方"
  },
  {
    "id": 1172,
    "name": "台南市道路 濱南路與鯤鯓路口北桿(向北)-廣角",
    "region": "其他",
    "city": "高雄市/屏東縣",
    "lat": 22.9592,
    "lng": 120.1839,
    "url": "https://trafficvideo5.tainan.gov.tw/8cceb7f7",
    "map": "https://www.google.com/maps?q=22.9592,120.1839",
    "source": "第三方"
  },
  {
    "id": 1173,
    "name": "台南市道路 濱南路與鯤鯓路口南桿(向南)-廣角",
    "region": "其他",
    "city": "高雄市/屏東縣",
    "lat": 22.9588,
    "lng": 120.1839,
    "url": "https://trafficvideo5.tainan.gov.tw/ea9355f3",
    "map": "https://www.google.com/maps?q=22.9588,120.1839",
    "source": "第三方"
  },
  {
    "id": 1174,
    "name": "台南市道路 火車站圓環中山路南桿(向北)",
    "region": "其他",
    "city": "高雄市/屏東縣",
    "lat": 22.9967,
    "lng": 120.2116,
    "url": "https://trafficvideo5.tainan.gov.tw/a59082a2",
    "map": "https://www.google.com/maps?q=22.9967,120.2116",
    "source": "第三方"
  },
  {
    "id": 1175,
    "name": "台南市道路 火車站圓環成功路西桿(向東)",
    "region": "其他",
    "city": "高雄市/屏東縣",
    "lat": 22.9974,
    "lng": 120.211,
    "url": "https://trafficvideo2.tainan.gov.tw/9dd4e804",
    "map": "https://www.google.com/maps?q=22.9974,120.211",
    "source": "第三方"
  },
  {
    "id": 1179,
    "name": "台南市道路 華平路與安平路口南桿(向北)",
    "region": "其他",
    "city": "高雄市/屏東縣",
    "lat": 22.9981,
    "lng": 120.176,
    "url": "https://trafficvideo3.tainan.gov.tw/fe41d992",
    "map": "https://www.google.com/maps?q=22.9981,120.176",
    "source": "第三方"
  },
  {
    "id": 1181,
    "name": "台南市道路 裕永路與裕農變電所前北桿(向南)-廣角",
    "region": "其他",
    "city": "高雄市/屏東縣",
    "lat": 22.991,
    "lng": 120.241,
    "url": "https://trafficvideo5.tainan.gov.tw/75feb2e4",
    "map": "https://www.google.com/maps?q=22.991,120.241",
    "source": "第三方"
  },
  {
    "id": 1182,
    "name": "台南市道路 裕義路與裕英街口北桿(向北)-廣角",
    "region": "其他",
    "city": "高雄市/屏東縣",
    "lat": 22.9869,
    "lng": 120.2479,
    "url": "https://trafficvideo4.tainan.gov.tw/bfb52853",
    "map": "https://www.google.com/maps?q=22.9869,120.2479",
    "source": "第三方"
  },
  {
    "id": 1183,
    "name": "台南市道路 裕農路與建東街口北桿(向西)-廣角",
    "region": "其他",
    "city": "高雄市/屏東縣",
    "lat": 22.9888,
    "lng": 120.2372,
    "url": "https://trafficvideo5.tainan.gov.tw/920d1c49",
    "map": "https://www.google.com/maps?q=22.9888,120.2372",
    "source": "第三方"
  },
  {
    "id": 1184,
    "name": "台南市道路 裕農路與慈幼工商前南桿(向東)-廣角",
    "region": "其他",
    "city": "高雄市/屏東縣",
    "lat": 22.9891,
    "lng": 120.2398,
    "url": "https://trafficvideo5.tainan.gov.tw/c965b6b9",
    "map": "https://www.google.com/maps?q=22.9891,120.2398",
    "source": "第三方"
  },
  {
    "id": 1185,
    "name": "台南市道路 裕農路與裕信路口東桿(向東)-廣角",
    "region": "其他",
    "city": "高雄市/屏東縣",
    "lat": 22.9902,
    "lng": 120.2452,
    "url": "https://trafficvideo5.tainan.gov.tw/5831ffba",
    "map": "https://www.google.com/maps?q=22.9902,120.2452",
    "source": "第三方"
  },
  {
    "id": 1186,
    "name": "台南市道路 裕農路與裕信路口東桿(向東)-廣角",
    "region": "其他",
    "city": "高雄市/屏東縣",
    "lat": 22.9902,
    "lng": 120.2452,
    "url": "https://trafficvideo4.tainan.gov.tw/665a6b29",
    "map": "https://www.google.com/maps?q=22.9902,120.2452",
    "source": "第三方"
  },
  {
    "id": 1187,
    "name": "台南市道路 裕農路與裕孝路口東桿(向西)-廣角",
    "region": "其他",
    "city": "高雄市/屏東縣",
    "lat": 22.9897,
    "lng": 120.243,
    "url": "https://trafficvideo4.tainan.gov.tw/7a44e145",
    "map": "https://www.google.com/maps?q=22.9897,120.243",
    "source": "第三方"
  },
  {
    "id": 1188,
    "name": "台南市道路 裕農路與裕忠路口東桿(向東)-廣角",
    "region": "其他",
    "city": "高雄市/屏東縣",
    "lat": 22.9895,
    "lng": 120.2414,
    "url": "https://trafficvideo5.tainan.gov.tw/e1afd509",
    "map": "https://www.google.com/maps?q=22.9895,120.2414",
    "source": "第三方"
  },
  {
    "id": 1189,
    "name": "台南市道路 裕農路與裕義路口南桿(向南)-廣角",
    "region": "其他",
    "city": "高雄市/屏東縣",
    "lat": 22.9906,
    "lng": 120.2479,
    "url": "https://trafficvideo5.tainan.gov.tw/3e6212ca",
    "map": "https://www.google.com/maps?q=22.9906,120.2479",
    "source": "第三方"
  },
  {
    "id": 1190,
    "name": "台南市道路 裕農路與裕義路口南桿(向西)",
    "region": "其他",
    "city": "高雄市/屏東縣",
    "lat": 22.9906,
    "lng": 120.248,
    "url": "https://trafficvideo.tainan.gov.tw/fa4fdc4a",
    "map": "https://www.google.com/maps?q=22.9906,120.248",
    "source": "第三方"
  },
  {
    "id": 1191,
    "name": "台南市道路 裕農路與裕義路口東桿(向西)-廣角",
    "region": "其他",
    "city": "高雄市/屏東縣",
    "lat": 22.9907,
    "lng": 120.2481,
    "url": "https://trafficvideo4.tainan.gov.tw/6bf7afdc",
    "map": "https://www.google.com/maps?q=22.9907,120.2481",
    "source": "第三方"
  },
  {
    "id": 1192,
    "name": "台南市道路 裕農路與裕義路口西桿(向東)",
    "region": "其他",
    "city": "高雄市/屏東縣",
    "lat": 22.9906,
    "lng": 120.2476,
    "url": "https://trafficvideo3.tainan.gov.tw/aed99d50",
    "map": "https://www.google.com/maps?q=22.9906,120.2476",
    "source": "第三方"
  },
  {
    "id": 1193,
    "name": "台南市道路 裕農路與裕義路口西桿(向東)-廣角",
    "region": "其他",
    "city": "高雄市/屏東縣",
    "lat": 22.9906,
    "lng": 120.2475,
    "url": "https://trafficvideo5.tainan.gov.tw/cc08b5ca",
    "map": "https://www.google.com/maps?q=22.9906,120.2475",
    "source": "第三方"
  },
  {
    "id": 1195,
    "name": "台南市道路 西門路一段與健康路一段口(向東)",
    "region": "其他",
    "city": "高雄市/屏東縣",
    "lat": 22.9814,
    "lng": 120.1987,
    "url": "https://trafficvideo3.tainan.gov.tw/1e32f954",
    "map": "https://www.google.com/maps?q=22.9814,120.1987",
    "source": "第三方"
  },
  {
    "id": 1196,
    "name": "台南市道路 西門路一段與健康路二段口南桿(向北)",
    "region": "其他",
    "city": "高雄市/屏東縣",
    "lat": 22.9809,
    "lng": 120.1976,
    "url": "https://trafficvideo2.tainan.gov.tw/82565bca",
    "map": "https://www.google.com/maps?q=22.9809,120.1976",
    "source": "第三方"
  },
  {
    "id": 1197,
    "name": "台南市道路 西門路一段與府前路一段口(南桿)",
    "region": "其他",
    "city": "高雄市/屏東縣",
    "lat": 22.9902,
    "lng": 120.1977,
    "url": "https://trafficvideo.tainan.gov.tw/172021006100",
    "map": "https://www.google.com/maps?q=22.9902,120.1977",
    "source": "第三方"
  },
  {
    "id": 1198,
    "name": "台南市道路 西門路一段與府前路一段口(東桿)",
    "region": "其他",
    "city": "高雄市/屏東縣",
    "lat": 22.9904,
    "lng": 120.1979,
    "url": "https://trafficvideo.tainan.gov.tw/172022002100",
    "map": "https://www.google.com/maps?q=22.9904,120.1979",
    "source": "第三方"
  },
  {
    "id": 1199,
    "name": "台南市道路 西門路一段與府前路一段口(西桿)",
    "region": "其他",
    "city": "高雄市/屏東縣",
    "lat": 22.9906,
    "lng": 120.1975,
    "url": "https://trafficvideo.tainan.gov.tw/172022001100",
    "map": "https://www.google.com/maps?q=22.9906,120.1975",
    "source": "第三方"
  },
  {
    "id": 1200,
    "name": "台南市道路 西門路一段與永華路一段口北桿(向南)",
    "region": "其他",
    "city": "高雄市/屏東縣",
    "lat": 22.9876,
    "lng": 120.1975,
    "url": "https://trafficvideo4.tainan.gov.tw/2382536d",
    "map": "https://www.google.com/maps?q=22.9876,120.1975",
    "source": "第三方"
  },
  {
    "id": 1202,
    "name": "台南市道路 西門路二段與民族路二段口(東桿)",
    "region": "其他",
    "city": "高雄市/屏東縣",
    "lat": 22.9975,
    "lng": 120.2003,
    "url": "https://trafficvideo.tainan.gov.tw/81a6ca86",
    "map": "https://www.google.com/maps?q=22.9975,120.2003",
    "source": "第三方"
  },
  {
    "id": 1203,
    "name": "台南市道路 西門路二段與民族路二段口(西桿)",
    "region": "其他",
    "city": "高雄市/屏東縣",
    "lat": 22.9976,
    "lng": 120.1999,
    "url": "https://trafficvideo.tainan.gov.tw/2defd286",
    "map": "https://www.google.com/maps?q=22.9976,120.1999",
    "source": "第三方"
  },
  {
    "id": 1204,
    "name": "台南市道路 西門路二段與民生路二段口(北桿)",
    "region": "其他",
    "city": "高雄市/屏東縣",
    "lat": 22.9947,
    "lng": 120.1993,
    "url": "https://trafficvideo.tainan.gov.tw/872b483c",
    "map": "https://www.google.com/maps?q=22.9947,120.1993",
    "source": "第三方"
  },
  {
    "id": 1205,
    "name": "台南市道路 西門路二段與民生路二段口(南桿)",
    "region": "其他",
    "city": "高雄市/屏東縣",
    "lat": 22.9942,
    "lng": 120.1991,
    "url": "https://trafficvideo.tainan.gov.tw/6613275b",
    "map": "https://www.google.com/maps?q=22.9942,120.1991",
    "source": "第三方"
  },
  {
    "id": 1210,
    "name": "台南市道路 遊憩碼頭停車場",
    "region": "其他",
    "city": "高雄市/屏東縣",
    "lat": 22.9976,
    "lng": 120.1605,
    "url": "https://trafficvideo2.tainan.gov.tw/192168234003",
    "map": "https://www.google.com/maps?q=22.9976,120.1605",
    "source": "第三方"
  },
  {
    "id": 1211,
    "name": "台南市道路 金華新路與星鑽路口北桿(向南)",
    "region": "其他",
    "city": "高雄市/屏東縣",
    "lat": 22.9954,
    "lng": 120.1887,
    "url": "https://trafficvideo3.tainan.gov.tw/1dfb6497",
    "map": "https://www.google.com/maps?q=22.9954,120.1887",
    "source": "第三方"
  },
  {
    "id": 1212,
    "name": "台南市道路 金華路三段與中正路口北桿(向南)",
    "region": "其他",
    "city": "高雄市/屏東縣",
    "lat": 22.994,
    "lng": 120.1934,
    "url": "https://trafficvideo3.tainan.gov.tw/ffe6ffc2",
    "map": "https://www.google.com/maps?q=22.994,120.1934",
    "source": "第三方"
  },
  {
    "id": 1213,
    "name": "台南市道路 金華路三段與中正路口南桿(向南)",
    "region": "其他",
    "city": "高雄市/屏東縣",
    "lat": 22.994,
    "lng": 120.1934,
    "url": "https://trafficvideo5.tainan.gov.tw/c35e399e",
    "map": "https://www.google.com/maps?q=22.994,120.1934",
    "source": "第三方"
  },
  {
    "id": 1214,
    "name": "台南市道路 金華路三段與府前路二段口(北桿)",
    "region": "其他",
    "city": "高雄市/屏東縣",
    "lat": 22.9916,
    "lng": 120.1928,
    "url": "https://trafficvideo.tainan.gov.tw/172021001100",
    "map": "https://www.google.com/maps?q=22.9916,120.1928",
    "source": "第三方"
  },
  {
    "id": 1215,
    "name": "台南市道路 金華路三段與府前路二段口(南桿)",
    "region": "其他",
    "city": "高雄市/屏東縣",
    "lat": 22.9913,
    "lng": 120.1927,
    "url": "https://trafficvideo.tainan.gov.tw/172021002100",
    "map": "https://www.google.com/maps?q=22.9913,120.1927",
    "source": "第三方"
  },
  {
    "id": 1235,
    "name": "台南市道路 長榮路一段與府連東路口東桿(向西)",
    "region": "其他",
    "city": "高雄市/屏東縣",
    "lat": 22.9842,
    "lng": 120.2181,
    "url": "https://trafficvideo3.tainan.gov.tw/7c266c46",
    "map": "https://www.google.com/maps?q=22.9842,120.2181",
    "source": "第三方"
  },
  {
    "id": 1238,
    "name": "台南市道路 關廟區 關新路一段與悠然山莊前北桿(向南)",
    "region": "其他",
    "city": "高雄市/屏東縣",
    "lat": 22.977,
    "lng": 120.3161,
    "url": "https://trafficvideo3.tainan.gov.tw/d51eb5bf",
    "map": "https://www.google.com/maps?q=22.977,120.3161",
    "source": "第三方"
  },
  {
    "id": 1239,
    "name": "台南市道路 青年路與前鋒路口西桿(向東)",
    "region": "其他",
    "city": "高雄市/屏東縣",
    "lat": 22.9915,
    "lng": 120.213,
    "url": "https://trafficvideo.tainan.gov.tw/5f8fbfe9",
    "map": "https://www.google.com/maps?q=22.9915,120.213",
    "source": "第三方"
  },
  {
    "id": 1249,
    "name": "台東縣道路 中山路",
    "region": "其他",
    "city": "高雄市/屏東縣",
    "lat": 22.7627,
    "lng": 121.1579,
    "url": "https://trafficvideo.ttcpb.gov.tw/1c549981",
    "map": "https://www.google.com/maps?q=22.7627,121.1579",
    "source": "第三方"
  },
  {
    "id": 1250,
    "name": "台東縣道路 中正路",
    "region": "其他",
    "city": "高雄市/屏東縣",
    "lat": 22.7552,
    "lng": 121.1541,
    "url": "https://trafficvideo.ttcpb.gov.tw/08bcb385",
    "map": "https://www.google.com/maps?q=22.7552,121.1541",
    "source": "第三方"
  },
  {
    "id": 1251,
    "name": "台東縣道路 中興路一段",
    "region": "其他",
    "city": "高雄市/屏東縣",
    "lat": 22.7662,
    "lng": 121.1334,
    "url": "https://trafficvideo.ttcpb.gov.tw/18ad80de",
    "map": "https://www.google.com/maps?q=22.7662,121.1334",
    "source": "第三方"
  },
  {
    "id": 1252,
    "name": "台東縣道路 中興路二段",
    "region": "其他",
    "city": "高雄市/屏東縣",
    "lat": 22.769,
    "lng": 121.1209,
    "url": "https://trafficvideo.ttcpb.gov.tw/54484607",
    "map": "https://www.google.com/maps?q=22.769,121.1209",
    "source": "第三方"
  },
  {
    "id": 1253,
    "name": "台東縣道路 中華路一段",
    "region": "其他",
    "city": "高雄市/屏東縣",
    "lat": 22.7511,
    "lng": 121.15,
    "url": "https://trafficvideo.ttcpb.gov.tw/39eab823",
    "map": "https://www.google.com/maps?q=22.7511,121.15",
    "source": "第三方"
  },
  {
    "id": 1254,
    "name": "台東縣道路 中華路一段",
    "region": "其他",
    "city": "高雄市/屏東縣",
    "lat": 22.7473,
    "lng": 121.1441,
    "url": "https://trafficvideo.ttcpb.gov.tw/7fbd0a27",
    "map": "https://www.google.com/maps?q=22.7473,121.1441",
    "source": "第三方"
  },
  {
    "id": 1255,
    "name": "台東縣道路 中華路一段",
    "region": "其他",
    "city": "高雄市/屏東縣",
    "lat": 22.7526,
    "lng": 121.1515,
    "url": "https://trafficvideo.ttcpb.gov.tw/9e79f5d0",
    "map": "https://www.google.com/maps?q=22.7526,121.1515",
    "source": "第三方"
  },
  {
    "id": 1256,
    "name": "台東縣道路 中華路一段",
    "region": "其他",
    "city": "高雄市/屏東縣",
    "lat": 22.7605,
    "lng": 121.1592,
    "url": "https://trafficvideo.ttcpb.gov.tw/d1ff9152",
    "map": "https://www.google.com/maps?q=22.7605,121.1592",
    "source": "第三方"
  },
  {
    "id": 1257,
    "name": "台東縣道路 中華路一段 臺9縣/柑園路口",
    "region": "其他",
    "city": "高雄市/屏東縣",
    "lat": 22.8981,
    "lng": 121.1122,
    "url": "https://trafficvideo.ttcpb.gov.tw/635e86f0",
    "map": "https://www.google.com/maps?q=22.8981,121.1122",
    "source": "第三方"
  },
  {
    "id": 1258,
    "name": "台東縣道路 中華路二段",
    "region": "其他",
    "city": "高雄市/屏東縣",
    "lat": 22.746,
    "lng": 121.1416,
    "url": "https://trafficvideo.ttcpb.gov.tw/7847ac3c",
    "map": "https://www.google.com/maps?q=22.746,121.1416",
    "source": "第三方"
  },
  {
    "id": 1259,
    "name": "台東縣道路 中華路二段",
    "region": "其他",
    "city": "高雄市/屏東縣",
    "lat": 22.7436,
    "lng": 121.1364,
    "url": "https://trafficvideo.ttcpb.gov.tw/fe726b7a",
    "map": "https://www.google.com/maps?q=22.7436,121.1364",
    "source": "第三方"
  },
  {
    "id": 1260,
    "name": "台東縣道路 信義路",
    "region": "其他",
    "city": "高雄市/屏東縣",
    "lat": 22.7502,
    "lng": 121.1517,
    "url": "https://trafficvideo.ttcpb.gov.tw/1d79b42d",
    "map": "https://www.google.com/maps?q=22.7502,121.1517",
    "source": "第三方"
  },
  {
    "id": 1261,
    "name": "台東縣道路 博愛路",
    "region": "其他",
    "city": "高雄市/屏東縣",
    "lat": 22.7536,
    "lng": 121.145,
    "url": "https://trafficvideo.ttcpb.gov.tw/3fda0c31",
    "map": "https://www.google.com/maps?q=22.7536,121.145",
    "source": "第三方"
  },
  {
    "id": 1262,
    "name": "台東縣道路 吉林路二段",
    "region": "其他",
    "city": "高雄市/屏東縣",
    "lat": 22.7923,
    "lng": 121.1855,
    "url": "https://trafficvideo.ttcpb.gov.tw/71019bab",
    "map": "https://www.google.com/maps?q=22.7923,121.1855",
    "source": "第三方"
  },
  {
    "id": 1263,
    "name": "台東縣道路 吉林路二段",
    "region": "其他",
    "city": "高雄市/屏東縣",
    "lat": 22.792,
    "lng": 121.1853,
    "url": "https://trafficvideo.ttcpb.gov.tw/712f1754",
    "map": "https://www.google.com/maps?q=22.792,121.1853",
    "source": "第三方"
  },
  {
    "id": 1264,
    "name": "台東縣道路 吉林路二段",
    "region": "其他",
    "city": "高雄市/屏東縣",
    "lat": 22.792,
    "lng": 121.1854,
    "url": "https://trafficvideo.ttcpb.gov.tw/8e1f9bb5",
    "map": "https://www.google.com/maps?q=22.792,121.1854",
    "source": "第三方"
  },
  {
    "id": 1265,
    "name": "台東縣道路 吉林路二段",
    "region": "其他",
    "city": "高雄市/屏東縣",
    "lat": 22.7921,
    "lng": 121.1854,
    "url": "https://trafficvideo.ttcpb.gov.tw/a97ad8bb",
    "map": "https://www.google.com/maps?q=22.7921,121.1854",
    "source": "第三方"
  },
  {
    "id": 1266,
    "name": "台東縣道路 吉林路二段",
    "region": "其他",
    "city": "高雄市/屏東縣",
    "lat": 22.7921,
    "lng": 121.1855,
    "url": "https://trafficvideo.ttcpb.gov.tw/ca70c250",
    "map": "https://www.google.com/maps?q=22.7921,121.1855",
    "source": "第三方"
  },
  {
    "id": 1267,
    "name": "台東縣道路 吉林路二段",
    "region": "其他",
    "city": "高雄市/屏東縣",
    "lat": 22.7889,
    "lng": 121.1834,
    "url": "https://trafficvideo.ttcpb.gov.tw/eb18a47a",
    "map": "https://www.google.com/maps?q=22.7889,121.1834",
    "source": "第三方"
  },
  {
    "id": 1268,
    "name": "台東縣道路 四維路二段",
    "region": "其他",
    "city": "高雄市/屏東縣",
    "lat": 22.7635,
    "lng": 121.1517,
    "url": "https://trafficvideo.ttcpb.gov.tw/2538a62c",
    "map": "https://www.google.com/maps?q=22.7635,121.1517",
    "source": "第三方"
  },
  {
    "id": 1269,
    "name": "台東縣道路 富岡街",
    "region": "其他",
    "city": "高雄市/屏東縣",
    "lat": 22.7922,
    "lng": 121.1856,
    "url": "https://trafficvideo.ttcpb.gov.tw/fa7fbe21",
    "map": "https://www.google.com/maps?q=22.7922,121.1856",
    "source": "第三方"
  },
  {
    "id": 1270,
    "name": "台東縣道路 志航路一段",
    "region": "其他",
    "city": "高雄市/屏東縣",
    "lat": 22.7765,
    "lng": 121.127,
    "url": "https://trafficvideo.ttcpb.gov.tw/29fc0312",
    "map": "https://www.google.com/maps?q=22.7765,121.127",
    "source": "第三方"
  },
  {
    "id": 1271,
    "name": "台東縣道路 忠孝路 臺9縣 梅園路口",
    "region": "其他",
    "city": "高雄市/屏東縣",
    "lat": 22.8592,
    "lng": 121.0923,
    "url": "https://trafficvideo.ttcpb.gov.tw/816f8bc6",
    "map": "https://www.google.com/maps?q=22.8592,121.0923",
    "source": "第三方"
  },
  {
    "id": 1272,
    "name": "台東縣道路 新生路",
    "region": "其他",
    "city": "高雄市/屏東縣",
    "lat": 22.7573,
    "lng": 121.1429,
    "url": "https://trafficvideo.ttcpb.gov.tw/05ee7e0e",
    "map": "https://www.google.com/maps?q=22.7573,121.1429",
    "source": "第三方"
  },
  {
    "id": 1273,
    "name": "台東縣道路 新生路",
    "region": "其他",
    "city": "高雄市/屏東縣",
    "lat": 22.7544,
    "lng": 121.1459,
    "url": "https://trafficvideo.ttcpb.gov.tw/0a784caf",
    "map": "https://www.google.com/maps?q=22.7544,121.1459",
    "source": "第三方"
  },
  {
    "id": 1274,
    "name": "台東縣道路 新生路",
    "region": "其他",
    "city": "高雄市/屏東縣",
    "lat": 22.7572,
    "lng": 121.143,
    "url": "https://trafficvideo.ttcpb.gov.tw/4575a511",
    "map": "https://www.google.com/maps?q=22.7572,121.143",
    "source": "第三方"
  },
  {
    "id": 1275,
    "name": "台東縣道路 新生路",
    "region": "其他",
    "city": "高雄市/屏東縣",
    "lat": 22.7633,
    "lng": 121.1361,
    "url": "https://trafficvideo.ttcpb.gov.tw/6247ab39",
    "map": "https://www.google.com/maps?q=22.7633,121.1361",
    "source": "第三方"
  },
  {
    "id": 1276,
    "name": "台東縣道路 新生路",
    "region": "其他",
    "city": "高雄市/屏東縣",
    "lat": 22.7602,
    "lng": 121.1392,
    "url": "https://trafficvideo.ttcpb.gov.tw/6ad09683",
    "map": "https://www.google.com/maps?q=22.7602,121.1392",
    "source": "第三方"
  },
  {
    "id": 1277,
    "name": "台東縣道路 新生路",
    "region": "其他",
    "city": "高雄市/屏東縣",
    "lat": 22.7553,
    "lng": 121.145,
    "url": "https://trafficvideo.ttcpb.gov.tw/a01a37fc",
    "map": "https://www.google.com/maps?q=22.7553,121.145",
    "source": "第三方"
  },
  {
    "id": 1278,
    "name": "台東縣道路 新生路",
    "region": "其他",
    "city": "高雄市/屏東縣",
    "lat": 22.7527,
    "lng": 121.148,
    "url": "https://trafficvideo.ttcpb.gov.tw/cc00f228",
    "map": "https://www.google.com/maps?q=22.7527,121.148",
    "source": "第三方"
  },
  {
    "id": 1279,
    "name": "台東縣道路 新興路",
    "region": "其他",
    "city": "高雄市/屏東縣",
    "lat": 22.7944,
    "lng": 121.1235,
    "url": "https://trafficvideo.ttcpb.gov.tw/025e92ee",
    "map": "https://www.google.com/maps?q=22.7944,121.1235",
    "source": "第三方"
  },
  {
    "id": 1280,
    "name": "台東縣道路 新興路",
    "region": "其他",
    "city": "高雄市/屏東縣",
    "lat": 22.7931,
    "lng": 121.1233,
    "url": "https://trafficvideo.ttcpb.gov.tw/9c8690be",
    "map": "https://www.google.com/maps?q=22.7931,121.1233",
    "source": "第三方"
  },
  {
    "id": 1281,
    "name": "台東縣道路 新興路",
    "region": "其他",
    "city": "高雄市/屏東縣",
    "lat": 22.7944,
    "lng": 121.1235,
    "url": "https://trafficvideo.ttcpb.gov.tw/b5bb56d3",
    "map": "https://www.google.com/maps?q=22.7944,121.1235",
    "source": "第三方"
  },
  {
    "id": 1282,
    "name": "台東縣道路 新興路",
    "region": "其他",
    "city": "高雄市/屏東縣",
    "lat": 22.7931,
    "lng": 121.1233,
    "url": "https://trafficvideo.ttcpb.gov.tw/d654a481",
    "map": "https://www.google.com/maps?q=22.7931,121.1233",
    "source": "第三方"
  },
  {
    "id": 1283,
    "name": "台東縣道路 更生北路",
    "region": "其他",
    "city": "高雄市/屏東縣",
    "lat": 22.7884,
    "lng": 121.1117,
    "url": "https://trafficvideo.ttcpb.gov.tw/821c6f3a",
    "map": "https://www.google.com/maps?q=22.7884,121.1117",
    "source": "第三方"
  },
  {
    "id": 1284,
    "name": "台東縣道路 更生北路",
    "region": "其他",
    "city": "高雄市/屏東縣",
    "lat": 22.7772,
    "lng": 121.1266,
    "url": "https://trafficvideo.ttcpb.gov.tw/e5cd69f5",
    "map": "https://www.google.com/maps?q=22.7772,121.1266",
    "source": "第三方"
  },
  {
    "id": 1285,
    "name": "台東縣道路 更生路",
    "region": "其他",
    "city": "高雄市/屏東縣",
    "lat": 22.7767,
    "lng": 121.1272,
    "url": "https://trafficvideo.ttcpb.gov.tw/47d4a486",
    "map": "https://www.google.com/maps?q=22.7767,121.1272",
    "source": "第三方"
  },
  {
    "id": 1286,
    "name": "台東縣道路 更生路",
    "region": "其他",
    "city": "高雄市/屏東縣",
    "lat": 22.768,
    "lng": 121.1364,
    "url": "https://trafficvideo.ttcpb.gov.tw/8303bde3",
    "map": "https://www.google.com/maps?q=22.768,121.1364",
    "source": "第三方"
  },
  {
    "id": 1287,
    "name": "台東縣道路 更生路",
    "region": "其他",
    "city": "高雄市/屏東縣",
    "lat": 22.7614,
    "lng": 121.1439,
    "url": "https://trafficvideo.ttcpb.gov.tw/9dce6ff1",
    "map": "https://www.google.com/maps?q=22.7614,121.1439",
    "source": "第三方"
  },
  {
    "id": 1288,
    "name": "台東縣道路 正氣北路",
    "region": "其他",
    "city": "高雄市/屏東縣",
    "lat": 22.7566,
    "lng": 121.1402,
    "url": "https://trafficvideo.ttcpb.gov.tw/092a7689",
    "map": "https://www.google.com/maps?q=22.7566,121.1402",
    "source": "第三方"
  },
  {
    "id": 1289,
    "name": "台東縣道路 正氣北路",
    "region": "其他",
    "city": "高雄市/屏東縣",
    "lat": 22.755,
    "lng": 121.1314,
    "url": "https://trafficvideo.ttcpb.gov.tw/63c07802",
    "map": "https://www.google.com/maps?q=22.755,121.1314",
    "source": "第三方"
  },
  {
    "id": 1290,
    "name": "台東縣道路 正氣北路",
    "region": "其他",
    "city": "高雄市/屏東縣",
    "lat": 22.7573,
    "lng": 121.1428,
    "url": "https://trafficvideo.ttcpb.gov.tw/8ee7af26",
    "map": "https://www.google.com/maps?q=22.7573,121.1428",
    "source": "第三方"
  },
  {
    "id": 1291,
    "name": "台東縣道路 正氣路",
    "region": "其他",
    "city": "高雄市/屏東縣",
    "lat": 22.7573,
    "lng": 121.1429,
    "url": "https://trafficvideo.ttcpb.gov.tw/6a7cf4ee",
    "map": "https://www.google.com/maps?q=22.7573,121.1429",
    "source": "第三方"
  },
  {
    "id": 1292,
    "name": "台東縣道路 賓朗路",
    "region": "其他",
    "city": "高雄市/屏東縣",
    "lat": 22.8007,
    "lng": 121.0949,
    "url": "https://trafficvideo.ttcpb.gov.tw/1206eb38",
    "map": "https://www.google.com/maps?q=22.8007,121.0949",
    "source": "第三方"
  },
  {
    "id": 1293,
    "name": "台東縣道路 賓朗路",
    "region": "其他",
    "city": "高雄市/屏東縣",
    "lat": 22.8006,
    "lng": 121.0951,
    "url": "https://trafficvideo.ttcpb.gov.tw/1d022baf",
    "map": "https://www.google.com/maps?q=22.8006,121.0951",
    "source": "第三方"
  },
  {
    "id": 1294,
    "name": "台東縣道路 賓朗路",
    "region": "其他",
    "city": "高雄市/屏東縣",
    "lat": 22.8009,
    "lng": 121.0947,
    "url": "https://trafficvideo.ttcpb.gov.tw/475fff7c",
    "map": "https://www.google.com/maps?q=22.8009,121.0947",
    "source": "第三方"
  },
  {
    "id": 1295,
    "name": "台東縣道路 賓朗路",
    "region": "其他",
    "city": "高雄市/屏東縣",
    "lat": 22.8009,
    "lng": 121.0947,
    "url": "https://trafficvideo.ttcpb.gov.tw/5d1482e3",
    "map": "https://www.google.com/maps?q=22.8009,121.0947",
    "source": "第三方"
  },
  {
    "id": 1296,
    "name": "台東縣道路 賓朗路",
    "region": "其他",
    "city": "高雄市/屏東縣",
    "lat": 22.8012,
    "lng": 121.0945,
    "url": "https://trafficvideo.ttcpb.gov.tw/8e95ebb3",
    "map": "https://www.google.com/maps?q=22.8012,121.0945",
    "source": "第三方"
  },
  {
    "id": 1297,
    "name": "台東縣道路 賓朗路 臺9縣 頂永豐聯絡道路(檳榔橋北端)",
    "region": "其他",
    "city": "高雄市/屏東縣",
    "lat": 22.8114,
    "lng": 121.0894,
    "url": "https://trafficvideo.ttcpb.gov.tw/3ea3d588",
    "map": "https://www.google.com/maps?q=22.8114,121.0894",
    "source": "第三方"
  },
  {
    "id": 1298,
    "name": "台東縣道路 賓朗路283巷",
    "region": "其他",
    "city": "高雄市/屏東縣",
    "lat": 22.8003,
    "lng": 121.0941,
    "url": "https://trafficvideo.ttcpb.gov.tw/30ae8de7",
    "map": "https://www.google.com/maps?q=22.8003,121.0941",
    "source": "第三方"
  },
  {
    "id": 1299,
    "name": "台東縣道路 賓朗路283巷",
    "region": "其他",
    "city": "高雄市/屏東縣",
    "lat": 22.8004,
    "lng": 121.0941,
    "url": "https://trafficvideo.ttcpb.gov.tw/d4676640",
    "map": "https://www.google.com/maps?q=22.8004,121.0941",
    "source": "第三方"
  },
  {
    "id": 1300,
    "name": "台東縣道路 賓朗路283巷",
    "region": "其他",
    "city": "高雄市/屏東縣",
    "lat": 22.8007,
    "lng": 121.0944,
    "url": "https://trafficvideo.ttcpb.gov.tw/d8d2fb28",
    "map": "https://www.google.com/maps?q=22.8007,121.0944",
    "source": "第三方"
  },
  {
    "id": 1301,
    "name": "台東縣道路 賓朗路283巷",
    "region": "其他",
    "city": "高雄市/屏東縣",
    "lat": 22.8004,
    "lng": 121.0941,
    "url": "https://trafficvideo.ttcpb.gov.tw/e6c29c36",
    "map": "https://www.google.com/maps?q=22.8004,121.0941",
    "source": "第三方"
  },
  {
    "id": 1302,
    "name": "台東縣道路 連航路",
    "region": "其他",
    "city": "高雄市/屏東縣",
    "lat": 22.777,
    "lng": 121.1269,
    "url": "https://trafficvideo.ttcpb.gov.tw/69f48bbd",
    "map": "https://www.google.com/maps?q=22.777,121.1269",
    "source": "第三方"
  },
  {
    "id": 1303,
    "name": "台東縣道路 連航路",
    "region": "其他",
    "city": "高雄市/屏東縣",
    "lat": 22.7772,
    "lng": 121.127,
    "url": "https://trafficvideo.ttcpb.gov.tw/d436f7c2",
    "map": "https://www.google.com/maps?q=22.7772,121.127",
    "source": "第三方"
  },
  {
    "id": 1304,
    "name": "台東縣道路 開封街",
    "region": "其他",
    "city": "高雄市/屏東縣",
    "lat": 22.7588,
    "lng": 121.1371,
    "url": "https://trafficvideo.ttcpb.gov.tw/f1392a2c",
    "map": "https://www.google.com/maps?q=22.7588,121.1371",
    "source": "第三方"
  },
  {
    "id": 1305,
    "name": "台東金崙大橋",
    "region": "其他",
    "city": "高雄市/屏東縣",
    "lat": 22.5344,
    "lng": 120.9688,
    "url": "https://i.ytimg.com/vi/9QqBz3kNHis/sddefault_live.jpg",
    "map": "https://www.google.com/maps?q=22.5344,120.9688",
    "source": "第三方"
  },
  {
    "id": 1416,
    "name": "屏東縣道路 光復路-中山路(屏東火車站)",
    "region": "其他",
    "city": "高雄市/屏東縣",
    "lat": 22.6696,
    "lng": 120.4863,
    "url": "https://c01.第三方.com/cam/snapshot/pif-000006.jpg",
    "map": "https://www.google.com/maps?q=22.6696,120.4863",
    "source": "第三方"
  },
  {
    "id": 1417,
    "name": "屏東縣道路 光復路-重慶路(公車轉運站)",
    "region": "其他",
    "city": "高雄市/屏東縣",
    "lat": 22.6698,
    "lng": 120.4846,
    "url": "https://c01.第三方.com/cam/snapshot/pif-000005.jpg",
    "map": "https://www.google.com/maps?q=22.6698,120.4846",
    "source": "第三方"
  },
  {
    "id": 1448,
    "name": "屏東縣道路 臺1線-縣189大溪路(高屏大橋-往高雄路燈桿)",
    "region": "其他",
    "city": "高雄市/屏東縣",
    "lat": 22.6508,
    "lng": 120.45,
    "url": "https://cctv-ss05.thb.gov.tw:443/T1-393K+000-2",
    "map": "https://www.google.com/maps?q=22.6508,120.45",
    "source": "第三方"
  },
  {
    "id": 1449,
    "name": "屏東縣道路 臺1線-縣189大溪路(鳳屏工務段)",
    "region": "其他",
    "city": "高雄市/屏東縣",
    "lat": 22.6505,
    "lng": 120.4502,
    "url": "https://cctv-ss05.thb.gov.tw:443/T1-393K+000-1",
    "map": "https://www.google.com/maps?q=22.6505,120.4502",
    "source": "第三方"
  },
  {
    "id": 1452,
    "name": "屏東縣道路 臺24線-自由路",
    "region": "其他",
    "city": "高雄市/屏東縣",
    "lat": 22.6791,
    "lng": 120.4978,
    "url": "https://c01.第三方.com/cam/snapshot/pif-000002.jpg",
    "map": "https://www.google.com/maps?q=22.6791,120.4978",
    "source": "第三方"
  },
  {
    "id": 1459,
    "name": "屏東縣道路 臺27線-民生路(逢甲路)",
    "region": "其他",
    "city": "高雄市/屏東縣",
    "lat": 22.671,
    "lng": 120.4893,
    "url": "https://c01.第三方.com/cam/snapshot/pif-000003.jpg",
    "map": "https://www.google.com/maps?q=22.671,120.4893",
    "source": "第三方"
  },
  {
    "id": 1460,
    "name": "屏東縣道路 臺27線-縣189",
    "region": "其他",
    "city": "高雄市/屏東縣",
    "lat": 22.6121,
    "lng": 120.4852,
    "url": "https://c01.第三方.com/cam/snapshot/pif-000010.jpg",
    "map": "https://www.google.com/maps?q=22.6121,120.4852",
    "source": "第三方"
  },
  {
    "id": 1461,
    "name": "屏東縣道路 臺3線-光復路(臺鐵高架橋)",
    "region": "其他",
    "city": "高雄市/屏東縣",
    "lat": 22.6697,
    "lng": 120.4785,
    "url": "https://c01.第三方.com/cam/snapshot/pif-000004.jpg",
    "map": "https://www.google.com/maps?q=22.6697,120.4785",
    "source": "第三方"
  },
  {
    "id": 1462,
    "name": "屏東縣道路 臺3線-堤防路",
    "region": "其他",
    "city": "高雄市/屏東縣",
    "lat": 22.7076,
    "lng": 120.4881,
    "url": "https://cctv-ss05.thb.gov.tw:443/T3-426K+800",
    "map": "https://www.google.com/maps?q=22.7076,120.4881",
    "source": "第三方"
  },
  {
    "id": 2428,
    "name": "環境部空氣品質監測站 仁武",
    "region": "其他",
    "city": "高雄市/屏東縣",
    "lat": 22.6891,
    "lng": 120.3326,
    "url": "https://www.第三方.com/cam-relay/moenv-01/snapshot.php?id=049",
    "map": "https://www.google.com/maps?q=22.6891,120.3326",
    "source": "第三方"
  },
  {
    "id": 2430,
    "name": "環境部空氣品質監測站 前金",
    "region": "其他",
    "city": "高雄市/屏東縣",
    "lat": 22.6339,
    "lng": 120.2868,
    "url": "https://www.第三方.com/cam-relay/moenv-01/snapshot.php?id=056",
    "map": "https://www.google.com/maps?q=22.6339,120.2868",
    "source": "第三方"
  },
  {
    "id": 2431,
    "name": "環境部空氣品質監測站 前鎮",
    "region": "其他",
    "city": "高雄市/屏東縣",
    "lat": 22.6045,
    "lng": 120.3083,
    "url": "https://cctv3.kctmc.nat.gov.tw/afcdd0a1/",
    "map": "https://www.google.com/maps?q=22.6045,120.3083",
    "source": "第三方"
  },
  {
    "id": 2446,
    "name": "環境部空氣品質監測站 大寮",
    "region": "其他",
    "city": "高雄市/屏東縣",
    "lat": 22.5641,
    "lng": 120.4253,
    "url": "https://www.第三方.com/cam-relay/moenv-01/snapshot.php?id=051",
    "map": "https://www.google.com/maps?q=22.5641,120.4253",
    "source": "第三方"
  },
  {
    "id": 2452,
    "name": "環境部空氣品質監測站 小港",
    "region": "其他",
    "city": "高雄市/屏東縣",
    "lat": 22.5658,
    "lng": 120.3377,
    "url": "https://www.第三方.com/cam-relay/moenv-01/snapshot.php?id=058",
    "map": "https://www.google.com/maps?q=22.5658,120.3377",
    "source": "第三方"
  },
  {
    "id": 2453,
    "name": "環境部空氣品質監測站 屏東",
    "region": "其他",
    "city": "高雄市/屏東縣",
    "lat": 22.6731,
    "lng": 120.488,
    "url": "https://www.第三方.com/cam-relay/moenv-01/snapshot.php?id=059",
    "map": "https://www.google.com/maps?q=22.6731,120.488",
    "source": "第三方"
  },
  {
    "id": 2457,
    "name": "環境部空氣品質監測站 左營",
    "region": "其他",
    "city": "高雄市/屏東縣",
    "lat": 22.6749,
    "lng": 120.2929,
    "url": "https://www.第三方.com/cam-relay/moenv-01/snapshot.php?id=054",
    "map": "https://www.google.com/maps?q=22.6749,120.2929",
    "source": "第三方"
  },
  {
    "id": 2475,
    "name": "環境部空氣品質監測站 楠梓",
    "region": "其他",
    "city": "高雄市/屏東縣",
    "lat": 22.7337,
    "lng": 120.3283,
    "url": "https://www.第三方.com/cam-relay/moenv-01/snapshot.php?id=053",
    "map": "https://www.google.com/maps?q=22.7337,120.3283",
    "source": "第三方"
  },
  {
    "id": 2476,
    "name": "環境部空氣品質監測站 橋頭",
    "region": "其他",
    "city": "高雄市/屏東縣",
    "lat": 22.7575,
    "lng": 120.3057,
    "url": "https://www.第三方.com/cam-relay/moenv-01/snapshot.php?id=048",
    "map": "https://www.google.com/maps?q=22.7575,120.3057",
    "source": "第三方"
  },
  {
    "id": 2481,
    "name": "環境部空氣品質監測站 潮州",
    "region": "其他",
    "city": "高雄市/屏東縣",
    "lat": 22.5231,
    "lng": 120.5612,
    "url": "https://www.第三方.com/cam-relay/moenv-01/snapshot.php?id=060",
    "map": "https://www.google.com/maps?q=22.5231,120.5612",
    "source": "第三方"
  },
  {
    "id": 2485,
    "name": "環境部空氣品質監測站 美濃",
    "region": "其他",
    "city": "高雄市/屏東縣",
    "lat": 22.8836,
    "lng": 120.5305,
    "url": "https://www.第三方.com/cam-relay/moenv-01/snapshot.php?id=047",
    "map": "https://www.google.com/maps?q=22.8836,120.5305",
    "source": "第三方"
  },
  {
    "id": 2486,
    "name": "環境部空氣品質監測站 臺南",
    "region": "其他",
    "city": "高雄市/屏東縣",
    "lat": 22.9893,
    "lng": 120.2195,
    "url": "https://www.第三方.com/cam-relay/moenv-01/snapshot.php?id=046",
    "map": "https://www.google.com/maps?q=22.9893,120.2195",
    "source": "第三方"
  },
  {
    "id": 2488,
    "name": "環境部空氣品質監測站 臺東",
    "region": "其他",
    "city": "高雄市/屏東縣",
    "lat": 22.7554,
    "lng": 121.1505,
    "url": "https://www.第三方.com/cam-relay/moenv-01/snapshot.php?id=062",
    "map": "https://www.google.com/maps?q=22.7554,121.1505",
    "source": "第三方"
  },
  {
    "id": 2502,
    "name": "環境部空氣品質監測站 高雄（湖內）",
    "region": "其他",
    "city": "高雄市/屏東縣",
    "lat": 22.8799,
    "lng": 120.2454,
    "url": "https://www.第三方.com/cam-relay/moenv-01/snapshot.php?id=202",
    "map": "https://www.google.com/maps?q=22.8799,120.2454",
    "source": "第三方"
  },
  {
    "id": 2503,
    "name": "環境部空氣品質監測站 鳳山",
    "region": "其他",
    "city": "高雄市/屏東縣",
    "lat": 22.6281,
    "lng": 120.3574,
    "url": "https://www.第三方.com/cam-relay/moenv-01/snapshot.php?id=050",
    "map": "https://www.google.com/maps?q=22.6281,120.3574",
    "source": "第三方"
  },
  {
    "id": 2529,
    "name": "高雄市道路 一心一路、凱旋三路(西北角)",
    "region": "其他",
    "city": "高雄市/屏東縣",
    "lat": 22.6052,
    "lng": 120.3246,
    "url": "https://cctv3.kctmc.nat.gov.tw/92b222cc/",
    "map": "https://www.google.com/maps?q=22.6052,120.3246",
    "source": "第三方"
  },
  {
    "id": 2530,
    "name": "高雄市道路 一心一路、凱旋四路(西南角)",
    "region": "其他",
    "city": "高雄市/屏東縣",
    "lat": 22.6051,
    "lng": 120.3246,
    "url": "https://cctv3.kctmc.nat.gov.tw/f33c1871/",
    "map": "https://www.google.com/maps?q=22.6051,120.3246",
    "source": "第三方"
  },
  {
    "id": 2531,
    "name": "高雄市道路 一心一路、和平二路(西南角)",
    "region": "其他",
    "city": "高雄市/屏東縣",
    "lat": 22.6069,
    "lng": 120.3206,
    "url": "https://cctv3.kctmc.nat.gov.tw/d13c514b/",
    "map": "https://www.google.com/maps?q=22.6069,120.3206",
    "source": "第三方"
  },
  {
    "id": 2532,
    "name": "高雄市道路 七賢一路、和平一路",
    "region": "其他",
    "city": "高雄市/屏東縣",
    "lat": 22.6337,
    "lng": 120.3167,
    "url": "https://cctv4.kctmc.nat.gov.tw/44384437/",
    "map": "https://www.google.com/maps?q=22.6337,120.3167",
    "source": "第三方"
  },
  {
    "id": 2533,
    "name": "高雄市道路 七賢三路、蓬萊路",
    "region": "其他",
    "city": "高雄市/屏東縣",
    "lat": 22.6209,
    "lng": 120.2791,
    "url": "https://cctv2.kctmc.nat.gov.tw/2be121db/",
    "map": "https://www.google.com/maps?q=22.6209,120.2791",
    "source": "第三方"
  },
  {
    "id": 2534,
    "name": "高雄市道路 三多一路、河北路(東北角)",
    "region": "其他",
    "city": "高雄市/屏東縣",
    "lat": 22.6228,
    "lng": 120.3314,
    "url": "https://cctv3.kctmc.nat.gov.tw/9def234c/",
    "map": "https://www.google.com/maps?q=22.6228,120.3314",
    "source": "第三方"
  },
  {
    "id": 2535,
    "name": "高雄市道路 三多一路、河南路(西南角)",
    "region": "其他",
    "city": "高雄市/屏東縣",
    "lat": 22.6227,
    "lng": 120.3311,
    "url": "https://cctv3.kctmc.nat.gov.tw/73b5a8a2/",
    "map": "https://www.google.com/maps?q=22.6227,120.3311",
    "source": "第三方"
  },
  {
    "id": 2536,
    "name": "高雄市道路 三多一路、輔仁路(東南角)",
    "region": "其他",
    "city": "高雄市/屏東縣",
    "lat": 22.6235,
    "lng": 120.3334,
    "url": "https://cctv3.kctmc.nat.gov.tw/50bc6c50/",
    "map": "https://www.google.com/maps?q=22.6235,120.3334",
    "source": "第三方"
  },
  {
    "id": 2537,
    "name": "高雄市道路 三多一路、高速公路(東側)",
    "region": "其他",
    "city": "高雄市/屏東縣",
    "lat": 22.624,
    "lng": 120.3368,
    "url": "https://cctv3.kctmc.nat.gov.tw/166157d9/",
    "map": "https://www.google.com/maps?q=22.624,120.3368",
    "source": "第三方"
  },
  {
    "id": 2538,
    "name": "高雄市道路 三多二路、福德三路(東北角)",
    "region": "其他",
    "city": "高雄市/屏東縣",
    "lat": 22.6216,
    "lng": 120.3278,
    "url": "https://cctv3.kctmc.nat.gov.tw/44950c71/",
    "map": "https://www.google.com/maps?q=22.6216,120.3278",
    "source": "第三方"
  },
  {
    "id": 2539,
    "name": "高雄市道路 三多五路、成功二路(西北角)",
    "region": "其他",
    "city": "高雄市/屏東縣",
    "lat": 22.612,
    "lng": 120.2984,
    "url": "https://cctv3.kctmc.nat.gov.tw/c50d5e7c/",
    "map": "https://www.google.com/maps?q=22.612,120.2984",
    "source": "第三方"
  },
  {
    "id": 2540,
    "name": "高雄市道路 三多路、衛武營站3號出口",
    "region": "其他",
    "city": "高雄市/屏東縣",
    "lat": 22.6245,
    "lng": 120.3412,
    "url": "https://cctv1.kctmc.nat.gov.tw/1761ad24/",
    "map": "https://www.google.com/maps?q=22.6245,120.3412",
    "source": "第三方"
  },
  {
    "id": 2541,
    "name": "高雄市道路 世運大道、世運主場館入口前",
    "region": "其他",
    "city": "高雄市/屏東縣",
    "lat": 22.7008,
    "lng": 120.2975,
    "url": "https://c01.第三方.com/cam/snapshot/khh-000404.jpg",
    "map": "https://www.google.com/maps?q=22.7008,120.2975",
    "source": "第三方"
  },
  {
    "id": 2542,
    "name": "高雄市道路 世運大道、勝利營區前",
    "region": "其他",
    "city": "高雄市/屏東縣",
    "lat": 22.7009,
    "lng": 120.2997,
    "url": "https://c01.第三方.com/cam/snapshot/khh-000247.jpg",
    "map": "https://www.google.com/maps?q=22.7009,120.2997",
    "source": "第三方"
  },
  {
    "id": 2543,
    "name": "高雄市道路 世運大道、勝利營區門口",
    "region": "其他",
    "city": "高雄市/屏東縣",
    "lat": 22.7008,
    "lng": 120.2997,
    "url": "https://c01.第三方.com/cam/snapshot/khh-000439.jpg",
    "map": "https://www.google.com/maps?q=22.7008,120.2997",
    "source": "第三方"
  },
  {
    "id": 2544,
    "name": "高雄市道路 世運大道、國訓中心前",
    "region": "其他",
    "city": "高雄市/屏東縣",
    "lat": 22.7006,
    "lng": 120.2937,
    "url": "https://cctv4.kctmc.nat.gov.tw/92f2f4e3/",
    "map": "https://www.google.com/maps?q=22.7006,120.2937",
    "source": "第三方"
  },
  {
    "id": 2545,
    "name": "高雄市道路 中安路、明鳳七街(西北角)",
    "region": "其他",
    "city": "高雄市/屏東縣",
    "lat": 22.5831,
    "lng": 120.3346,
    "url": "https://cctv4.kctmc.nat.gov.tw/ea8cc67a/",
    "map": "https://www.google.com/maps?q=22.5831,120.3346",
    "source": "第三方"
  },
  {
    "id": 2546,
    "name": "高雄市道路 中山一路、七賢一路(東南角)",
    "region": "其他",
    "city": "高雄市/屏東縣",
    "lat": 22.6344,
    "lng": 120.3024,
    "url": "https://cctv2.kctmc.nat.gov.tw/fa18524c/",
    "map": "https://www.google.com/maps?q=22.6344,120.3024",
    "source": "第三方"
  },
  {
    "id": 2547,
    "name": "高雄市道路 中山一路、中正三路",
    "region": "其他",
    "city": "高雄市/屏東縣",
    "lat": 22.6314,
    "lng": 120.3022,
    "url": "https://cctv9.kctmc.nat.gov.tw/98cd6bd1/",
    "map": "https://www.google.com/maps?q=22.6314,120.3022",
    "source": "第三方"
  },
  {
    "id": 2548,
    "name": "高雄市道路 中山一路、五福二路",
    "region": "其他",
    "city": "高雄市/屏東縣",
    "lat": 22.6231,
    "lng": 120.301,
    "url": "https://c01.第三方.com/cam/snapshot/khh-000105.jpg",
    "map": "https://www.google.com/maps?q=22.6231,120.301",
    "source": "第三方"
  },
  {
    "id": 2549,
    "name": "高雄市道路 中山一路、八德二路(西北角)",
    "region": "其他",
    "city": "高雄市/屏東縣",
    "lat": 22.636,
    "lng": 120.3024,
    "url": "https://cctv6.kctmc.nat.gov.tw/75ebb7f4/",
    "map": "https://www.google.com/maps?q=22.636,120.3024",
    "source": "第三方"
  },
  {
    "id": 2550,
    "name": "高雄市道路 中山三路、光華三路",
    "region": "其他",
    "city": "高雄市/屏東縣",
    "lat": 22.6019,
    "lng": 120.3116,
    "url": "https://c01.第三方.com/cam/snapshot/khh-000256.jpg",
    "map": "https://www.google.com/maps?q=22.6019,120.3116",
    "source": "第三方"
  },
  {
    "id": 2551,
    "name": "高雄市道路 中山三路、凱旋四路",
    "region": "其他",
    "city": "高雄市/屏東縣",
    "lat": 22.5963,
    "lng": 120.3164,
    "url": "https://cctv3.kctmc.nat.gov.tw/3cb70392/",
    "map": "https://www.google.com/maps?q=22.5963,120.3164",
    "source": "第三方"
  },
  {
    "id": 2552,
    "name": "高雄市道路 中山三路、凱旋四路(輕軌旁)",
    "region": "其他",
    "city": "高雄市/屏東縣",
    "lat": 22.5958,
    "lng": 120.3157,
    "url": "https://cctv3.kctmc.nat.gov.tw/3cb70392/",
    "map": "https://www.google.com/maps?q=22.5958,120.3157",
    "source": "第三方"
  },
  {
    "id": 2553,
    "name": "高雄市道路 中山三路、時代大道",
    "region": "其他",
    "city": "高雄市/屏東縣",
    "lat": 22.5987,
    "lng": 120.3138,
    "url": "https://cctv4.kctmc.nat.gov.tw/fcd4f79a/",
    "map": "https://www.google.com/maps?q=22.5987,120.3138",
    "source": "第三方"
  },
  {
    "id": 2554,
    "name": "高雄市道路 中山三路、民權二路",
    "region": "其他",
    "city": "高雄市/屏東縣",
    "lat": 22.605,
    "lng": 120.3089,
    "url": "https://cctv3.kctmc.nat.gov.tw/afcdd0a1/",
    "map": "https://www.google.com/maps?q=22.605,120.3089",
    "source": "第三方"
  },
  {
    "id": 2555,
    "name": "高雄市道路 中山二路、三多三路",
    "region": "其他",
    "city": "高雄市/屏東縣",
    "lat": 22.6139,
    "lng": 120.3046,
    "url": "https://c01.第三方.com/cam/snapshot/khh-000091.jpg",
    "map": "https://www.google.com/maps?q=22.6139,120.3046",
    "source": "第三方"
  },
  {
    "id": 2556,
    "name": "高雄市道路 中山二路、四維四路(東南角)",
    "region": "其他",
    "city": "高雄市/屏東縣",
    "lat": 22.6168,
    "lng": 120.3036,
    "url": "https://cctv9.kctmc.nat.gov.tw/164fafed/",
    "map": "https://www.google.com/maps?q=22.6168,120.3036",
    "source": "第三方"
  },
  {
    "id": 2557,
    "name": "高雄市道路 中山二路、復興三路(西北角)",
    "region": "其他",
    "city": "高雄市/屏東縣",
    "lat": 22.6073,
    "lng": 120.3069,
    "url": "https://cctv3.kctmc.nat.gov.tw/5ac17eb6/",
    "map": "https://www.google.com/maps?q=22.6073,120.3069",
    "source": "第三方"
  },
  {
    "id": 2558,
    "name": "高雄市道路 中山二路、新光路(東北角)",
    "region": "其他",
    "city": "高雄市/屏東縣",
    "lat": 22.6125,
    "lng": 120.3053,
    "url": "https://cctv3.kctmc.nat.gov.tw/60f1a317/",
    "map": "https://www.google.com/maps?q=22.6125,120.3053",
    "source": "第三方"
  },
  {
    "id": 2559,
    "name": "高雄市道路 中山二路、新田路",
    "region": "其他",
    "city": "高雄市/屏東縣",
    "lat": 22.6216,
    "lng": 120.3016,
    "url": "https://cctv4.kctmc.nat.gov.tw/b37e5d66/",
    "map": "https://www.google.com/maps?q=22.6216,120.3016",
    "source": "第三方"
  },
  {
    "id": 2560,
    "name": "高雄市道路 中山北路、中山南路",
    "region": "其他",
    "city": "高雄市/屏東縣",
    "lat": 22.7924,
    "lng": 120.2991,
    "url": "https://cctv2.kctmc.nat.gov.tw/4a967b28/",
    "map": "https://www.google.com/maps?q=22.7924,120.2991",
    "source": "第三方"
  },
  {
    "id": 2561,
    "name": "高雄市道路 中山南路、岡山南路",
    "region": "其他",
    "city": "高雄市/屏東縣",
    "lat": 22.78,
    "lng": 120.2988,
    "url": "https://cctv7.kctmc.nat.gov.tw/play/jpg.php?devid={5c1e6270-6a79-acd4-e91b-03c2534d7920}&L=dfe8885c1acbe4c5e5fb91e6d9bd3724",
    "map": "https://www.google.com/maps?q=22.78,120.2988",
    "source": "第三方"
  },
  {
    "id": 2562,
    "name": "高雄市道路 中山四路、中安路(東南角)",
    "region": "其他",
    "city": "高雄市/屏東縣",
    "lat": 22.5803,
    "lng": 120.3296,
    "url": "https://cctv6.kctmc.nat.gov.tw/C000222/",
    "map": "https://www.google.com/maps?q=22.5803,120.3296",
    "source": "第三方"
  },
  {
    "id": 2563,
    "name": "高雄市道路 中山四路、中平路(西北角)",
    "region": "其他",
    "city": "高雄市/屏東縣",
    "lat": 22.5804,
    "lng": 120.3287,
    "url": "https://cctv6.kctmc.nat.gov.tw/9a4a8e39/",
    "map": "https://www.google.com/maps?q=22.5804,120.3287",
    "source": "第三方"
  },
  {
    "id": 2564,
    "name": "高雄市道路 中山四路、五甲三路",
    "region": "其他",
    "city": "高雄市/屏東縣",
    "lat": 22.5886,
    "lng": 120.3223,
    "url": "https://c01.第三方.com/cam/snapshot/khh-000092.jpg",
    "map": "https://www.google.com/maps?q=22.5886,120.3223",
    "source": "第三方"
  },
  {
    "id": 2565,
    "name": "高雄市道路 中山四路、平和東路",
    "region": "其他",
    "city": "高雄市/屏東縣",
    "lat": 22.57,
    "lng": 120.3383,
    "url": "https://cctv2.kctmc.nat.gov.tw/c2b6db7f/",
    "map": "https://www.google.com/maps?q=22.57,120.3383",
    "source": "第三方"
  },
  {
    "id": 2566,
    "name": "高雄市道路 中山四路、沿海一路(宏平路)",
    "region": "其他",
    "city": "高雄市/屏東縣",
    "lat": 22.5694,
    "lng": 120.3495,
    "url": "https://cctv3.kctmc.nat.gov.tw/f0bc5029/",
    "map": "https://www.google.com/maps?q=22.5694,120.3495",
    "source": "第三方"
  },
  {
    "id": 2567,
    "name": "高雄市道路 中山四路、金福路",
    "region": "其他",
    "city": "高雄市/屏東縣",
    "lat": 22.5767,
    "lng": 120.3321,
    "url": "https://cctv4.kctmc.nat.gov.tw/dc1f79cf/",
    "map": "https://www.google.com/maps?q=22.5767,120.3321",
    "source": "第三方"
  },
  {
    "id": 2568,
    "name": "高雄市道路 中山四路、鎮海路",
    "region": "其他",
    "city": "高雄市/屏東縣",
    "lat": 22.5928,
    "lng": 120.3189,
    "url": "https://c01.第三方.com/cam/snapshot/khh-000041.jpg",
    "map": "https://www.google.com/maps?q=22.5928,120.3189",
    "source": "第三方"
  },
  {
    "id": 2569,
    "name": "高雄市道路 中山西路、光復路二段",
    "region": "其他",
    "city": "高雄市/屏東縣",
    "lat": 22.6295,
    "lng": 120.3395,
    "url": "https://cctv1.kctmc.nat.gov.tw/b5506346/",
    "map": "https://www.google.com/maps?q=22.6295,120.3395",
    "source": "第三方"
  },
  {
    "id": 2570,
    "name": "高雄市道路 中山西路、青年路二段",
    "region": "其他",
    "city": "高雄市/屏東縣",
    "lat": 22.6278,
    "lng": 120.3492,
    "url": "https://cctv6.kctmc.nat.gov.tw/a11dfaba/",
    "map": "https://www.google.com/maps?q=22.6278,120.3492",
    "source": "第三方"
  },
  {
    "id": 2571,
    "name": "高雄市道路 中山路、光遠路",
    "region": "其他",
    "city": "高雄市/屏東縣",
    "lat": 22.626,
    "lng": 120.3566,
    "url": "https://c01.第三方.com/cam/snapshot/khh-000157.jpg",
    "map": "https://www.google.com/maps?q=22.626,120.3566",
    "source": "第三方"
  },
  {
    "id": 2572,
    "name": "高雄市道路 中山路、和平一路",
    "region": "其他",
    "city": "高雄市/屏東縣",
    "lat": 22.7303,
    "lng": 120.3605,
    "url": "https://c01.第三方.com/cam/snapshot/khh-700012.jpg",
    "map": "https://www.google.com/maps?q=22.7303,120.3605",
    "source": "第三方"
  },
  {
    "id": 2573,
    "name": "高雄市道路 中山路一段、中山路一段164巷",
    "region": "其他",
    "city": "高雄市/屏東縣",
    "lat": 22.9018,
    "lng": 120.5374,
    "url": "https://c01.第三方.com/cam/snapshot/khh-000413.jpg",
    "map": "https://www.google.com/maps?q=22.9018,120.5374",
    "source": "第三方"
  },
  {
    "id": 2574,
    "name": "高雄市道路 中正一路、三多一路(建軍路)",
    "region": "其他",
    "city": "高雄市/屏東縣",
    "lat": 22.6247,
    "lng": 120.3424,
    "url": "https://cctv4.kctmc.nat.gov.tw/5470f3c8/",
    "map": "https://www.google.com/maps?q=22.6247,120.3424",
    "source": "第三方"
  },
  {
    "id": 2575,
    "name": "高雄市道路 中正一路、凱旋二路",
    "region": "其他",
    "city": "高雄市/屏東縣",
    "lat": 22.63,
    "lng": 120.3217,
    "url": "https://cctv4.kctmc.nat.gov.tw/38cd3775/",
    "map": "https://www.google.com/maps?q=22.63,120.3217",
    "source": "第三方"
  },
  {
    "id": 2576,
    "name": "高雄市道路 中正一路、國軍802醫院前",
    "region": "其他",
    "city": "高雄市/屏東縣",
    "lat": 22.6252,
    "lng": 120.3408,
    "url": "https://cctv1.kctmc.nat.gov.tw/a63a6101/",
    "map": "https://www.google.com/maps?q=22.6252,120.3408",
    "source": "第三方"
  },
  {
    "id": 2577,
    "name": "高雄市道路 中正一路、河北路(東南角)",
    "region": "其他",
    "city": "高雄市/屏東縣",
    "lat": 22.6297,
    "lng": 120.3235,
    "url": "https://cctv3.kctmc.nat.gov.tw/58445e74/",
    "map": "https://www.google.com/maps?q=22.6297,120.3235",
    "source": "第三方"
  },
  {
    "id": 2578,
    "name": "高雄市道路 中正一路、福德路(東北角)",
    "region": "其他",
    "city": "高雄市/屏東縣",
    "lat": 22.6297,
    "lng": 120.3276,
    "url": "https://cctv6.kctmc.nat.gov.tw/54ecdec4/",
    "map": "https://www.google.com/maps?q=22.6297,120.3276",
    "source": "第三方"
  },
  {
    "id": 2579,
    "name": "高雄市道路 中正一路、輔仁路(西南角)",
    "region": "其他",
    "city": "高雄市/屏東縣",
    "lat": 22.628,
    "lng": 120.3324,
    "url": "https://cctv1.kctmc.nat.gov.tw/b97d4b00/",
    "map": "https://www.google.com/maps?q=22.628,120.3324",
    "source": "第三方"
  },
  {
    "id": 2580,
    "name": "高雄市道路 中正一路、體育場路",
    "region": "其他",
    "city": "高雄市/屏東縣",
    "lat": 22.6274,
    "lng": 120.3339,
    "url": "https://c01.第三方.com/cam/snapshot/khh-000141.jpg",
    "map": "https://www.google.com/maps?q=22.6274,120.3339",
    "source": "第三方"
  },
  {
    "id": 2581,
    "name": "高雄市道路 中正二路、和平一路(西北角)",
    "region": "其他",
    "city": "高雄市/屏東縣",
    "lat": 22.6303,
    "lng": 120.3179,
    "url": "https://c01.第三方.com/cam/snapshot/khh-000226.jpg",
    "map": "https://www.google.com/maps?q=22.6303,120.3179",
    "source": "第三方"
  },
  {
    "id": 2582,
    "name": "高雄市道路 中正二路、民族二路(東北角)",
    "region": "其他",
    "city": "高雄市/屏東縣",
    "lat": 22.6307,
    "lng": 120.3135,
    "url": "https://cctv6.kctmc.nat.gov.tw/bf834bdc/",
    "map": "https://www.google.com/maps?q=22.6307,120.3135",
    "source": "第三方"
  },
  {
    "id": 2583,
    "name": "高雄市道路 中正四路、中華三路",
    "region": "其他",
    "city": "高雄市/屏東縣",
    "lat": 22.6294,
    "lng": 120.2959,
    "url": "https://cctv4.kctmc.nat.gov.tw/b0164bc5/",
    "map": "https://www.google.com/maps?q=22.6294,120.2959",
    "source": "第三方"
  },
  {
    "id": 2584,
    "name": "高雄市道路 中正四路、河西路",
    "region": "其他",
    "city": "高雄市/屏東縣",
    "lat": 22.6267,
    "lng": 120.2878,
    "url": "https://cctv2.kctmc.nat.gov.tw/a1c8677c/",
    "map": "https://www.google.com/maps?q=22.6267,120.2878",
    "source": "第三方"
  },
  {
    "id": 2585,
    "name": "高雄市道路 中正路二段、美中路",
    "region": "其他",
    "city": "高雄市/屏東縣",
    "lat": 22.8943,
    "lng": 120.5426,
    "url": "https://c01.第三方.com/cam/snapshot/khh-000417.jpg",
    "map": "https://www.google.com/maps?q=22.8943,120.5426",
    "source": "第三方"
  },
  {
    "id": 2586,
    "name": "高雄市道路 中正路交流道北上入口",
    "region": "其他",
    "city": "高雄市/屏東縣",
    "lat": 22.6267,
    "lng": 120.3366,
    "url": "https://cctv2.kctmc.nat.gov.tw/367d924c/",
    "map": "https://www.google.com/maps?q=22.6267,120.3366",
    "source": "第三方"
  },
  {
    "id": 2587,
    "name": "高雄市道路 中正路交流道南下入口",
    "region": "其他",
    "city": "高雄市/屏東縣",
    "lat": 22.6269,
    "lng": 120.3358,
    "url": "https://cctv6.kctmc.nat.gov.tw/77c23c50/",
    "map": "https://www.google.com/maps?q=22.6269,120.3358",
    "source": "第三方"
  },
  {
    "id": 2588,
    "name": "高雄市道路 中華一路、大順一路",
    "region": "其他",
    "city": "高雄市/屏東縣",
    "lat": 22.6531,
    "lng": 120.2922,
    "url": "https://cctv2.kctmc.nat.gov.tw/648b7b0d/",
    "map": "https://www.google.com/maps?q=22.6531,120.2922",
    "source": "第三方"
  },
  {
    "id": 2589,
    "name": "高雄市道路 中華三路、七賢二路",
    "region": "其他",
    "city": "高雄市/屏東縣",
    "lat": 22.6328,
    "lng": 120.2946,
    "url": "https://cctv2.kctmc.nat.gov.tw/0dfc3403/",
    "map": "https://www.google.com/maps?q=22.6328,120.2946",
    "source": "第三方"
  },
  {
    "id": 2590,
    "name": "高雄市道路 中華三路、建國三路",
    "region": "其他",
    "city": "高雄市/屏東縣",
    "lat": 22.6369,
    "lng": 120.293,
    "url": "https://cctv7.kctmc.nat.gov.tw/play/jpg.php?devid={7fee3fe7-ed8b-5d34-a9ba-511e4e69cbc8}&L=dfe8885c1acbe4c5e5fb91e6d9bd3724",
    "map": "https://www.google.com/maps?q=22.6369,120.293",
    "source": "第三方"
  },
  {
    "id": 2591,
    "name": "高雄市道路 中華三路、民生二路(東北角)",
    "region": "其他",
    "city": "高雄市/屏東縣",
    "lat": 22.626,
    "lng": 120.2971,
    "url": "https://cctv2.kctmc.nat.gov.tw/fbcb389f/",
    "map": "https://www.google.com/maps?q=22.626,120.2971",
    "source": "第三方"
  },
  {
    "id": 2592,
    "name": "高雄市道路 中華三路、民生二路(東南角)",
    "region": "其他",
    "city": "高雄市/屏東縣",
    "lat": 22.6258,
    "lng": 120.2974,
    "url": "https://cctv6.kctmc.nat.gov.tw/cf116a1c/",
    "map": "https://www.google.com/maps?q=22.6258,120.2974",
    "source": "第三方"
  },
  {
    "id": 2593,
    "name": "高雄市道路 中華二路、九如三路(西南角)",
    "region": "其他",
    "city": "高雄市/屏東縣",
    "lat": 22.6419,
    "lng": 120.2913,
    "url": "https://cctv2.kctmc.nat.gov.tw/e6637f2e/",
    "map": "https://www.google.com/maps?q=22.6419,120.2913",
    "source": "第三方"
  },
  {
    "id": 2594,
    "name": "高雄市道路 中華二路、九如二路(東南角)",
    "region": "其他",
    "city": "高雄市/屏東縣",
    "lat": 22.6419,
    "lng": 120.2918,
    "url": "https://cctv6.kctmc.nat.gov.tw/96f73cec/",
    "map": "https://www.google.com/maps?q=22.6419,120.2918",
    "source": "第三方"
  },
  {
    "id": 2595,
    "name": "高雄市道路 中華二路、同盟二路",
    "region": "其他",
    "city": "高雄市/屏東縣",
    "lat": 22.6492,
    "lng": 120.292,
    "url": "https://cctv2.kctmc.nat.gov.tw/76df029e/",
    "map": "https://www.google.com/maps?q=22.6492,120.292",
    "source": "第三方"
  },
  {
    "id": 2596,
    "name": "高雄市道路 中華五路、凱旋四路",
    "region": "其他",
    "city": "高雄市/屏東縣",
    "lat": 22.5937,
    "lng": 120.3098,
    "url": "https://cctv3.kctmc.nat.gov.tw/3d7b717d/",
    "map": "https://www.google.com/maps?q=22.5937,120.3098",
    "source": "第三方"
  },