[
  {
    "id": 785,
    "name": "台南市道路 中山路與民族路二段口(南桿)",
    "region": "其他",
    "city": "高雄市/屏東縣",
    "lat": 22.9947,
    "lng": 120.208,
    "url": "https://trafficvideo.tainan.gov.tw/1159e087",
    "map": "https://www.google.com/maps?q=22.9947,120.208"
  },
  {
    "id": 786,
    "name": "台南市道路 中正路與忠義路二段口南桿(向南)",
    "region": "其他",
    "city": "高雄市/屏東縣",
    "lat": 22.9917,
    "lng": 120.2027,
    "url": "https://trafficvideo2.tainan.gov.tw/82520774",
    "map": "https://www.google.com/maps?q=22.9917,120.2027"
  },
  {
    "id": 787,
    "name": "台南市道路 中正路與海安路二段口南桿(向北)",
    "region": "其他",
    "city": "高雄市/屏東縣",
    "lat": 22.9931,
    "lng": 120.1961,
    "url": "https://trafficvideo2.tainan.gov.tw/e3538e54",
    "map": "https://www.google.com/maps?q=22.9931,120.1961"
  },
  {
    "id": 791,
    "name": "台南市道路 中華南路二段與永成路二段口南桿(向北)",
    "region": "其他",
    "city": "高雄市/屏東縣",
    "lat": 22.9619,
    "lng": 120.1955,
    "url": "https://trafficvideo3.tainan.gov.tw/512e1c50",
    "map": "https://www.google.com/maps?q=22.9619,120.1955"
  },
  {
    "id": 792,
    "name": "台南市道路 中華東路三段與中華東路三段377巷口東桿(向西)",
    "region": "其他",
    "city": "高雄市/屏東縣",
    "lat": 22.9738,
    "lng": 120.222,
    "url": "https://trafficvideo.tainan.gov.tw/5feea41b",
    "map": "https://www.google.com/maps?q=22.9738,120.222"
  },
  {
    "id": 793,
    "name": "台南市道路 中華東路三段與大同路二段口南桿(向北)",
    "region": "其他",
    "city": "高雄市/屏東縣",
    "lat": 22.9721,
    "lng": 120.2149,
    "url": "https://trafficvideo.tainan.gov.tw/51f4c476",
    "map": "https://www.google.com/maps?q=22.9721,120.2149"
  },
  {
    "id": 794,
    "name": "台南市道路 中華東路三段與大同路二段口西桿(向東)",
    "region": "其他",
    "city": "高雄市/屏東縣",
    "lat": 22.9724,
    "lng": 120.2146,
    "url": "https://trafficvideo5.tainan.gov.tw/2e32132e",
    "map": "https://www.google.com/maps?q=22.9724,120.2146"
  },
  {
    "id": 795,
    "name": "台南市道路 中華東路二段與東門路二段口東北桿(向東北)",
    "region": "其他",
    "city": "高雄市/屏東縣",
    "lat": 22.9815,
    "lng": 120.2298,
    "url": "https://trafficvideo.tainan.gov.tw/beabed1d",
    "map": "https://www.google.com/maps?q=22.9815,120.2298"
  },
  {
    "id": 796,
    "name": "台南市道路 中華東路二段與東門路二段口西北桿(向西北)",
    "region": "其他",
    "city": "高雄市/屏東縣",
    "lat": 22.9813,
    "lng": 120.2291,
    "url": "https://trafficvideo.tainan.gov.tw/22fb191f",
    "map": "https://www.google.com/maps?q=22.9813,120.2291"
  },
  {
    "id": 797,
    "name": "台南市道路 中華西路一段與中華西路一段2巷口北桿(向北)",
    "region": "其他",
    "city": "高雄市/屏東縣",
    "lat": 22.9636,
    "lng": 120.1838,
    "url": "https://trafficvideo4.tainan.gov.tw/cdab5ef2",
    "map": "https://www.google.com/maps?q=22.9636,120.1838"
  },
  {
    "id": 798,
    "name": "台南市道路 中華西路一段與中華西路一段70巷口南桿(向北)",
    "region": "其他",
    "city": "高雄市/屏東縣",
    "lat": 22.9715,
    "lng": 120.1838,
    "url": "https://trafficvideo4.tainan.gov.tw/fa63cb0a",
    "map": "https://www.google.com/maps?q=22.9715,120.1838"
  },
  {
    "id": 799,
    "name": "台南市道路 中華西路一段與中華西路一段70巷口西桿(向東)",
    "region": "其他",
    "city": "高雄市/屏東縣",
    "lat": 22.9717,
    "lng": 120.1836,
    "url": "https://trafficvideo4.tainan.gov.tw/cb23ee9e",
    "map": "https://www.google.com/maps?q=22.9717,120.1836"
  },
  {
    "id": 800,
    "name": "台南市道路 中華西路一段與新信路口東桿(向東)",
    "region": "其他",
    "city": "高雄市/屏東縣",
    "lat": 22.9733,
    "lng": 120.1841,
    "url": "https://trafficvideo4.tainan.gov.tw/5c4d3684",
    "map": "https://www.google.com/maps?q=22.9733,120.1841"
  },
  {
    "id": 801,
    "name": "台南市道路 中華西路一段與新信路口東桿(向西)-廣角",
    "region": "其他",
    "city": "高雄市/屏東縣",
    "lat": 22.9732,
    "lng": 120.184,
    "url": "https://trafficvideo4.tainan.gov.tw/583a0450",
    "map": "https://www.google.com/maps?q=22.9732,120.184"
  },
  {
    "id": 802,
    "name": "台南市道路 中華西路一段與新興國中旁(向南)",
    "region": "其他",
    "city": "高雄市/屏東縣",
    "lat": 22.9774,
    "lng": 120.1845,
    "url": "https://trafficvideo4.tainan.gov.tw/bbb0718a",
    "map": "https://www.google.com/maps?q=22.9774,120.1845"
  },
  {
    "id": 803,
    "name": "台南市道路 中華西路一段與清水路口(向南)",
    "region": "其他",
    "city": "高雄市/屏東縣",
    "lat": 22.9623,
    "lng": 120.1838,
    "url": "https://trafficvideo3.tainan.gov.tw/b8251731",
    "map": "https://www.google.com/maps?q=22.9623,120.1838"
  },
  {
    "id": 805,
    "name": "台南市道路 中華西路二段與南島路口南桿(向北)",
    "region": "其他",
    "city": "高雄市/屏東縣",
    "lat": 22.9908,
    "lng": 120.187,
    "url": "https://trafficvideo3.tainan.gov.tw/a30ef60b",
    "map": "https://www.google.com/maps?q=22.9908,120.187"
  },
  {
    "id": 808,
    "name": "台南市道路 中華西路二段與府前路二段口東桿(向北)",
    "region": "其他",
    "city": "高雄市/屏東縣",
    "lat": 22.9926,
    "lng": 120.1871,
    "url": "https://trafficvideo.tainan.gov.tw/6a0feb9b",
    "map": "https://www.google.com/maps?q=22.9926,120.1871"
  },
  {
    "id": 809,
    "name": "台南市道路 中華西路二段與府前路二段口東桿(向東)",
    "region": "其他",
    "city": "高雄市/屏東縣",
    "lat": 22.9926,
    "lng": 120.1872,
    "url": "https://trafficvideo4.tainan.gov.tw/600910c0",
    "map": "https://www.google.com/maps?q=22.9926,120.1872"
  },
  {
    "id": 810,
    "name": "台南市道路 中華西路二段與建平十六街口東桿(向北)",
    "region": "其他",
    "city": "高雄市/屏東縣",
    "lat": 22.9965,
    "lng": 120.1865,
    "url": "https://trafficvideo.tainan.gov.tw/fda98b59",
    "map": "https://www.google.com/maps?q=22.9965,120.1865"
  },
  {
    "id": 811,
    "name": "台南市道路 中華西路二段與建平十六街東桿(向西)",
    "region": "其他",
    "city": "高雄市/屏東縣",
    "lat": 22.9965,
    "lng": 120.1866,
    "url": "https://trafficvideo4.tainan.gov.tw/28dd38e0",
    "map": "https://www.google.com/maps?q=22.9965,120.1866"
  },
  {
    "id": 812,
    "name": "台南市道路 中華西路二段與民權路四段口北桿(向南)",
    "region": "其他",
    "city": "高雄市/屏東縣",
    "lat": 22.9991,
    "lng": 120.1868,
    "url": "https://trafficvideo.tainan.gov.tw/2e4f2c79",
    "map": "https://www.google.com/maps?q=22.9991,120.1868"
  },
  {
    "id": 813,
    "name": "台南市道路 中華西路二段與民生路二段口北桿(向南)-廣角",
    "region": "其他",
    "city": "高雄市/屏東縣",
    "lat": 22.9983,
    "lng": 120.1867,
    "url": "https://trafficvideo4.tainan.gov.tw/8aed97ce",
    "map": "https://www.google.com/maps?q=22.9983,120.1867"
  },
  {
    "id": 814,
    "name": "台南市道路 中華西路二段與民生路二段口東桿(向西)",
    "region": "其他",
    "city": "高雄市/屏東縣",
    "lat": 22.9978,
    "lng": 120.1869,
    "url": "https://trafficvideo3.tainan.gov.tw/8ebfa053",
    "map": "https://www.google.com/maps?q=22.9978,120.1869"
  },
  {
    "id": 815,
    "name": "台南市道路 中華西路二段與永華路一段口南桿(向北)",
    "region": "其他",
    "city": "高雄市/屏東縣",
    "lat": 22.9887,
    "lng": 120.1869,
    "url": "https://trafficvideo2.tainan.gov.tw/a750dee6",
    "map": "https://www.google.com/maps?q=22.9887,120.1869"
  },
  {
    "id": 816,
    "name": "台南市道路 中華西路二段與永華路一段口東桿(向西)",
    "region": "其他",
    "city": "高雄市/屏東縣",
    "lat": 22.989,
    "lng": 120.1872,
    "url": "https://trafficvideo.tainan.gov.tw/32a097df",
    "map": "https://www.google.com/maps?q=22.989,120.1872"
  },
  {
    "id": 817,
    "name": "台南市道路 中西區 府前路一段與永福路一段口北桿(向南)",
    "region": "其他",
    "city": "高雄市/屏東縣",
    "lat": 22.9902,
    "lng": 120.2004,
    "url": "https://trafficvideo3.tainan.gov.tw/074f6684",
    "map": "https://www.google.com/maps?q=22.9902,120.2004"
  },
  {
    "id": 818,
    "name": "台南市道路 仁德區 中山路與中正路二段口北桿(向南)",
    "region": "其他",
    "city": "高雄市/屏東縣",
    "lat": 22.9719,
    "lng": 120.2517,
    "url": "https://trafficvideo5.tainan.gov.tw/2a9b8f8d",
    "map": "https://www.google.com/maps?q=22.9719,120.2517"
  },
  {
    "id": 819,
    "name": "台南市道路 仁德區 中山路與中正路二段口東桿(向西)-廣角",
    "region": "其他",
    "city": "高雄市/屏東縣",
    "lat": 22.9716,
    "lng": 120.2519,
    "url": "https://trafficvideo4.tainan.gov.tw/f13fbe4d",
    "map": "https://www.google.com/maps?q=22.9716,120.2519"
  },
  {
    "id": 820,
    "name": "台南市道路 仁德區 中山路與國1南上匝道西桿(向東)-廣角",
    "region": "其他",
    "city": "高雄市/屏東縣",
    "lat": 22.9724,
    "lng": 120.2487,
    "url": "https://trafficvideo4.tainan.gov.tw/64086579",
    "map": "https://www.google.com/maps?q=22.9724,120.2487"
  },
  {
    "id": 821,
    "name": "台南市道路 仁德區 中山路與國1南下上匝道口-廣角",
    "region": "其他",
    "city": "高雄市/屏東縣",
    "lat": 22.9723,
    "lng": 120.249,
    "url": "https://trafficvideo4.tainan.gov.tw/c386868b",
    "map": "https://www.google.com/maps?q=22.9723,120.249"
  },
  {
    "id": 822,
    "name": "台南市道路 仁德區 中山路與國1南下上匝道路口西桿(向西)",
    "region": "其他",
    "city": "高雄市/屏東縣",
    "lat": 22.9724,
    "lng": 120.2488,
    "url": "https://trafficvideo2.tainan.gov.tw/bf52d154",
    "map": "https://www.google.com/maps?q=22.9724,120.2488"
  },
  {
    "id": 823,
    "name": "台南市道路 仁德區 中山路與國1南下匝道出口-廣角",
    "region": "其他",
    "city": "高雄市/屏東縣",
    "lat": 22.9727,
    "lng": 120.2486,
    "url": "https://trafficvideo4.tainan.gov.tw/4f8972af",
    "map": "https://www.google.com/maps?q=22.9727,120.2486"
  },
  {
    "id": 824,
    "name": "台南市道路 仁德區 中山路與文德路口西桿(向東)",
    "region": "其他",
    "city": "高雄市/屏東縣",
    "lat": 22.9727,
    "lng": 120.2477,
    "url": "https://trafficvideo2.tainan.gov.tw/50794012",
    "map": "https://www.google.com/maps?q=22.9727,120.2477"
  },
  {
    "id": 825,
    "name": "台南市道路 仁德區 中山路與文華路三段口北桿(向南)-廣角",
    "region": "其他",
    "city": "高雄市/屏東縣",
    "lat": 22.9742,
    "lng": 120.2441,
    "url": "https://trafficvideo4.tainan.gov.tw/8153a080",
    "map": "https://www.google.com/maps?q=22.9742,120.2441"
  },
  {
    "id": 826,
    "name": "台南市道路 仁德區 中山路與文華路三段口南桿(向北)-廣角",
    "region": "其他",
    "city": "高雄市/屏東縣",
    "lat": 22.9733,
    "lng": 120.2439,
    "url": "https://trafficvideo4.tainan.gov.tw/bba7532f",
    "map": "https://www.google.com/maps?q=22.9733,120.2439"
  },
  {
    "id": 827,
    "name": "台南市道路 仁德區 中山路與文華路三段口東桿(向西)-廣角",
    "region": "其他",
    "city": "高雄市/屏東縣",
    "lat": 22.9737,
    "lng": 120.2443,
    "url": "https://trafficvideo4.tainan.gov.tw/df24796f",
    "map": "https://www.google.com/maps?q=22.9737,120.2443"
  },
  {
    "id": 828,
    "name": "台南市道路 仁德區 中山路與文華路三段口西桿(向東)",
    "region": "其他",
    "city": "高雄市/屏東縣",
    "lat": 22.9739,
    "lng": 120.2437,
    "url": "https://trafficvideo2.tainan.gov.tw/cf2ec896",
    "map": "https://www.google.com/maps?q=22.9739,120.2437"
  },
  {
    "id": 829,
    "name": "台南市道路 仁德區 中山路與文華路三段口西桿(向東)-廣角",
    "region": "其他",
    "city": "高雄市/屏東縣",
    "lat": 22.9739,
    "lng": 120.2437,
    "url": "https://trafficvideo4.tainan.gov.tw/f97bec86",
    "map": "https://www.google.com/maps?q=22.9739,120.2437"
  },
  {
    "id": 830,
    "name": "台南市道路 仁德區 中山路與文華路三段口西桿(向西)-廣角",
    "region": "其他",
    "city": "高雄市/屏東縣",
    "lat": 22.9739,
    "lng": 120.2437,
    "url": "https://trafficvideo4.tainan.gov.tw/f578dd22",
    "map": "https://www.google.com/maps?q=22.9739,120.2437"
  },
  {
    "id": 831,
    "name": "台南市道路 仁德區 中山路與文華路三段東側路段(向東)-廣角",
    "region": "其他",
    "city": "高雄市/屏東縣",
    "lat": 22.9734,
    "lng": 120.2457,
    "url": "https://trafficvideo3.tainan.gov.tw/5dc22104",
    "map": "https://www.google.com/maps?q=22.9734,120.2457"
  },
  {
    "id": 832,
    "name": "台南市道路 仁德區 中山路與文華路三段東側路段(向西)-廣角",
    "region": "其他",
    "city": "高雄市/屏東縣",
    "lat": 22.9732,
    "lng": 120.2457,
    "url": "https://trafficvideo3.tainan.gov.tw/23cee798",
    "map": "https://www.google.com/maps?q=22.9732,120.2457"
  },
  {
    "id": 833,
    "name": "台南市道路 仁德區 中山路與高速一街口南桿(向南)",
    "region": "其他",
    "city": "高雄市/屏東縣",
    "lat": 22.9717,
    "lng": 120.2499,
    "url": "https://trafficvideo2.tainan.gov.tw/6a8efbdb",
    "map": "https://www.google.com/maps?q=22.9717,120.2499"
  },
  {
    "id": 834,
    "name": "台南市道路 仁德區 中山路與高速一街口東桿(向西北)-廣角",
    "region": "其他",
    "city": "高雄市/屏東縣",
    "lat": 22.972,
    "lng": 120.2502,
    "url": "https://trafficvideo4.tainan.gov.tw/c47e847c",
    "map": "https://www.google.com/maps?q=22.972,120.2502"
  },
  {
    "id": 835,
    "name": "台南市道路 仁德區 二仁路二段與文華路二段口北桿(向南)",
    "region": "其他",
    "city": "高雄市/屏東縣",
    "lat": 22.9376,
    "lng": 120.221,
    "url": "https://trafficvideo2.tainan.gov.tw/c4e4218e",
    "map": "https://www.google.com/maps?q=22.9376,120.221"
  },
  {
    "id": 836,
    "name": "台南市道路 仁德區 二仁路二段與文賢路一段口南桿(向北)",
    "region": "其他",
    "city": "高雄市/屏東縣",
    "lat": 22.9438,
    "lng": 120.2204,
    "url": "https://trafficvideo5.tainan.gov.tw/7e2a596b",
    "map": "https://www.google.com/maps?q=22.9438,120.2204"
  },
  {
    "id": 837,
    "name": "台南市道路 仁德區 太子路與德泰彈簧床公司前西桿(向東)-廣角",
    "region": "其他",
    "city": "高雄市/屏東縣",
    "lat": 22.9914,
    "lng": 120.2523,
    "url": "https://trafficvideo3.tainan.gov.tw/459ff867",
    "map": "https://www.google.com/maps?q=22.9914,120.2523"
  },
  {
    "id": 838,
    "name": "台南市道路 仁德區 太子路與高速一街口南桿(向北)",
    "region": "其他",
    "city": "高雄市/屏東縣",
    "lat": 22.9905,
    "lng": 120.2485,
    "url": "https://trafficvideo3.tainan.gov.tw/b909f2c8",
    "map": "https://www.google.com/maps?q=22.9905,120.2485"
  },
  {
    "id": 839,
    "name": "台南市道路 仁德區 太子路與高速一街口南桿(向北)-廣角",
    "region": "其他",
    "city": "高雄市/屏東縣",
    "lat": 22.9904,
    "lng": 120.2485,
    "url": "https://trafficvideo3.tainan.gov.tw/b91fc00b",
    "map": "https://www.google.com/maps?q=22.9904,120.2485"
  },
  {
    "id": 840,
    "name": "台南市道路 仁德區 太子路與高速一街口東桿(向東)-廣角",
    "region": "其他",
    "city": "高雄市/屏東縣",
    "lat": 22.9908,
    "lng": 120.2487,
    "url": "https://trafficvideo4.tainan.gov.tw/fd0b1f88",
    "map": "https://www.google.com/maps?q=22.9908,120.2487"
  },
  {
    "id": 841,
    "name": "台南市道路 仁德區 太子路與高速一街口東桿(向西)-廣角",
    "region": "其他",
    "city": "高雄市/屏東縣",
    "lat": 22.9908,
    "lng": 120.2488,
    "url": "https://trafficvideo3.tainan.gov.tw/2c7e88ed",
    "map": "https://www.google.com/maps?q=22.9908,120.2488"
  },
  {
    "id": 842,
    "name": "台南市道路 仁德區 文德路與文山路口南桿(向北)-廣角",
    "region": "其他",
    "city": "高雄市/屏東縣",
    "lat": 22.9753,
    "lng": 120.2482,
    "url": "https://trafficvideo4.tainan.gov.tw/46774c7c",
    "map": "https://www.google.com/maps?q=22.9753,120.2482"
  },
  {
    "id": 843,
    "name": "台南市道路 健康路一段與南門路口南桿(向北)",
    "region": "其他",
    "city": "高雄市/屏東縣",
    "lat": 22.9811,
    "lng": 120.2037,
    "url": "https://trafficvideo.tainan.gov.tw/ef80a475",
    "map": "https://www.google.com/maps?q=22.9811,120.2037"
  },
  {
    "id": 844,
    "name": "台南市道路 健康路一段與南門路口東桿(向東)",
    "region": "其他",
    "city": "高雄市/屏東縣",
    "lat": 22.9813,
    "lng": 120.204,
    "url": "https://trafficvideo2.tainan.gov.tw/539b8083",
    "map": "https://www.google.com/maps?q=22.9813,120.204"
  },
  {
    "id": 845,
    "name": "台南市道路 健康路一段與忠烈祠(向西)",
    "region": "其他",
    "city": "高雄市/屏東縣",
    "lat": 22.9812,
    "lng": 120.211,
    "url": "https://trafficvideo3.tainan.gov.tw/1e6cb46f",
    "map": "https://www.google.com/maps?q=22.9812,120.211"
  },
  {
    "id": 846,
    "name": "台南市道路 健康路三段與光州路口西桿(向西)",
    "region": "其他",
    "city": "高雄市/屏東縣",
    "lat": 22.985,
    "lng": 120.1616,
    "url": "https://trafficvideo.tainan.gov.tw/87627986",
    "map": "https://www.google.com/maps?q=22.985,120.1616"
  },
  {
    "id": 847,
    "name": "台南市道路 健康路三段與建平路口西桿(向東)-廣角",
    "region": "其他",
    "city": "高雄市/屏東縣",
    "lat": 22.9827,
    "lng": 120.1811,
    "url": "https://trafficvideo4.tainan.gov.tw/e3160e9e",
    "map": "https://www.google.com/maps?q=22.9827,120.1811"
  },
  {
    "id": 848,
    "name": "台南市道路 健康路三段與文平路口(向西)",
    "region": "其他",
    "city": "高雄市/屏東縣",
    "lat": 22.983,
    "lng": 120.1778,
    "url": "https://trafficvideo3.tainan.gov.tw/537b249c",
    "map": "https://www.google.com/maps?q=22.983,120.1778"
  },
  {
    "id": 849,
    "name": "台南市道路 健康路二段與中華西路二段口北桿(向南)-廣角",
    "region": "其他",
    "city": "高雄市/屏東縣",
    "lat": 22.9825,
    "lng": 120.1861,
    "url": "https://trafficvideo4.tainan.gov.tw/ec4c2948",
    "map": "https://www.google.com/maps?q=22.9825,120.1861"
  },
  {
    "id": 853,
    "name": "台南市道路 公園路與成功路口(東桿)",
    "region": "其他",
    "city": "高雄市/屏東縣",
    "lat": 22.998,
    "lng": 120.2073,
    "url": "https://trafficvideo.tainan.gov.tw/23bc9f21",
    "map": "https://www.google.com/maps?q=22.998,120.2073"
  },
  {
    "id": 854,
    "name": "台南市道路 公園路與成功路口(西桿)",
    "region": "其他",
    "city": "高雄市/屏東縣",
    "lat": 22.9981,
    "lng": 120.2067,
    "url": "https://trafficvideo.tainan.gov.tw/b80aa7ab",
    "map": "https://www.google.com/maps?q=22.9981,120.2067"
  },
  {
    "id": 858,
    "name": "台南市道路 北門路一段與民族路二段口(西桿)",
    "region": "其他",
    "city": "高雄市/屏東縣",
    "lat": 22.9945,
    "lng": 120.2117,
    "url": "https://trafficvideo.tainan.gov.tw/6a130eaf",
    "map": "https://www.google.com/maps?q=22.9945,120.2117"
  },
  {
    "id": 859,
    "name": "台南市道路 北門路一段與衛民街口南桿(向北)",
    "region": "其他",
    "city": "高雄市/屏東縣",
    "lat": 22.9927,
    "lng": 120.2117,
    "url": "https://trafficvideo.tainan.gov.tw/32c0000a",
    "map": "https://www.google.com/maps?q=22.9927,120.2117"
  },
  {
    "id": 860,
    "name": "台南市道路 北門路二段與公園南路口東桿(向西)",
    "region": "其他",
    "city": "高雄市/屏東縣",
    "lat": 22.9999,
    "lng": 120.2128,
    "url": "https://trafficvideo3.tainan.gov.tw/19c2596a",
    "map": "https://www.google.com/maps?q=22.9999,120.2128"
  },
  {
    "id": 861,
    "name": "台南市道路 北門路二段與北忠街口(向北)",
    "region": "其他",
    "city": "高雄市/屏東縣",
    "lat": 22.9985,
    "lng": 120.2124,
    "url": "https://trafficvideo3.tainan.gov.tw/5a295548",
    "map": "https://www.google.com/maps?q=22.9985,120.2124"
  },
  {
    "id": 865,
    "name": "台南市道路 南門路與府前路一段口(北桿)",
    "region": "其他",
    "city": "高雄市/屏東縣",
    "lat": 22.9892,
    "lng": 120.2046,
    "url": "https://trafficvideo.tainan.gov.tw/172021003100",
    "map": "https://www.google.com/maps?q=22.9892,120.2046"
  },
  {
    "id": 866,
    "name": "台南市道路 南門路與府前路一段口(西桿)",
    "region": "其他",
    "city": "高雄市/屏東縣",
    "lat": 22.9891,
    "lng": 120.2044,
    "url": "https://trafficvideo.tainan.gov.tw/172021004100",
    "map": "https://www.google.com/maps?q=22.9891,120.2044"
  },
  {
    "id": 874,
    "name": "台南市道路 大同路一段與法華街口西桿(向東)-廣角",
    "region": "其他",
    "city": "高雄市/屏東縣",
    "lat": 22.9847,
    "lng": 120.2111,
    "url": "https://trafficvideo3.tainan.gov.tw/3837f66a",
    "map": "https://www.google.com/maps?q=22.9847,120.2111"
  },
  {
    "id": 875,
    "name": "台南市道路 大同路一段與法華街口西桿(向西)-廣角",
    "region": "其他",
    "city": "高雄市/屏東縣",
    "lat": 22.9847,
    "lng": 120.2111,
    "url": "https://trafficvideo3.tainan.gov.tw/cf1d895e",
    "map": "https://www.google.com/maps?q=22.9847,120.2111"
  },
  {
    "id": 876,
    "name": "台南市道路 大同路一段與開山路與府連路口南桿(向南)",
    "region": "其他",
    "city": "高雄市/屏東縣",
    "lat": 22.9848,
    "lng": 120.2112,
    "url": "https://trafficvideo2.tainan.gov.tw/54b2e135",
    "map": "https://www.google.com/maps?q=22.9848,120.2112"
  },
  {
    "id": 877,
    "name": "台南市道路 大同路一段與開山路與府連路口東桿(向東)",
    "region": "其他",
    "city": "高雄市/屏東縣",
    "lat": 22.9848,
    "lng": 120.2113,
    "url": "https://trafficvideo2.tainan.gov.tw/b596d902",
    "map": "https://www.google.com/maps?q=22.9848,120.2113"
  },
  {
    "id": 878,
    "name": "台南市道路 大同路一段與開山路與府連路口西南桿(向西南)-廣角",
    "region": "其他",
    "city": "高雄市/屏東縣",
    "lat": 22.9845,
    "lng": 120.2111,
    "url": "https://trafficvideo3.tainan.gov.tw/afe2f3dc",
    "map": "https://www.google.com/maps?q=22.9845,120.2111"
  },
  {
    "id": 879,
    "name": "台南市道路 大同路二段與健康路一段口(北桿)",
    "region": "其他",
    "city": "高雄市/屏東縣",
    "lat": 22.9814,
    "lng": 120.212,
    "url": "https://trafficvideo.tainan.gov.tw/172022003100",
    "map": "https://www.google.com/maps?q=22.9814,120.212"
  },
  {
    "id": 880,
    "name": "台南市道路 大同路二段與健康路一段口(南桿)",
    "region": "其他",
    "city": "高雄市/屏東縣",
    "lat": 22.9807,
    "lng": 120.2123,
    "url": "https://trafficvideo.tainan.gov.tw/df17076a",
    "map": "https://www.google.com/maps?q=22.9807,120.2123"
  },
  {
    "id": 881,
    "name": "台南市道路 大同路二段與健康路一段口(東桿)-1",
    "region": "其他",
    "city": "高雄市/屏東縣",
    "lat": 22.9812,
    "lng": 120.2123,
    "url": "https://trafficvideo.tainan.gov.tw/172022006100",
    "map": "https://www.google.com/maps?q=22.9812,120.2123"
  },
  {
    "id": 882,
    "name": "台南市道路 大同路二段與健康路一段口(東桿)-2",
    "region": "其他",
    "city": "高雄市/屏東縣",
    "lat": 22.981,
    "lng": 120.2125,
    "url": "https://trafficvideo.tainan.gov.tw/172022006200",
    "map": "https://www.google.com/maps?q=22.981,120.2125"
  },
  {
    "id": 883,
    "name": "台南市道路 大同路二段與健康路一段口(西桿)-1",
    "region": "其他",
    "city": "高雄市/屏東縣",
    "lat": 22.9812,
    "lng": 120.2119,
    "url": "https://trafficvideo.tainan.gov.tw/172022005100",
    "map": "https://www.google.com/maps?q=22.9812,120.2119"
  },
  {
    "id": 884,
    "name": "台南市道路 大同路二段與健康路一段口(西桿)-2",
    "region": "其他",
    "city": "高雄市/屏東縣",
    "lat": 22.9811,
    "lng": 120.2118,
    "url": "https://trafficvideo.tainan.gov.tw/172022005200",
    "map": "https://www.google.com/maps?q=22.9811,120.2118"
  },
  {
    "id": 885,
    "name": "台南市道路 大同路二段與國民路口北桿(向北)-廣角",
    "region": "其他",
    "city": "高雄市/屏東縣",
    "lat": 22.9678,
    "lng": 120.2158,
    "url": "https://trafficvideo5.tainan.gov.tw/27a0ed7d",
    "map": "https://www.google.com/maps?q=22.9678,120.2158"
  },
  {
    "id": 886,
    "name": "台南市道路 大同路二段與國民路口北桿(向南)",
    "region": "其他",
    "city": "高雄市/屏東縣",
    "lat": 22.9678,
    "lng": 120.2158,
    "url": "https://trafficvideo.tainan.gov.tw/705eee1e",
    "map": "https://www.google.com/maps?q=22.9678,120.2158"
  },
  {
    "id": 887,
    "name": "台南市道路 大同路二段與國民路口南桿(向南)-廣角",
    "region": "其他",
    "city": "高雄市/屏東縣",
    "lat": 22.9671,
    "lng": 120.216,
    "url": "https://trafficvideo5.tainan.gov.tw/24f035a0",
    "map": "https://www.google.com/maps?q=22.9671,120.216"
  },
  {
    "id": 889,
    "name": "台南市道路 安億橋停車場",
    "region": "其他",
    "city": "高雄市/屏東縣",
    "lat": 22.997,
    "lng": 120.1636,
    "url": "https://trafficvideo2.tainan.gov.tw/192168234004",
    "map": "https://www.google.com/maps?q=22.997,120.1636"
  },
  {
    "id": 890,
    "name": "台南市道路 安億路與光州路口北桿(向南)",
    "region": "其他",
    "city": "高雄市/屏東縣",
    "lat": 22.9939,
    "lng": 120.1593,
    "url": "https://trafficvideo3.tainan.gov.tw/55e53372",
    "map": "https://www.google.com/maps?q=22.9939,120.1593"
  },
  {
    "id": 892,
    "name": "台南市道路 安北路與安平路口",
    "region": "其他",
    "city": "高雄市/屏東縣",
    "lat": 22.999,
    "lng": 120.1681,
    "url": "https://trafficvideo2.tainan.gov.tw/192168234006",
    "map": "https://www.google.com/maps?q=22.999,120.1681"
  },
  {
    "id": 907,
    "name": "台南市道路 安平路與健康三街口南桿(向北)",
    "region": "其他",
    "city": "高雄市/屏東縣",
    "lat": 22.9986,
    "lng": 120.17,
    "url": "https://trafficvideo3.tainan.gov.tw/74263822",
    "map": "https://www.google.com/maps?q=22.9986,120.17"
  },
  {
    "id": 913,
    "name": "台南市道路 小東路與中華東路一段口北桿(向南)",
    "region": "其他",
    "city": "高雄市/屏東縣",
    "lat": 22.9989,
    "lng": 120.2347,
    "url": "https://trafficvideo2.tainan.gov.tw/942eb11e",
    "map": "https://www.google.com/maps?q=22.9989,120.2347"
  },
  {
    "id": 914,
    "name": "台南市道路 小東路與中華東路一段口南桿(向北)",
    "region": "其他",
    "city": "高雄市/屏東縣",
    "lat": 22.9981,
    "lng": 120.2347,
    "url": "https://trafficvideo3.tainan.gov.tw/832244da",
    "map": "https://www.google.com/maps?q=22.9981,120.2347"
  },
  {
    "id": 915,
    "name": "台南市道路 小東路與中華東路一段口東桿(向西)",
    "region": "其他",
    "city": "高雄市/屏東縣",
    "lat": 22.9984,
    "lng": 120.2351,
    "url": "https://trafficvideo3.tainan.gov.tw/cd763386",
    "map": "https://www.google.com/maps?q=22.9984,120.2351"
  },
  {
    "id": 916,
    "name": "台南市道路 小東路與中華東路一段口西桿(向東)",
    "region": "其他",
    "city": "高雄市/屏東縣",
    "lat": 22.9985,
    "lng": 120.2343,
    "url": "https://trafficvideo2.tainan.gov.tw/43fb527c",
    "map": "https://www.google.com/maps?q=22.9985,120.2343"
  },
  {
    "id": 920,
    "name": "台南市道路 小東路與忠孝路口南桿(向北)",
    "region": "其他",
    "city": "高雄市/屏東縣",
    "lat": 22.9982,
    "lng": 120.2399,
    "url": "https://trafficvideo3.tainan.gov.tw/208a0d1a",
    "map": "https://www.google.com/maps?q=22.9982,120.2399"
  },
  {
    "id": 921,
    "name": "台南市道路 小東路與忠孝路口西桿(向東)-廣角",
    "region": "其他",
    "city": "高雄市/屏東縣",
    "lat": 22.9985,
    "lng": 120.2397,
    "url": "https://trafficvideo4.tainan.gov.tw/bc3034af",
    "map": "https://www.google.com/maps?q=22.9985,120.2397"
  },
  {
    "id": 923,
    "name": "台南市道路 平生路與安億橋頭西桿(向東)",
    "region": "其他",
    "city": "高雄市/屏東縣",
    "lat": 22.9988,
    "lng": 120.1636,
    "url": "https://trafficvideo3.tainan.gov.tw/eb396b49",
    "map": "https://www.google.com/maps?q=22.9988,120.1636"
  },
  {
    "id": 924,
    "name": "台南市道路 府前路一段與台灣銀行前西桿(向西)",
    "region": "其他",
    "city": "高雄市/屏東縣",
    "lat": 22.989,
    "lng": 120.2072,
    "url": "https://trafficvideo.tainan.gov.tw/7e8d489e",
    "map": "https://www.google.com/maps?q=22.989,120.2072"
  },
  {
    "id": 925,
    "name": "台南市道路 府前路一段與忠義路二段口東桿(向西)",
    "region": "其他",
    "city": "高雄市/屏東縣",
    "lat": 22.9895,
    "lng": 120.2023,
    "url": "https://trafficvideo.tainan.gov.tw/e2e14cfa",
    "map": "https://www.google.com/maps?q=22.9895,120.2023"
  },
  {
    "id": 926,
    "name": "台南市道路 府前路一段與開山路口北桿(向南)",
    "region": "其他",
    "city": "高雄市/屏東縣",
    "lat": 22.9891,
    "lng": 120.2076,
    "url": "https://trafficvideo3.tainan.gov.tw/2c1d09d0",
    "map": "https://www.google.com/maps?q=22.9891,120.2076"
  },
  {
    "id": 927,
    "name": "台南市道路 府前路二段與建平路口西桿(向東)",
    "region": "其他",
    "city": "高雄市/屏東縣",
    "lat": 22.9934,
    "lng": 120.1833,
    "url": "https://trafficvideo2.tainan.gov.tw/16f3a7e0",
    "map": "https://www.google.com/maps?q=22.9934,120.1833"
  },
  {
    "id": 928,
    "name": "台南市道路 後甲圓環南桿(向北)",
    "region": "其他",
    "city": "高雄市/屏東縣",
    "lat": 22.988,
    "lng": 120.2336,
    "url": "https://trafficvideo2.tainan.gov.tw/c9db808b",
    "map": "https://www.google.com/maps?q=22.988,120.2336"
  },
  {
    "id": 929,
    "name": "台南市道路 慶平路與華平路口北桿(向北)",
    "region": "其他",
    "city": "高雄市/屏東縣",
    "lat": 22.997,
    "lng": 120.1759,
    "url": "https://trafficvideo4.tainan.gov.tw/92d375d3",
    "map": "https://www.google.com/maps?q=22.997,120.1759"
  },
  {
    "id": 930,
    "name": "台南市道路 成功路與忠義路三段口北桿(向南)",
    "region": "其他",
    "city": "高雄市/屏東縣",
    "lat": 22.9987,
    "lng": 120.205,
    "url": "https://trafficvideo4.tainan.gov.tw/9e238f19",
    "map": "https://www.google.com/maps?q=22.9987,120.205"
  },
  {
    "id": 934,
    "name": "台南市道路 新興路與新建路北桿(向南)",
    "region": "其他",
    "city": "高雄市/屏東縣",
    "lat": 22.9743,
    "lng": 120.1853,
    "url": "https://trafficvideo4.tainan.gov.tw/0ed121c7",
    "map": "https://www.google.com/maps?q=22.9743,120.1853"
  },
  {
    "id": 935,
    "name": "台南市道路 東區 東門路三段與富農街一段口南桿(向北)",
    "region": "其他",
    "city": "高雄市/屏東縣",
    "lat": 22.9773,
    "lng": 120.2345,
    "url": "https://trafficvideo2.tainan.gov.tw/67ea931f",
    "map": "https://www.google.com/maps?q=22.9773,120.2345"
  },
  {
    "id": 937,
    "name": "台南市道路 東寧路與裕農路口西桿(向東)",
    "region": "其他",
    "city": "高雄市/屏東縣",
    "lat": 22.9886,
    "lng": 120.2327,
    "url": "https://trafficvideo4.tainan.gov.tw/0588da9f",
    "map": "https://www.google.com/maps?q=22.9886,120.2327"
  },
  {
    "id": 940,
    "name": "台南市道路 東門圓環與北門路一段電動車前分隔島(向東)",
    "region": "其他",
    "city": "高雄市/屏東縣",
    "lat": 22.9893,
    "lng": 120.2114,
    "url": "https://trafficvideo.tainan.gov.tw/d997d872",
    "map": "https://www.google.com/maps?q=22.9893,120.2114"
  },
  {
    "id": 941,
    "name": "台南市道路 東門圓環與大同路一段北桿(向南)",
    "region": "其他",
    "city": "高雄市/屏東縣",
    "lat": 22.9886,
    "lng": 120.2114,
    "url": "https://trafficvideo.tainan.gov.tw/9dc2f929",
    "map": "https://www.google.com/maps?q=22.9886,120.2114"
  },
  {
    "id": 942,
    "name": "台南市道路 東門路三段與崇學路口西桿(向東)",
    "region": "其他",
    "city": "高雄市/屏東縣",
    "lat": 22.9834,
    "lng": 120.2264,
    "url": "https://trafficvideo2.tainan.gov.tw/21f184a1",
    "map": "https://www.google.com/maps?q=22.9834,120.2264"
  },
  {
    "id": 943,
    "name": "台南市道路 東門路三段與自由路二段口北桿(向南)-廣角",
    "region": "其他",
    "city": "高雄市/屏東縣",
    "lat": 22.9762,
    "lng": 120.2375,
    "url": "https://trafficvideo4.tainan.gov.tw/3f17d100",
    "map": "https://www.google.com/maps?q=22.9762,120.2375"
  },
  {
    "id": 944,
    "name": "台南市道路 東門路三段與自由路二段口南桿(向北)-廣角",
    "region": "其他",
    "city": "高雄市/屏東縣",
    "lat": 22.9756,
    "lng": 120.2374,
    "url": "https://trafficvideo4.tainan.gov.tw/963bacbc",
    "map": "https://www.google.com/maps?q=22.9756,120.2374"
  },
  {
    "id": 945,
    "name": "台南市道路 東門路三段與自由路二段口東桿(向西)-廣角",
    "region": "其他",
    "city": "高雄市/屏東縣",
    "lat": 22.9758,
    "lng": 120.2377,
    "url": "https://trafficvideo4.tainan.gov.tw/56fc6adb",
    "map": "https://www.google.com/maps?q=22.9758,120.2377"
  },
  {
    "id": 946,
    "name": "台南市道路 東門路三段與自由路二段口西桿(向西)-廣角",
    "region": "其他",
    "city": "高雄市/屏東縣",
    "lat": 22.9759,
    "lng": 120.2372,
    "url": "https://trafficvideo4.tainan.gov.tw/dada1e71",
    "map": "https://www.google.com/maps?q=22.9759,120.2372"
  },
  {
    "id": 947,
    "name": "台南市道路 東門路二段與富德街口(向東)",
    "region": "其他",
    "city": "高雄市/屏東縣",
    "lat": 22.9853,
    "lng": 120.223,
    "url": "https://trafficvideo.tainan.gov.tw/17dcd3fb",
    "map": "https://www.google.com/maps?q=22.9853,120.223"
  },
  {
    "id": 948,
    "name": "台南市道路 東門路二段與裕農路口南桿(向北)",
    "region": "其他",
    "city": "高雄市/屏東縣",
    "lat": 22.9849,
    "lng": 120.2243,
    "url": "https://trafficvideo.tainan.gov.tw/786ae899",
    "map": "https://www.google.com/maps?q=22.9849,120.2243"
  },
  {
    "id": 949,
    "name": "台南市道路 林森路一段與崇明路口東桿(向西)",
    "region": "其他",
    "city": "高雄市/屏東縣",
    "lat": 22.9822,
    "lng": 120.216,
    "url": "https://trafficvideo.tainan.gov.tw/eadc632c",
    "map": "https://www.google.com/maps?q=22.9822,120.216"
  },
  {
    "id": 950,
    "name": "台南市道路 林森路二段與東門路二段口東桿(向西)",
    "region": "其他",
    "city": "高雄市/屏東縣",
    "lat": 22.9854,
    "lng": 120.2226,
    "url": "https://trafficvideo.tainan.gov.tw/0de1aa08",
    "map": "https://www.google.com/maps?q=22.9854,120.2226"
  },
  {
    "id": 951,
    "name": "台南市道路 歸仁區 中正南路二段與中油高鐵站(向北)",
    "region": "其他",
    "city": "高雄市/屏東縣",
    "lat": 22.9288,
    "lng": 120.2774,
    "url": "https://trafficvideo2.tainan.gov.tw/b15b446c",
    "map": "https://www.google.com/maps?q=22.9288,120.2774"
  },
  {
    "id": 952,
    "name": "台南市道路 歸仁區 中正南路二段與大武路二段口南桿(向北)",
    "region": "其他",
    "city": "高雄市/屏東縣",
    "lat": 22.9207,
    "lng": 120.2742,
    "url": "https://trafficvideo.tainan.gov.tw/819b1ef2",
    "map": "https://www.google.com/maps?q=22.9207,120.2742"
  },
  {
    "id": 953,
    "name": "台南市道路 歸仁區 中正南路二段與歸仁八路口南桿(向北)",
    "region": "其他",
    "city": "高雄市/屏東縣",
    "lat": 22.9267,
    "lng": 120.2768,
    "url": "https://trafficvideo.tainan.gov.tw/687a906d",
    "map": "https://www.google.com/maps?q=22.9267,120.2768"
  },
  {
    "id": 954,
    "name": "台南市道路 歸仁區 中正南路二段與歸仁八路口東桿(向北)",
    "region": "其他",
    "city": "高雄市/屏東縣",
    "lat": 22.9268,
    "lng": 120.2771,
    "url": "https://trafficvideo.tainan.gov.tw/cf98a255",
    "map": "https://www.google.com/maps?q=22.9268,120.2771"
  },
  {
    "id": 955,
    "name": "台南市道路 歸仁區 大武路二段與高鐵一路口東桿(向西)",
    "region": "其他",
    "city": "高雄市/屏東縣",
    "lat": 22.9182,
    "lng": 120.2818,
    "url": "https://trafficvideo3.tainan.gov.tw/7be4f24d",
    "map": "https://www.google.com/maps?q=22.9182,120.2818"
  },
  {
    "id": 956,
    "name": "台南市道路 歸仁區 武當路與歸仁十二路口西桿(向東)",
    "region": "其他",
    "city": "高雄市/屏東縣",
    "lat": 22.9222,
    "lng": 120.2853,
    "url": "https://trafficvideo2.tainan.gov.tw/ebf851be",
    "map": "https://www.google.com/maps?q=22.9222,120.2853"
  },
  {
    "id": 957,
    "name": "台南市道路 歸仁區 武當路與站區南路口北桿(向南)",
    "region": "其他",
    "city": "高雄市/屏東縣",
    "lat": 22.9231,
    "lng": 120.2851,
    "url": "https://trafficvideo3.tainan.gov.tw/a8b6a3ab",
    "map": "https://www.google.com/maps?q=22.9231,120.2851"
  },
  {
    "id": 958,
    "name": "台南市道路 歸仁區 歸仁七路與高發一路口東桿(向西)",
    "region": "其他",
    "city": "高雄市/屏東縣",
    "lat": 22.9276,
    "lng": 120.2874,
    "url": "https://trafficvideo.tainan.gov.tw/1914bcd5",
    "map": "https://www.google.com/maps?q=22.9276,120.2874"
  },
  {
    "id": 959,
    "name": "台南市道路 歸仁區 歸仁十三路與高發一路口西桿(向東)",
    "region": "其他",
    "city": "高雄市/屏東縣",
    "lat": 22.9236,
    "lng": 120.289,
    "url": "https://trafficvideo.tainan.gov.tw/3e6342c7",
    "map": "https://www.google.com/maps?q=22.9236,120.289"
  },
  {
    "id": 960,
    "name": "台南市道路 歸仁區 歸仁十三路與高發二路口南桿(向北)",
    "region": "其他",
    "city": "高雄市/屏東縣",
    "lat": 22.9242,
    "lng": 120.291,
    "url": "https://trafficvideo3.tainan.gov.tw/1927fe8b",
    "map": "https://www.google.com/maps?q=22.9242,120.291"
  },
  {
    "id": 961,
    "name": "台南市道路 歸仁區 歸仁大道與大武路二段口東側西桿(向東)",
    "region": "其他",
    "city": "高雄市/屏東縣",
    "lat": 22.919,
    "lng": 120.2894,
    "url": "https://trafficvideo3.tainan.gov.tw/3b688653",
    "map": "https://www.google.com/maps?q=22.919,120.2894"
  },
  {
    "id": 962,
    "name": "台南市道路 歸仁區 歸仁大道與歸仁七路口北桿(向南)",
    "region": "其他",
    "city": "高雄市/屏東縣",
    "lat": 22.927,
    "lng": 120.286,
    "url": "https://trafficvideo2.tainan.gov.tw/3b0cdb38",
    "map": "https://www.google.com/maps?q=22.927,120.286"
  },
  {
    "id": 963,
    "name": "台南市道路 歸仁區 歸仁大道與歸仁十三路口東南桿(向北)",
    "region": "其他",
    "city": "高雄市/屏東縣",
    "lat": 22.923,
    "lng": 120.288,
    "url": "https://trafficvideo2.tainan.gov.tw/26f189b2",
    "map": "https://www.google.com/maps?q=22.923,120.288"
  },
  {
    "id": 964,
    "name": "台南市道路 歸仁區 歸仁大道與站區北路口北桿(向南)",
    "region": "其他",
    "city": "高雄市/屏東縣",
    "lat": 22.9256,
    "lng": 120.2856,
    "url": "https://trafficvideo.tainan.gov.tw/48e70b5d",
    "map": "https://www.google.com/maps?q=22.9256,120.2856"
  },
  {
    "id": 965,
    "name": "台南市道路 歸仁區 高鐵一路與歸仁十二路口南桿(向北)",
    "region": "其他",
    "city": "高雄市/屏東縣",
    "lat": 22.9215,
    "lng": 120.283,
    "url": "https://trafficvideo3.tainan.gov.tw/4266157c",
    "map": "https://www.google.com/maps?q=22.9215,120.283"
  },
  {
    "id": 966,
    "name": "台南市道路 歸仁區 高鐵大道與高鐵一路口南桿(向南)",
    "region": "其他",
    "city": "高雄市/屏東縣",
    "lat": 22.9231,
    "lng": 120.2829,
    "url": "https://trafficvideo3.tainan.gov.tw/80e4cb77",
    "map": "https://www.google.com/maps?q=22.9231,120.2829"
  },
  {
    "id": 967,
    "name": "台南市道路 民族路一段與前鋒路口南桿(向北)",
    "region": "其他",
    "city": "高雄市/屏東縣",
    "lat": 22.9944,
    "lng": 120.2132,
    "url": "https://trafficvideo2.tainan.gov.tw/a0c6236b",
    "map": "https://www.google.com/maps?q=22.9944,120.2132"
  },
  {
    "id": 968,
    "name": "台南市道路 民族路一段與前鋒路口西桿(向東)",
    "region": "其他",
    "city": "高雄市/屏東縣",
    "lat": 22.9945,
    "lng": 120.2129,
    "url": "https://trafficvideo3.tainan.gov.tw/5a3969c8",
    "map": "https://www.google.com/maps?q=22.9945,120.2129"
  },
  {
    "id": 969,
    "name": "台南市道路 民族路二段與北門路一段口南桿(向北)",
    "region": "其他",
    "city": "高雄市/屏東縣",
    "lat": 22.9943,
    "lng": 120.2118,
    "url": "https://trafficvideo.tainan.gov.tw/4bf7bdf5",
    "map": "https://www.google.com/maps?q=22.9943,120.2118"
  },
  {
    "id": 972,
    "name": "台南市道路 民生路一段與忠義路二段口(向西)",
    "region": "其他",
    "city": "高雄市/屏東縣",
    "lat": 22.9933,
    "lng": 120.2033,
    "url": "https://trafficvideo2.tainan.gov.tw/0fd0a1cc",
    "map": "https://www.google.com/maps?q=22.9933,120.2033"
  },
  {
    "id": 978,
    "name": "台南市道路 水利局 五空橋",
    "region": "其他",
    "city": "高雄市/屏東縣",
    "lat": 22.9273,
    "lng": 120.2215,
    "url": "https://cctv-ss06.thb.gov.tw:443/T1-343K+191",
    "map": "https://www.google.com/maps?q=22.9273,120.2215"
  },
  {
    "id": 1014,
    "name": "台南市道路 水利局 復興路高速公路涵洞",
    "region": "其他",
    "city": "高雄市/屏東縣",
    "lat": 22.9988,
    "lng": 120.2485,
    "url": "https://cctvs.freeway.gov.tw/live-view/mjpg/video.cgi?camera=155",
    "map": "https://www.google.com/maps?q=22.9988,120.2485"
  },
  {
    "id": 1055,
    "name": "台南市道路 水利局 網寮橋",
    "region": "其他",
    "city": "高雄市/屏東縣",
    "lat": 22.9986,
    "lng": 120.2505,
    "url": "https://trafficvideo2.tainan.gov.tw/7411ad4f",
    "map": "https://www.google.com/maps?q=22.9986,120.2505"
  },
  {
    "id": 1064,
    "name": "台南市道路 水利局 萬代橋",
    "region": "其他",
    "city": "高雄市/屏東縣",
    "lat": 22.9721,
    "lng": 120.2491,
    "url": "https://trafficvideo4.tainan.gov.tw/c386868b",
    "map": "https://www.google.com/maps?q=22.9721,120.2491"
  },
  {
    "id": 1132,
    "name": "台南市道路 永康區 國一迴轉道南側(向南)",
    "region": "其他",
    "city": "高雄市/屏東縣",
    "lat": 22.9968,
    "lng": 120.248,
    "url": "https://trafficvideo2.tainan.gov.tw/569dd93e",
    "map": "https://www.google.com/maps?q=22.9968,120.248"
  },
  {
    "id": 1134,
    "name": "台南市道路 永康區 小東路與小東路647巷口(向東)",
    "region": "其他",
    "city": "高雄市/屏東縣",
    "lat": 22.9985,
    "lng": 120.2386,
    "url": "https://trafficvideo3.tainan.gov.tw/d608d0a3",
    "map": "https://www.google.com/maps?q=22.9985,120.2386"
  },
  {
    "id": 1137,
    "name": "台南市道路 永康區 復興路與復國路口西桿(向東)",
    "region": "其他",
    "city": "高雄市/屏東縣",
    "lat": 22.9986,
    "lng": 120.2467,
    "url": "https://trafficvideo2.tainan.gov.tw/e452449h",
    "map": "https://www.google.com/maps?q=22.9986,120.2467"
  },
  {
    "id": 1138,
    "name": "台南市道路 永康區 復興路與復興路26巷口東桿(向西)",
    "region": "其他",
    "city": "高雄市/屏東縣",
    "lat": 22.9986,
    "lng": 120.2498,
    "url": "https://trafficvideo2.tainan.gov.tw/7411ad4f",
    "map": "https://www.google.com/maps?q=22.9986,120.2498"
  },
  {
    "id": 1139,
    "name": "台南市道路 永康區 復興路與消防局前東桿(向東)-廣角",
    "region": "其他",
    "city": "高雄市/屏東縣",
    "lat": 22.9986,
    "lng": 120.2452,
    "url": "https://trafficvideo5.tainan.gov.tw/f3e82874",
    "map": "https://www.google.com/maps?q=22.9986,120.2452"
  },
  {
    "id": 1140,
    "name": "台南市道路 永康區 復興路與消防局前東桿(向西)",
    "region": "其他",
    "city": "高雄市/屏東縣",
    "lat": 22.9986,
    "lng": 120.245,
    "url": "https://trafficvideo2.tainan.gov.tw/8d436ff5",
    "map": "https://www.google.com/maps?q=22.9986,120.245"
  },
  {
    "id": 1141,
    "name": "台南市道路 永康區 復興路與消防局前西桿(向西)-廣角",
    "region": "其他",
    "city": "高雄市/屏東縣",
    "lat": 22.9986,
    "lng": 120.2446,
    "url": "https://trafficvideo5.tainan.gov.tw/96256787",
    "map": "https://www.google.com/maps?q=22.9986,120.2446"
  },
  {
    "id": 1142,
    "name": "台南市道路 永康區 復興路與高速一街南桿(向北)",
    "region": "其他",
    "city": "高雄市/屏東縣",
    "lat": 22.9984,
    "lng": 120.2485,
    "url": "https://trafficvideo2.tainan.gov.tw/685f3c55",
    "map": "https://www.google.com/maps?q=22.9984,120.2485"
  },
  {
    "id": 1143,
    "name": "台南市道路 永康區 復興路與高速二街口北桿(向南)",
    "region": "其他",
    "city": "高雄市/屏東縣",
    "lat": 22.9989,
    "lng": 120.2479,
    "url": "https://trafficvideo3.tainan.gov.tw/74b4b124",
    "map": "https://www.google.com/maps?q=22.9989,120.2479"
  },
  {
    "id": 1144,
    "name": "台南市道路 永康區 復興路與高速二街口西桿(向東北)",
    "region": "其他",
    "city": "高雄市/屏東縣",
    "lat": 22.9986,
    "lng": 120.2477,
    "url": "https://trafficvideo3.tainan.gov.tw/c7c4eb0f",
    "map": "https://www.google.com/maps?q=22.9986,120.2477"
  },
  {
    "id": 1145,
    "name": "台南市道路 永康區 復興路與高速二街口西桿(向東南)",
    "region": "其他",
    "city": "高雄市/屏東縣",
    "lat": 22.9986,
    "lng": 120.2477,
    "url": "https://trafficvideo3.tainan.gov.tw/ce4b4e50",
    "map": "https://www.google.com/maps?q=22.9986,120.2477"
  },
  {
    "id": 1169,
    "name": "台南市道路 永華路二段與建平路口西桿(向東)-廣角",
    "region": "其他",
    "city": "高雄市/屏東縣",
    "lat": 22.9897,
    "lng": 120.1823,
    "url": "https://trafficvideo4.tainan.gov.tw/5b5c1a34",
    "map": "https://www.google.com/maps?q=22.9897,120.1823"
  },
  {
    "id": 1172,
    "name": "台南市道路 濱南路與鯤鯓路口北桿(向北)-廣角",
    "region": "其他",
    "city": "高雄市/屏東縣",
    "lat": 22.9592,
    "lng": 120.1839,
    "url": "https://trafficvideo5.tainan.gov.tw/8cceb7f7",
    "map": "https://www.google.com/maps?q=22.9592,120.1839"
  },
  {
    "id": 1173,
    "name": "台南市道路 濱南路與鯤鯓路口南桿(向南)-廣角",
    "region": "其他",
    "city": "高雄市/屏東縣",
    "lat": 22.9588,
    "lng": 120.1839,
    "url": "https://trafficvideo5.tainan.gov.tw/ea9355f3",
    "map": "https://www.google.com/maps?q=22.9588,120.1839"
  },
  {
    "id": 1174,
    "name": "台南市道路 火車站圓環中山路南桿(向北)",
    "region": "其他",
    "city": "高雄市/屏東縣",
    "lat": 22.9967,
    "lng": 120.2116,
    "url": "https://trafficvideo5.tainan.gov.tw/a59082a2",
    "map": "https://www.google.com/maps?q=22.9967,120.2116"
  },
  {
    "id": 1175,
    "name": "台南市道路 火車站圓環成功路西桿(向東)",
    "region": "其他",
    "city": "高雄市/屏東縣",
    "lat": 22.9974,
    "lng": 120.211,
    "url": "https://trafficvideo2.tainan.gov.tw/9dd4e804",
    "map": "https://www.google.com/maps?q=22.9974,120.211"
  },
  {
    "id": 1179,
    "name": "台南市道路 華平路與安平路口南桿(向北)",
    "region": "其他",
    "city": "高雄市/屏東縣",
    "lat": 22.9981,
    "lng": 120.176,
    "url": "https://trafficvideo3.tainan.gov.tw/fe41d992",
    "map": "https://www.google.com/maps?q=22.9981,120.176"
  },
  {
    "id": 1181,
    "name": "台南市道路 裕永路與裕農變電所前北桿(向南)-廣角",
    "region": "其他",
    "city": "高雄市/屏東縣",
    "lat": 22.991,
    "lng": 120.241,
    "url": "https://trafficvideo5.tainan.gov.tw/75feb2e4",
    "map": "https://www.google.com/maps?q=22.991,120.241"
  },
  {
    "id": 1182,
    "name": "台南市道路 裕義路與裕英街口北桿(向北)-廣角",
    "region": "其他",
    "city": "高雄市/屏東縣",
    "lat": 22.9869,
    "lng": 120.2479,
    "url": "https://trafficvideo4.tainan.gov.tw/bfb52853",
    "map": "https://www.google.com/maps?q=22.9869,120.2479"
  },
  {
    "id": 1183,
    "name": "台南市道路 裕農路與建東街口北桿(向西)-廣角",
    "region": "其他",
    "city": "高雄市/屏東縣",
    "lat": 22.9888,
    "lng": 120.2372,
    "url": "https://trafficvideo5.tainan.gov.tw/920d1c49",
    "map": "https://www.google.com/maps?q=22.9888,120.2372"
  },
  {
    "id": 1184,
    "name": "台南市道路 裕農路與慈幼工商前南桿(向東)-廣角",
    "region": "其他",
    "city": "高雄市/屏東縣",
    "lat": 22.9891,
    "lng": 120.2398,
    "url": "https://trafficvideo5.tainan.gov.tw/c965b6b9",
    "map": "https://www.google.com/maps?q=22.9891,120.2398"
  },
  {
    "id": 1185,
    "name": "台南市道路 裕農路與裕信路口東桿(向東)-廣角",
    "region": "其他",
    "city": "高雄市/屏東縣",
    "lat": 22.9902,
    "lng": 120.2452,
    "url": "https://trafficvideo5.tainan.gov.tw/5831ffba",
    "map": "https://www.google.com/maps?q=22.9902,120.2452"
  },
  {
    "id": 1186,
    "name": "台南市道路 裕農路與裕信路口東桿(向東)-廣角",
    "region": "其他",
    "city": "高雄市/屏東縣",
    "lat": 22.9902,
    "lng": 120.2452,
    "url": "https://trafficvideo4.tainan.gov.tw/665a6b29",
    "map": "https://www.google.com/maps?q=22.9902,120.2452"
  },
  {
    "id": 1187,
    "name": "台南市道路 裕農路與裕孝路口東桿(向西)-廣角",
    "region": "其他",
    "city": "高雄市/屏東縣",
    "lat": 22.9897,
    "lng": 120.243,
    "url": "https://trafficvideo4.tainan.gov.tw/7a44e145",
    "map": "https://www.google.com/maps?q=22.9897,120.243"
  },
  {
    "id": 1188,
    "name": "台南市道路 裕農路與裕忠路口東桿(向東)-廣角",
    "region": "其他",
    "city": "高雄市/屏東縣",
    "lat": 22.9895,
    "lng": 120.2414,
    "url": "https://trafficvideo5.tainan.gov.tw/e1afd509",
    "map": "https://www.google.com/maps?q=22.9895,120.2414"
  },
  {
    "id": 1189,
    "name": "台南市道路 裕農路與裕義路口南桿(向南)-廣角",
    "region": "其他",
    "city": "高雄市/屏東縣",
    "lat": 22.9906,
    "lng": 120.2479,
    "url": "https://trafficvideo5.tainan.gov.tw/3e6212ca",
    "map": "https://www.google.com/maps?q=22.9906,120.2479"
  },
  {
    "id": 1190,
    "name": "台南市道路 裕農路與裕義路口南桿(向西)",
    "region": "其他",
    "city": "高雄市/屏東縣",
    "lat": 22.9906,
    "lng": 120.248,
    "url": "https://trafficvideo.tainan.gov.tw/fa4fdc4a",
    "map": "https://www.google.com/maps?q=22.9906,120.248"
  },
  {
    "id": 1191,
    "name": "台南市道路 裕農路與裕義路口東桿(向西)-廣角",
    "region": "其他",
    "city": "高雄市/屏東縣",
    "lat": 22.9907,
    "lng": 120.2481,
    "url": "https://trafficvideo4.tainan.gov.tw/6bf7afdc",
    "map": "https://www.google.com/maps?q=22.9907,120.2481"
  },
  {
    "id": 1192,
    "name": "台南市道路 裕農路與裕義路口西桿(向東)",
    "region": "其他",
    "city": "高雄市/屏東縣",
    "lat": 22.9906,
    "lng": 120.2476,
    "url": "https://trafficvideo3.tainan.gov.tw/aed99d50",
    "map": "https://www.google.com/maps?q=22.9906,120.2476"
  },
  {
    "id": 1193,
    "name": "台南市道路 裕農路與裕義路口西桿(向東)-廣角",
    "region": "其他",
    "city": "高雄市/屏東縣",
    "lat": 22.9906,
    "lng": 120.2475,
    "url": "https://trafficvideo5.tainan.gov.tw/cc08b5ca",
    "map": "https://www.google.com/maps?q=22.9906,120.2475"
  },
  {
    "id": 1195,
    "name": "台南市道路 西門路一段與健康路一段口(向東)",
    "region": "其他",
    "city": "高雄市/屏東縣",
    "lat": 22.9814,
    "lng": 120.1987,
    "url": "https://trafficvideo3.tainan.gov.tw/1e32f954",
    "map": "https://www.google.com/maps?q=22.9814,120.1987"
  },
  {
    "id": 1196,
    "name": "台南市道路 西門路一段與健康路二段口南桿(向北)",
    "region": "其他",
    "city": "高雄市/屏東縣",
    "lat": 22.9809,
    "lng": 120.1976,
    "url": "https://trafficvideo2.tainan.gov.tw/82565bca",
    "map": "https://www.google.com/maps?q=22.9809,120.1976"
  },
  {
    "id": 1197,
    "name": "台南市道路 西門路一段與府前路一段口(南桿)",
    "region": "其他",
    "city": "高雄市/屏東縣",
    "lat": 22.9902,
    "lng": 120.1977,
    "url": "https://trafficvideo.tainan.gov.tw/172021006100",
    "map": "https://www.google.com/maps?q=22.9902,120.1977"
  },
  {
    "id": 1198,
    "name": "台南市道路 西門路一段與府前路一段口(東桿)",
    "region": "其他",
    "city": "高雄市/屏東縣",
    "lat": 22.9904,
    "lng": 120.1979,
    "url": "https://trafficvideo.tainan.gov.tw/172022002100",
    "map": "https://www.google.com/maps?q=22.9904,120.1979"
  },
  {
    "id": 1199,
    "name": "台南市道路 西門路一段與府前路一段口(西桿)",
    "region": "其他",
    "city": "高雄市/屏東縣",
    "lat": 22.9906,
    "lng": 120.1975,
    "url": "https://trafficvideo.tainan.gov.tw/172022001100",
    "map": "https://www.google.com/maps?q=22.9906,120.1975"
  },
  {
    "id": 1200,
    "name": "台南市道路 西門路一段與永華路一段口北桿(向南)",
    "region": "其他",
    "city": "高雄市/屏東縣",
    "lat": 22.9876,
    "lng": 120.1975,
    "url": "https://trafficvideo4.tainan.gov.tw/2382536d",
    "map": "https://www.google.com/maps?q=22.9876,120.1975"
  },
  {
    "id": 1202,
    "name": "台南市道路 西門路二段與民族路二段口(東桿)",
    "region": "其他",
    "city": "高雄市/屏東縣",
    "lat": 22.9975,
    "lng": 120.2003,
    "url": "https://trafficvideo.tainan.gov.tw/81a6ca86",
    "map": "https://www.google.com/maps?q=22.9975,120.2003"
  },
  {
    "id": 1203,
    "name": "台南市道路 西門路二段與民族路二段口(西桿)",
    "region": "其他",
    "city": "高雄市/屏東縣",
    "lat": 22.9976,
    "lng": 120.1999,
    "url": "https://trafficvideo.tainan.gov.tw/2defd286",
    "map": "https://www.google.com/maps?q=22.9976,120.1999"
  },
  {
    "id": 1204,
    "name": "台南市道路 西門路二段與民生路二段口(北桿)",
    "region": "其他",
    "city": "高雄市/屏東縣",
    "lat": 22.9947,
    "lng": 120.1993,
    "url": "https://trafficvideo.tainan.gov.tw/872b483c",
    "map": "https://www.google.com/maps?q=22.9947,120.1993"
  },
  {
    "id": 1205,
    "name": "台南市道路 西門路二段與民生路二段口(南桿)",
    "region": "其他",
    "city": "高雄市/屏東縣",
    "lat": 22.9942,
    "lng": 120.1991,
    "url": "https://trafficvideo.tainan.gov.tw/6613275b",
    "map": "https://www.google.com/maps?q=22.9942,120.1991"
  },
  {
    "id": 1210,
    "name": "台南市道路 遊憩碼頭停車場",
    "region": "其他",
    "city": "高雄市/屏東縣",
    "lat": 22.9976,
    "lng": 120.1605,
    "url": "https://trafficvideo2.tainan.gov.tw/192168234003",
    "map": "https://www.google.com/maps?q=22.9976,120.1605"
  },
  {
    "id": 1211,
    "name": "台南市道路 金華新路與星鑽路口北桿(向南)",
    "region": "其他",
    "city": "高雄市/屏東縣",
    "lat": 22.9954,
    "lng": 120.1887,
    "url": "https://trafficvideo3.tainan.gov.tw/1dfb6497",
    "map": "https://www.google.com/maps?q=22.9954,120.1887"
  },
  {
    "id": 1212,
    "name": "台南市道路 金華路三段與中正路口北桿(向南)",
    "region": "其他",
    "city": "高雄市/屏東縣",
    "lat": 22.994,
    "lng": 120.1934,
    "url": "https://trafficvideo3.tainan.gov.tw/ffe6ffc2",
    "map": "https://www.google.com/maps?q=22.994,120.1934"
  },
  {
    "id": 1213,
    "name": "台南市道路 金華路三段與中正路口南桿(向南)",
    "region": "其他",
    "city": "高雄市/屏東縣",
    "lat": 22.994,
    "lng": 120.1934,
    "url": "https://trafficvideo5.tainan.gov.tw/c35e399e",
    "map": "https://www.google.com/maps?q=22.994,120.1934"
  },
  {
    "id": 1214,
    "name": "台南市道路 金華路三段與府前路二段口(北桿)",
    "region": "其他",
    "city": "高雄市/屏東縣",
    "lat": 22.9916,
    "lng": 120.1928,
    "url": "https://trafficvideo.tainan.gov.tw/172021001100",
    "map": "https://www.google.com/maps?q=22.9916,120.1928"
  },
  {
    "id": 1215,
    "name": "台南市道路 金華路三段與府前路二段口(南桿)",
    "region": "其他",
    "city": "高雄市/屏東縣",
    "lat": 22.9913,
    "lng": 120.1927,
    "url": "https://trafficvideo.tainan.gov.tw/172021002100",
    "map": "https://www.google.com/maps?q=22.9913,120.1927"
  },
  {
    "id": 1235,
    "name": "台南市道路 長榮路一段與府連東路口東桿(向西)",
    "region": "其他",
    "city": "高雄市/屏東縣",
    "lat": 22.9842,
    "lng": 120.2181,
    "url": "https://trafficvideo3.tainan.gov.tw/7c266c46",
    "map": "https://www.google.com/maps?q=22.9842,120.2181"
  },
  {
    "id": 1238,
    "name": "台南市道路 關廟區 關新路一段與悠然山莊前北桿(向南)",
    "region": "其他",
    "city": "高雄市/屏東縣",
    "lat": 22.977,
    "lng": 120.3161,
    "url": "https://trafficvideo3.tainan.gov.tw/d51eb5bf",
    "map": "https://www.google.com/maps?q=22.977,120.3161"
  },
  {
    "id": 1239,
    "name": "台南市道路 青年路與前鋒路口西桿(向東)",
    "region": "其他",
    "city": "高雄市/屏東縣",
    "lat": 22.9915,
    "lng": 120.213,
    "url": "https://trafficvideo.tainan.gov.tw/5f8fbfe9",
    "map": "https://www.google.com/maps?q=22.9915,120.213"
  },
  {
    "id": 1249,
    "name": "台東縣道路 中山路",
    "region": "其他",
    "city": "高雄市/屏東縣",
    "lat": 22.7627,
    "lng": 121.1579,
    "url": "https://trafficvideo.ttcpb.gov.tw/1c549981",
    "map": "https://www.google.com/maps?q=22.7627,121.1579"
  },
  {
    "id": 1250,
    "name": "台東縣道路 中正路",
    "region": "其他",
    "city": "高雄市/屏東縣",
    "lat": 22.7552,
    "lng": 121.1541,
    "url": "https://trafficvideo.ttcpb.gov.tw/08bcb385",
    "map": "https://www.google.com/maps?q=22.7552,121.1541"
  },
  {
    "id": 1251,
    "name": "台東縣道路 中興路一段",
    "region": "其他",
    "city": "高雄市/屏東縣",
    "lat": 22.7662,
    "lng": 121.1334,
    "url": "https://trafficvideo.ttcpb.gov.tw/18ad80de",
    "map": "https://www.google.com/maps?q=22.7662,121.1334"
  },
  {
    "id": 1252,
    "name": "台東縣道路 中興路二段",
    "region": "其他",
    "city": "高雄市/屏東縣",
    "lat": 22.769,
    "lng": 121.1209,
    "url": "https://trafficvideo.ttcpb.gov.tw/54484607",
    "map": "https://www.google.com/maps?q=22.769,121.1209"
  },
  {
    "id": 1253,
    "name": "台東縣道路 中華路一段",
    "region": "其他",
    "city": "高雄市/屏東縣",
    "lat": 22.7511,
    "lng": 121.15,
    "url": "https://trafficvideo.ttcpb.gov.tw/39eab823",
    "map": "https://www.google.com/maps?q=22.7511,121.15"
  },
  {
    "id": 1254,
    "name": "台東縣道路 中華路一段",
    "region": "其他",
    "city": "高雄市/屏東縣",
    "lat": 22.7473,
    "lng": 121.1441,
    "url": "https://trafficvideo.ttcpb.gov.tw/7fbd0a27",
    "map": "https://www.google.com/maps?q=22.7473,121.1441"
  },
  {
    "id": 1255,
    "name": "台東縣道路 中華路一段",
    "region": "其他",
    "city": "高雄市/屏東縣",
    "lat": 22.7526,
    "lng": 121.1515,
    "url": "https://trafficvideo.ttcpb.gov.tw/9e79f5d0",
    "map": "https://www.google.com/maps?q=22.7526,121.1515"
  },
  {
    "id": 1256,
    "name": "台東縣道路 中華路一段",
    "region": "其他",
    "city": "高雄市/屏東縣",
    "lat": 22.7605,
    "lng": 121.1592,
    "url": "https://trafficvideo.ttcpb.gov.tw/d1ff9152",
    "map": "https://www.google.com/maps?q=22.7605,121.1592"
  },
  {
    "id": 1257,
    "name": "台東縣道路 中華路一段 臺9縣/柑園路口",
    "region": "其他",
    "city": "高雄市/屏東縣",
    "lat": 22.8981,
    "lng": 121.1122,
    "url": "https://trafficvideo.ttcpb.gov.tw/635e86f0",
    "map": "https://www.google.com/maps?q=22.8981,121.1122"
  },
  {
    "id": 1258,
    "name": "台東縣道路 中華路二段",
    "region": "其他",
    "city": "高雄市/屏東縣",
    "lat": 22.746,
    "lng": 121.1416,
    "url": "https://trafficvideo.ttcpb.gov.tw/7847ac3c",
    "map": "https://www.google.com/maps?q=22.746,121.1416"
  },
  {
    "id": 1259,
    "name": "台東縣道路 中華路二段",
    "region": "其他",
    "city": "高雄市/屏東縣",
    "lat": 22.7436,
    "lng": 121.1364,
    "url": "https://trafficvideo.ttcpb.gov.tw/fe726b7a",
    "map": "https://www.google.com/maps?q=22.7436,121.1364"
  },
  {
    "id": 1260,
    "name": "台東縣道路 信義路",
    "region": "其他",
    "city": "高雄市/屏東縣",
    "lat": 22.7502,
    "lng": 121.1517,
    "url": "https://trafficvideo.ttcpb.gov.tw/1d79b42d",
    "map": "https://www.google.com/maps?q=22.7502,121.1517"
  },
  {
    "id": 1261,
    "name": "台東縣道路 博愛路",
    "region": "其他",
    "city": "高雄市/屏東縣",
    "lat": 22.7536,
    "lng": 121.145,
    "url": "https://trafficvideo.ttcpb.gov.tw/3fda0c31",
    "map": "https://www.google.com/maps?q=22.7536,121.145"
  },
  {
    "id": 1262,
    "name": "台東縣道路 吉林路二段",
    "region": "其他",
    "city": "高雄市/屏東縣",
    "lat": 22.7923,
    "lng": 121.1855,
    "url": "https://trafficvideo.ttcpb.gov.tw/71019bab",
    "map": "https://www.google.com/maps?q=22.7923,121.1855"
  },
  {
    "id": 1263,
    "name": "台東縣道路 吉林路二段",
    "region": "其他",
    "city": "高雄市/屏東縣",
    "lat": 22.792,
    "lng": 121.1853,
    "url": "https://trafficvideo.ttcpb.gov.tw/712f1754",
    "map": "https://www.google.com/maps?q=22.792,121.1853"
  },
  {
    "id": 1264,
    "name": "台東縣道路 吉林路二段",
    "region": "其他",
    "city": "高雄市/屏東縣",
    "lat": 22.792,
    "lng": 121.1854,
    "url": "https://trafficvideo.ttcpb.gov.tw/8e1f9bb5",
    "map": "https://www.google.com/maps?q=22.792,121.1854"
  },
  {
    "id": 1265,
    "name": "台東縣道路 吉林路二段",
    "region": "其他",
    "city": "高雄市/屏東縣",
    "lat": 22.7921,
    "lng": 121.1854,
    "url": "https://trafficvideo.ttcpb.gov.tw/a97ad8bb",
    "map": "https://www.google.com/maps?q=22.7921,121.1854"
  },
  {
    "id": 1266,
    "name": "台東縣道路 吉林路二段",
    "region": "其他",
    "city": "高雄市/屏東縣",
    "lat": 22.7921,
    "lng": 121.1855,
    "url": "https://trafficvideo.ttcpb.gov.tw/ca70c250",
    "map": "https://www.google.com/maps?q=22.7921,121.1855"
  },
  {
    "id": 1267,
    "name": "台東縣道路 吉林路二段",
    "region": "其他",
    "city": "高雄市/屏東縣",
    "lat": 22.7889,
    "lng": 121.1834,
    "url": "https://trafficvideo.ttcpb.gov.tw/eb18a47a",
    "map": "https://www.google.com/maps?q=22.7889,121.1834"
  },
  {
    "id": 1268,
    "name": "台東縣道路 四維路二段",
    "region": "其他",
    "city": "高雄市/屏東縣",
    "lat": 22.7635,
    "lng": 121.1517,
    "url": "https://trafficvideo.ttcpb.gov.tw/2538a62c",
    "map": "https://www.google.com/maps?q=22.7635,121.1517"
  },
  {
    "id": 1269,
    "name": "台東縣道路 富岡街",
    "region": "其他",
    "city": "高雄市/屏東縣",
    "lat": 22.7922,
    "lng": 121.1856,
    "url": "https://trafficvideo.ttcpb.gov.tw/fa7fbe21",
    "map": "https://www.google.com/maps?q=22.7922,121.1856"
  },
  {
    "id": 1270,
    "name": "台東縣道路 志航路一段",
    "region": "其他",
    "city": "高雄市/屏東縣",
    "lat": 22.7765,
    "lng": 121.127,
    "url": "https://trafficvideo.ttcpb.gov.tw/29fc0312",
    "map": "https://www.google.com/maps?q=22.7765,121.127"
  },
  {
    "id": 1271,
    "name": "台東縣道路 忠孝路 臺9縣 梅園路口",
    "region": "其他",
    "city": "高雄市/屏東縣",
    "lat": 22.8592,
    "lng": 121.0923,
    "url": "https://trafficvideo.ttcpb.gov.tw/816f8bc6",
    "map": "https://www.google.com/maps?q=22.8592,121.0923"
  },
  {
    "id": 1272,
    "name": "台東縣道路 新生路",
    "region": "其他",
    "city": "高雄市/屏東縣",
    "lat": 22.7573,
    "lng": 121.1429,
    "url": "https://trafficvideo.ttcpb.gov.tw/05ee7e0e",
    "map": "https://www.google.com/maps?q=22.7573,121.1429"
  },
  {
    "id": 1273,
    "name": "台東縣道路 新生路",
    "region": "其他",
    "city": "高雄市/屏東縣",
    "lat": 22.7544,
    "lng": 121.1459,
    "url": "https://trafficvideo.ttcpb.gov.tw/0a784caf",
    "map": "https://www.google.com/maps?q=22.7544,121.1459"
  },
  {
    "id": 1274,
    "name": "台東縣道路 新生路",
    "region": "其他",
    "city": "高雄市/屏東縣",
    "lat": 22.7572,
    "lng": 121.143,
    "url": "https://trafficvideo.ttcpb.gov.tw/4575a511",
    "map": "https://www.google.com/maps?q=22.7572,121.143"
  },
  {
    "id": 1275,
    "name": "台東縣道路 新生路",
    "region": "其他",
    "city": "高雄市/屏東縣",
    "lat": 22.7633,
    "lng": 121.1361,
    "url": "https://trafficvideo.ttcpb.gov.tw/6247ab39",
    "map": "https://www.google.com/maps?q=22.7633,121.1361"
  },
  {
    "id": 1276,
    "name": "台東縣道路 新生路",
    "region": "其他",
    "city": "高雄市/屏東縣",
    "lat": 22.7602,
    "lng": 121.1392,
    "url": "https://trafficvideo.ttcpb.gov.tw/6ad09683",
    "map": "https://www.google.com/maps?q=22.7602,121.1392"
  },
  {
    "id": 1277,
    "name": "台東縣道路 新生路",
    "region": "其他",
    "city": "高雄市/屏東縣",
    "lat": 22.7553,
    "lng": 121.145,
    "url": "https://trafficvideo.ttcpb.gov.tw/a01a37fc",
    "map": "https://www.google.com/maps?q=22.7553,121.145"
  },
  {
    "id": 1278,
    "name": "台東縣道路 新生路",
    "region": "其他",
    "city": "高雄市/屏東縣",
    "lat": 22.7527,
    "lng": 121.148,
    "url": "https://trafficvideo.ttcpb.gov.tw/cc00f228",
    "map": "https://www.google.com/maps?q=22.7527,121.148"
  },
  {
    "id": 1279,
    "name": "台東縣道路 新興路",
    "region": "其他",
    "city": "高雄市/屏東縣",
    "lat": 22.7944,
    "lng": 121.1235,
    "url": "https://trafficvideo.ttcpb.gov.tw/025e92ee",
    "map": "https://www.google.com/maps?q=22.7944,121.1235"
  },
  {
    "id": 1280,
    "name": "台東縣道路 新興路",
    "region": "其他",
    "city": "高雄市/屏東縣",
    "lat": 22.7931,
    "lng": 121.1233,
    "url": "https://trafficvideo.ttcpb.gov.tw/9c8690be",
    "map": "https://www.google.com/maps?q=22.7931,121.1233"
  },
  {
    "id": 1281,
    "name": "台東縣道路 新興路",
    "region": "其他",
    "city": "高雄市/屏東縣",
    "lat": 22.7944,
    "lng": 121.1235,
    "url": "https://trafficvideo.ttcpb.gov.tw/b5bb56d3",
    "map": "https://www.google.com/maps?q=22.7944,121.1235"
  },
  {
    "id": 1282,
    "name": "台東縣道路 新興路",
    "region": "其他",
    "city": "高雄市/屏東縣",
    "lat": 22.7931,
    "lng": 121.1233,
    "url": "https://trafficvideo.ttcpb.gov.tw/d654a481",
    "map": "https://www.google.com/maps?q=22.7931,121.1233"
  },
  {
    "id": 1283,
    "name": "台東縣道路 更生北路",
    "region": "其他",
    "city": "高雄市/屏東縣",
    "lat": 22.7884,
    "lng": 121.1117,
    "url": "https://trafficvideo.ttcpb.gov.tw/821c6f3a",
    "map": "https://www.google.com/maps?q=22.7884,121.1117"
  },
  {
    "id": 1284,
    "name": "台東縣道路 更生北路",
    "region": "其他",
    "city": "高雄市/屏東縣",
    "lat": 22.7772,
    "lng": 121.1266,
    "url": "https://trafficvideo.ttcpb.gov.tw/e5cd69f5",
    "map": "https://www.google.com/maps?q=22.7772,121.1266"
  },
  {
    "id": 1285,
    "name": "台東縣道路 更生路",
    "region": "其他",
    "city": "高雄市/屏東縣",
    "lat": 22.7767,
    "lng": 121.1272,
    "url": "https://trafficvideo.ttcpb.gov.tw/47d4a486",
    "map": "https://www.google.com/maps?q=22.7767,121.1272"
  },
  {
    "id": 1286,
    "name": "台東縣道路 更生路",
    "region": "其他",
    "city": "高雄市/屏東縣",
    "lat": 22.768,
    "lng": 121.1364,
    "url": "https://trafficvideo.ttcpb.gov.tw/8303bde3",
    "map": "https://www.google.com/maps?q=22.768,121.1364"
  },
  {
    "id": 1287,
    "name": "台東縣道路 更生路",
    "region": "其他",
    "city": "高雄市/屏東縣",
    "lat": 22.7614,
    "lng": 121.1439,
    "url": "https://trafficvideo.ttcpb.gov.tw/9dce6ff1",
    "map": "https://www.google.com/maps?q=22.7614,121.1439"
  },
  {
    "id": 1288,
    "name": "台東縣道路 正氣北路",
    "region": "其他",
    "city": "高雄市/屏東縣",
    "lat": 22.7566,
    "lng": 121.1402,
    "url": "https://trafficvideo.ttcpb.gov.tw/092a7689",
    "map": "https://www.google.com/maps?q=22.7566,121.1402"
  },
  {
    "id": 1289,
    "name": "台東縣道路 正氣北路",
    "region": "其他",
    "city": "高雄市/屏東縣",
    "lat": 22.755,
    "lng": 121.1314,
    "url": "https://trafficvideo.ttcpb.gov.tw/63c07802",
    "map": "https://www.google.com/maps?q=22.755,121.1314"
  },
  {
    "id": 1290,
    "name": "台東縣道路 正氣北路",
    "region": "其他",
    "city": "高雄市/屏東縣",
    "lat": 22.7573,
    "lng": 121.1428,
    "url": "https://trafficvideo.ttcpb.gov.tw/8ee7af26",
    "map": "https://www.google.com/maps?q=22.7573,121.1428"
  },
  {
    "id": 1291,
    "name": "台東縣道路 正氣路",
    "region": "其他",
    "city": "高雄市/屏東縣",
    "lat": 22.7573,
    "lng": 121.1429,
    "url": "https://trafficvideo.ttcpb.gov.tw/6a7cf4ee",
    "map": "https://www.google.com/maps?q=22.7573,121.1429"
  },
  {
    "id": 1292,
    "name": "台東縣道路 賓朗路",
    "region": "其他",
    "city": "高雄市/屏東縣",
    "lat": 22.8007,
    "lng": 121.0949,
    "url": "https://trafficvideo.ttcpb.gov.tw/1206eb38",
    "map": "https://www.google.com/maps?q=22.8007,121.0949"
  },
  {
    "id": 1293,
    "name": "台東縣道路 賓朗路",
    "region": "其他",
    "city": "高雄市/屏東縣",
    "lat": 22.8006,
    "lng": 121.0951,
    "url": "https://trafficvideo.ttcpb.gov.tw/1d022baf",
    "map": "https://www.google.com/maps?q=22.8006,121.0951"
  },
  {
    "id": 1294,
    "name": "台東縣道路 賓朗路",
    "region": "其他",
    "city": "高雄市/屏東縣",
    "lat": 22.8009,
    "lng": 121.0947,
    "url": "https://trafficvideo.ttcpb.gov.tw/475fff7c",
    "map": "https://www.google.com/maps?q=22.8009,121.0947"
  },
  {
    "id": 1295,
    "name": "台東縣道路 賓朗路",
    "region": "其他",
    "city": "高雄市/屏東縣",
    "lat": 22.8009,
    "lng": 121.0947,
    "url": "https://trafficvideo.ttcpb.gov.tw/5d1482e3",
    "map": "https://www.google.com/maps?q=22.8009,121.0947"
  },
  {
    "id": 1296,
    "name": "台東縣道路 賓朗路",
    "region": "其他",
    "city": "高雄市/屏東縣",
    "lat": 22.8012,
    "lng": 121.0945,
    "url": "https://trafficvideo.ttcpb.gov.tw/8e95ebb3",
    "map": "https://www.google.com/maps?q=22.8012,121.0945"
  },
  {
    "id": 1297,
    "name": "台東縣道路 賓朗路 臺9縣 頂永豐聯絡道路(檳榔橋北端)",
    "region": "其他",
    "city": "高雄市/屏東縣",
    "lat": 22.8114,
    "lng": 121.0894,
    "url": "https://trafficvideo.ttcpb.gov.tw/3ea3d588",
    "map": "https://www.google.com/maps?q=22.8114,121.0894"
  },
  {
    "id": 1298,
    "name": "台東縣道路 賓朗路283巷",
    "region": "其他",
    "city": "高雄市/屏東縣",
    "lat": 22.8003,
    "lng": 121.0941,
    "url": "https://trafficvideo.ttcpb.gov.tw/30ae8de7",
    "map": "https://www.google.com/maps?q=22.8003,121.0941"
  },
  {
    "id": 1299,
    "name": "台東縣道路 賓朗路283巷",
    "region": "其他",
    "city": "高雄市/屏東縣",
    "lat": 22.8004,
    "lng": 121.0941,
    "url": "https://trafficvideo.ttcpb.gov.tw/d4676640",
    "map": "https://www.google.com/maps?q=22.8004,121.0941"
  },
  {
    "id": 1300,
    "name": "台東縣道路 賓朗路283巷",
    "region": "其他",
    "city": "高雄市/屏東縣",
    "lat": 22.8007,
    "lng": 121.0944,
    "url": "https://trafficvideo.ttcpb.gov.tw/d8d2fb28",
    "map": "https://www.google.com/maps?q=22.8007,121.0944"
  },
  {
    "id": 1301,
    "name": "台東縣道路 賓朗路283巷",
    "region": "其他",
    "city": "高雄市/屏東縣",
    "lat": 22.8004,
    "lng": 121.0941,
    "url": "https://trafficvideo.ttcpb.gov.tw/e6c29c36",
    "map": "https://www.google.com/maps?q=22.8004,121.0941"
  },
  {
    "id": 1302,
    "name": "台東縣道路 連航路",
    "region": "其他",
    "city": "高雄市/屏東縣",
    "lat": 22.777,
    "lng": 121.1269,
    "url": "https://trafficvideo.ttcpb.gov.tw/69f48bbd",
    "map": "https://www.google.com/maps?q=22.777,121.1269"
  },
  {
    "id": 1303,
    "name": "台東縣道路 連航路",
    "region": "其他",
    "city": "高雄市/屏東縣",
    "lat": 22.7772,
    "lng": 121.127,
    "url": "https://trafficvideo.ttcpb.gov.tw/d436f7c2",
    "map": "https://www.google.com/maps?q=22.7772,121.127"
  },
  {
    "id": 1304,
    "name": "台東縣道路 開封街",
    "region": "其他",
    "city": "高雄市/屏東縣",
    "lat": 22.7588,
    "lng": 121.1371,
    "url": "https://trafficvideo.ttcpb.gov.tw/f1392a2c",
    "map": "https://www.google.com/maps?q=22.7588,121.1371"
  },
  {
    "id": 1305,
    "name": "台東金崙大橋",
    "region": "其他",
    "city": "高雄市/屏東縣",
    "lat": 22.5344,
    "lng": 120.9688,
    "url": "https://i.ytimg.com/vi/9QqBz3kNHis/sddefault_live.jpg",
    "map": "https://www.google.com/maps?q=22.5344,120.9688"
  },
  {
    "id": 1448,
    "name": "屏東縣道路 臺1線-縣189大溪路(高屏大橋-往高雄路燈桿)",
    "region": "其他",
    "city": "高雄市/屏東縣",
    "lat": 22.6508,
    "lng": 120.45,
    "url": "https://cctv-ss05.thb.gov.tw:443/T1-393K+000-2",
    "map": "https://www.google.com/maps?q=22.6508,120.45"
  },
  {
    "id": 1449,
    "name": "屏東縣道路 臺1線-縣189大溪路(鳳屏工務段)",
    "region": "其他",
    "city": "高雄市/屏東縣",
    "lat": 22.6505,
    "lng": 120.4502,
    "url": "https://cctv-ss05.thb.gov.tw:443/T1-393K+000-1",
    "map": "https://www.google.com/maps?q=22.6505,120.4502"
  },
  {
    "id": 1462,
    "name": "屏東縣道路 臺3線-堤防路",
    "region": "其他",
    "city": "高雄市/屏東縣",
    "lat": 22.7076,
    "lng": 120.4881,
    "url": "https://cctv-ss05.thb.gov.tw:443/T3-426K+800",
    "map": "https://www.google.com/maps?q=22.7076,120.4881"
  },
  {
    "id": 2431,
    "name": "環境部空氣品質監測站 前鎮",
    "region": "其他",
    "city": "高雄市/屏東縣",
    "lat": 22.6045,
    "lng": 120.3083,
    "url": "https://cctv3.kctmc.nat.gov.tw/afcdd0a1/",
    "map": "https://www.google.com/maps?q=22.6045,120.3083"
  },
  {
    "id": 2529,
    "name": "高雄市道路 一心一路、凱旋三路(西北角)",
    "region": "其他",
    "city": "高雄市/屏東縣",
    "lat": 22.6052,
    "lng": 120.3246,
    "url": "https://cctv3.kctmc.nat.gov.tw/92b222cc/",
    "map": "https://www.google.com/maps?q=22.6052,120.3246"
  },
  {
    "id": 2530,
    "name": "高雄市道路 一心一路、凱旋四路(西南角)",
    "region": "其他",
    "city": "高雄市/屏東縣",
    "lat": 22.6051,
    "lng": 120.3246,
    "url": "https://cctv3.kctmc.nat.gov.tw/f33c1871/",
    "map": "https://www.google.com/maps?q=22.6051,120.3246"
  },
  {
    "id": 2531,
    "name": "高雄市道路 一心一路、和平二路(西南角)",
    "region": "其他",
    "city": "高雄市/屏東縣",
    "lat": 22.6069,
    "lng": 120.3206,
    "url": "https://cctv3.kctmc.nat.gov.tw/d13c514b/",
    "map": "https://www.google.com/maps?q=22.6069,120.3206"
  },
  {
    "id": 2532,
    "name": "高雄市道路 七賢一路、和平一路",
    "region": "其他",
    "city": "高雄市/屏東縣",
    "lat": 22.6337,
    "lng": 120.3167,
    "url": "https://cctv4.kctmc.nat.gov.tw/44384437/",
    "map": "https://www.google.com/maps?q=22.6337,120.3167"
  },
  {
    "id": 2533,
    "name": "高雄市道路 七賢三路、蓬萊路",
    "region": "其他",
    "city": "高雄市/屏東縣",
    "lat": 22.6209,
    "lng": 120.2791,
    "url": "https://cctv2.kctmc.nat.gov.tw/2be121db/",
    "map": "https://www.google.com/maps?q=22.6209,120.2791"
  },
  {
    "id": 2534,
    "name": "高雄市道路 三多一路、河北路(東北角)",
    "region": "其他",
    "city": "高雄市/屏東縣",
    "lat": 22.6228,
    "lng": 120.3314,
    "url": "https://cctv3.kctmc.nat.gov.tw/9def234c/",
    "map": "https://www.google.com/maps?q=22.6228,120.3314"
  },
  {
    "id": 2535,
    "name": "高雄市道路 三多一路、河南路(西南角)",
    "region": "其他",
    "city": "高雄市/屏東縣",
    "lat": 22.6227,
    "lng": 120.3311,
    "url": "https://cctv3.kctmc.nat.gov.tw/73b5a8a2/",
    "map": "https://www.google.com/maps?q=22.6227,120.3311"
  },
  {
    "id": 2536,
    "name": "高雄市道路 三多一路、輔仁路(東南角)",
    "region": "其他",
    "city": "高雄市/屏東縣",
    "lat": 22.6235,
    "lng": 120.3334,
    "url": "https://cctv3.kctmc.nat.gov.tw/50bc6c50/",
    "map": "https://www.google.com/maps?q=22.6235,120.3334"
  },
  {
    "id": 2537,
    "name": "高雄市道路 三多一路、高速公路(東側)",
    "region": "其他",
    "city": "高雄市/屏東縣",
    "lat": 22.624,
    "lng": 120.3368,
    "url": "https://cctv3.kctmc.nat.gov.tw/166157d9/",
    "map": "https://www.google.com/maps?q=22.624,120.3368"
  },
  {
    "id": 2538,
    "name": "高雄市道路 三多二路、福德三路(東北角)",
    "region": "其他",
    "city": "高雄市/屏東縣",
    "lat": 22.6216,
    "lng": 120.3278,
    "url": "https://cctv3.kctmc.nat.gov.tw/44950c71/",
    "map": "https://www.google.com/maps?q=22.6216,120.3278"
  },
  {
    "id": 2539,
    "name": "高雄市道路 三多五路、成功二路(西北角)",
    "region": "其他",
    "city": "高雄市/屏東縣",
    "lat": 22.612,
    "lng": 120.2984,
    "url": "https://cctv3.kctmc.nat.gov.tw/c50d5e7c/",
    "map": "https://www.google.com/maps?q=22.612,120.2984"
  },
  {
    "id": 2540,
    "name": "高雄市道路 三多路、衛武營站3號出口",
    "region": "其他",
    "city": "高雄市/屏東縣",
    "lat": 22.6245,
    "lng": 120.3412,
    "url": "https://cctv1.kctmc.nat.gov.tw/1761ad24/",
    "map": "https://www.google.com/maps?q=22.6245,120.3412"
  },
  {
    "id": 2544,
    "name": "高雄市道路 世運大道、國訓中心前",
    "region": "其他",
    "city": "高雄市/屏東縣",
    "lat": 22.7006,
    "lng": 120.2937,
    "url": "https://cctv4.kctmc.nat.gov.tw/92f2f4e3/",
    "map": "https://www.google.com/maps?q=22.7006,120.2937"
  },
  {
    "id": 2545,
    "name": "高雄市道路 中安路、明鳳七街(西北角)",
    "region": "其他",
    "city": "高雄市/屏東縣",
    "lat": 22.5831,
    "lng": 120.3346,
    "url": "https://cctv4.kctmc.nat.gov.tw/ea8cc67a/",
    "map": "https://www.google.com/maps?q=22.5831,120.3346"
  },
  {
    "id": 2546,
    "name": "高雄市道路 中山一路、七賢一路(東南角)",
    "region": "其他",
    "city": "高雄市/屏東縣",
    "lat": 22.6344,
    "lng": 120.3024,
    "url": "https://cctv2.kctmc.nat.gov.tw/fa18524c/",
    "map": "https://www.google.com/maps?q=22.6344,120.3024"
  },
  {
    "id": 2547,
    "name": "高雄市道路 中山一路、中正三路",
    "region": "其他",
    "city": "高雄市/屏東縣",
    "lat": 22.6314,
    "lng": 120.3022,
    "url": "https://cctv9.kctmc.nat.gov.tw/98cd6bd1/",
    "map": "https://www.google.com/maps?q=22.6314,120.3022"
  },
  {
    "id": 2549,
    "name": "高雄市道路 中山一路、八德二路(西北角)",
    "region": "其他",
    "city": "高雄市/屏東縣",
    "lat": 22.636,
    "lng": 120.3024,
    "url": "https://cctv6.kctmc.nat.gov.tw/75ebb7f4/",
    "map": "https://www.google.com/maps?q=22.636,120.3024"
  },
  {
    "id": 2551,
    "name": "高雄市道路 中山三路、凱旋四路",
    "region": "其他",
    "city": "高雄市/屏東縣",
    "lat": 22.5963,
    "lng": 120.3164,
    "url": "https://cctv3.kctmc.nat.gov.tw/3cb70392/",
    "map": "https://www.google.com/maps?q=22.5963,120.3164"
  },
  {
    "id": 2552,
    "name": "高雄市道路 中山三路、凱旋四路(輕軌旁)",
    "region": "其他",
    "city": "高雄市/屏東縣",
    "lat": 22.5958,
    "lng": 120.3157,
    "url": "https://cctv3.kctmc.nat.gov.tw/3cb70392/",
    "map": "https://www.google.com/maps?q=22.5958,120.3157"
  },
  {
    "id": 2553,
    "name": "高雄市道路 中山三路、時代大道",
    "region": "其他",
    "city": "高雄市/屏東縣",
    "lat": 22.5987,
    "lng": 120.3138,
    "url": "https://cctv4.kctmc.nat.gov.tw/fcd4f79a/",
    "map": "https://www.google.com/maps?q=22.5987,120.3138"
  },
  {
    "id": 2554,
    "name": "高雄市道路 中山三路、民權二路",
    "region": "其他",
    "city": "高雄市/屏東縣",
    "lat": 22.605,
    "lng": 120.3089,
    "url": "https://cctv3.kctmc.nat.gov.tw/afcdd0a1/",
    "map": "https://www.google.com/maps?q=22.605,120.3089"
  },
  {
    "id": 2556,
    "name": "高雄市道路 中山二路、四維四路(東南角)",
    "region": "其他",
    "city": "高雄市/屏東縣",
    "lat": 22.6168,
    "lng": 120.3036,
    "url": "https://cctv9.kctmc.nat.gov.tw/164fafed/",
    "map": "https://www.google.com/maps?q=22.6168,120.3036"
  },
  {
    "id": 2557,
    "name": "高雄市道路 中山二路、復興三路(西北角)",
    "region": "其他",
    "city": "高雄市/屏東縣",
    "lat": 22.6073,
    "lng": 120.3069,
    "url": "https://cctv3.kctmc.nat.gov.tw/5ac17eb6/",
    "map": "https://www.google.com/maps?q=22.6073,120.3069"
  },
  {
    "id": 2558,
    "name": "高雄市道路 中山二路、新光路(東北角)",
    "region": "其他",
    "city": "高雄市/屏東縣",
    "lat": 22.6125,
    "lng": 120.3053,
    "url": "https://cctv3.kctmc.nat.gov.tw/60f1a317/",
    "map": "https://www.google.com/maps?q=22.6125,120.3053"
  },
  {
    "id": 2559,
    "name": "高雄市道路 中山二路、新田路",
    "region": "其他",
    "city": "高雄市/屏東縣",
    "lat": 22.6216,
    "lng": 120.3016,
    "url": "https://cctv4.kctmc.nat.gov.tw/b37e5d66/",
    "map": "https://www.google.com/maps?q=22.6216,120.3016"
  },
  {
    "id": 2560,
    "name": "高雄市道路 中山北路、中山南路",
    "region": "其他",
    "city": "高雄市/屏東縣",
    "lat": 22.7924,
    "lng": 120.2991,
    "url": "https://cctv2.kctmc.nat.gov.tw/4a967b28/",
    "map": "https://www.google.com/maps?q=22.7924,120.2991"
  },
  {
    "id": 2561,
    "name": "高雄市道路 中山南路、岡山南路",
    "region": "其他",
    "city": "高雄市/屏東縣",
    "lat": 22.78,
    "lng": 120.2988,
    "url": "https://cctv7.kctmc.nat.gov.tw/play/jpg.php?devid={5c1e6270-6a79-acd4-e91b-03c2534d7920}&L=dfe8885c1acbe4c5e5fb91e6d9bd3724",
    "map": "https://www.google.com/maps?q=22.78,120.2988"
  },
  {
    "id": 2562,
    "name": "高雄市道路 中山四路、中安路(東南角)",
    "region": "其他",
    "city": "高雄市/屏東縣",
    "lat": 22.5803,
    "lng": 120.3296,
    "url": "https://cctv6.kctmc.nat.gov.tw/C000222/",
    "map": "https://www.google.com/maps?q=22.5803,120.3296"
  },
  {
    "id": 2563,
    "name": "高雄市道路 中山四路、中平路(西北角)",
    "region": "其他",
    "city": "高雄市/屏東縣",
    "lat": 22.5804,
    "lng": 120.3287,
    "url": "https://cctv6.kctmc.nat.gov.tw/9a4a8e39/",
    "map": "https://www.google.com/maps?q=22.5804,120.3287"
  },
  {
    "id": 2565,
    "name": "高雄市道路 中山四路、平和東路",
    "region": "其他",
    "city": "高雄市/屏東縣",
    "lat": 22.57,
    "lng": 120.3383,
    "url": "https://cctv2.kctmc.nat.gov.tw/c2b6db7f/",
    "map": "https://www.google.com/maps?q=22.57,120.3383"
  },
  {
    "id": 2566,
    "name": "高雄市道路 中山四路、沿海一路(宏平路)",
    "region": "其他",
    "city": "高雄市/屏東縣",
    "lat": 22.5694,
    "lng": 120.3495,
    "url": "https://cctv3.kctmc.nat.gov.tw/f0bc5029/",
    "map": "https://www.google.com/maps?q=22.5694,120.3495"
  },
  {
    "id": 2567,
    "name": "高雄市道路 中山四路、金福路",
    "region": "其他",
    "city": "高雄市/屏東縣",
    "lat": 22.5767,
    "lng": 120.3321,
    "url": "https://cctv4.kctmc.nat.gov.tw/dc1f79cf/",
    "map": "https://www.google.com/maps?q=22.5767,120.3321"
  },
  {
    "id": 2569,
    "name": "高雄市道路 中山西路、光復路二段",
    "region": "其他",
    "city": "高雄市/屏東縣",
    "lat": 22.6295,
    "lng": 120.3395,
    "url": "https://cctv1.kctmc.nat.gov.tw/b5506346/",
    "map": "https://www.google.com/maps?q=22.6295,120.3395"
  },
  {
    "id": 2570,
    "name": "高雄市道路 中山西路、青年路二段",
    "region": "其他",
    "city": "高雄市/屏東縣",
    "lat": 22.6278,
    "lng": 120.3492,
    "url": "https://cctv6.kctmc.nat.gov.tw/a11dfaba/",
    "map": "https://www.google.com/maps?q=22.6278,120.3492"
  },
  {
    "id": 2574,
    "name": "高雄市道路 中正一路、三多一路(建軍路)",
    "region": "其他",
    "city": "高雄市/屏東縣",
    "lat": 22.6247,
    "lng": 120.3424,
    "url": "https://cctv4.kctmc.nat.gov.tw/5470f3c8/",
    "map": "https://www.google.com/maps?q=22.6247,120.3424"
  },
  {
    "id": 2575,
    "name": "高雄市道路 中正一路、凱旋二路",
    "region": "其他",
    "city": "高雄市/屏東縣",
    "lat": 22.63,
    "lng": 120.3217,
    "url": "https://cctv4.kctmc.nat.gov.tw/38cd3775/",
    "map": "https://www.google.com/maps?q=22.63,120.3217"
  },
  {
    "id": 2576,
    "name": "高雄市道路 中正一路、國軍802醫院前",
    "region": "其他",
    "city": "高雄市/屏東縣",
    "lat": 22.6252,
    "lng": 120.3408,
    "url": "https://cctv1.kctmc.nat.gov.tw/a63a6101/",
    "map": "https://www.google.com/maps?q=22.6252,120.3408"
  },
  {
    "id": 2577,
    "name": "高雄市道路 中正一路、河北路(東南角)",
    "region": "其他",
    "city": "高雄市/屏東縣",
    "lat": 22.6297,
    "lng": 120.3235,
    "url": "https://cctv3.kctmc.nat.gov.tw/58445e74/",
    "map": "https://www.google.com/maps?q=22.6297,120.3235"
  },
  {
    "id": 2578,
    "name": "高雄市道路 中正一路、福德路(東北角)",
    "region": "其他",
    "city": "高雄市/屏東縣",
    "lat": 22.6297,
    "lng": 120.3276,
    "url": "https://cctv6.kctmc.nat.gov.tw/54ecdec4/",
    "map": "https://www.google.com/maps?q=22.6297,120.3276"
  },
  {
    "id": 2579,
    "name": "高雄市道路 中正一路、輔仁路(西南角)",
    "region": "其他",
    "city": "高雄市/屏東縣",
    "lat": 22.628,
    "lng": 120.3324,
    "url": "https://cctv1.kctmc.nat.gov.tw/b97d4b00/",
    "map": "https://www.google.com/maps?q=22.628,120.3324"
  },
  {
    "id": 2582,
    "name": "高雄市道路 中正二路、民族二路(東北角)",
    "region": "其他",
    "city": "高雄市/屏東縣",
    "lat": 22.6307,
    "lng": 120.3135,
    "url": "https://cctv6.kctmc.nat.gov.tw/bf834bdc/",
    "map": "https://www.google.com/maps?q=22.6307,120.3135"
  },
  {
    "id": 2583,
    "name": "高雄市道路 中正四路、中華三路",
    "region": "其他",
    "city": "高雄市/屏東縣",
    "lat": 22.6294,
    "lng": 120.2959,
    "url": "https://cctv4.kctmc.nat.gov.tw/b0164bc5/",
    "map": "https://www.google.com/maps?q=22.6294,120.2959"
  },
  {
    "id": 2584,
    "name": "高雄市道路 中正四路、河西路",
    "region": "其他",
    "city": "高雄市/屏東縣",
    "lat": 22.6267,
    "lng": 120.2878,
    "url": "https://cctv2.kctmc.nat.gov.tw/a1c8677c/",
    "map": "https://www.google.com/maps?q=22.6267,120.2878"
  },
  {
    "id": 2586,
    "name": "高雄市道路 中正路交流道北上入口",
    "region": "其他",
    "city": "高雄市/屏東縣",
    "lat": 22.6267,
    "lng": 120.3366,
    "url": "https://cctv2.kctmc.nat.gov.tw/367d924c/",
    "map": "https://www.google.com/maps?q=22.6267,120.3366"
  },
  {
    "id": 2587,
    "name": "高雄市道路 中正路交流道南下入口",
    "region": "其他",
    "city": "高雄市/屏東縣",
    "lat": 22.6269,
    "lng": 120.3358,
    "url": "https://cctv6.kctmc.nat.gov.tw/77c23c50/",
    "map": "https://www.google.com/maps?q=22.6269,120.3358"
  },
  {
    "id": 2588,
    "name": "高雄市道路 中華一路、大順一路",
    "region": "其他",
    "city": "高雄市/屏東縣",
    "lat": 22.6531,
    "lng": 120.2922,
    "url": "https://cctv2.kctmc.nat.gov.tw/648b7b0d/",
    "map": "https://www.google.com/maps?q=22.6531,120.2922"
  },
  {
    "id": 2589,
    "name": "高雄市道路 中華三路、七賢二路",
    "region": "其他",
    "city": "高雄市/屏東縣",
    "lat": 22.6328,
    "lng": 120.2946,
    "url": "https://cctv2.kctmc.nat.gov.tw/0dfc3403/",
    "map": "https://www.google.com/maps?q=22.6328,120.2946"
  },
  {
    "id": 2590,
    "name": "高雄市道路 中華三路、建國三路",
    "region": "其他",
    "city": "高雄市/屏東縣",
    "lat": 22.6369,
    "lng": 120.293,
    "url": "https://cctv7.kctmc.nat.gov.tw/play/jpg.php?devid={7fee3fe7-ed8b-5d34-a9ba-511e4e69cbc8}&L=dfe8885c1acbe4c5e5fb91e6d9bd3724",
    "map": "https://www.google.com/maps?q=22.6369,120.293"
  },
  {
    "id": 2591,
    "name": "高雄市道路 中華三路、民生二路(東北角)",
    "region": "其他",
    "city": "高雄市/屏東縣",
    "lat": 22.626,
    "lng": 120.2971,
    "url": "https://cctv2.kctmc.nat.gov.tw/fbcb389f/",
    "map": "https://www.google.com/maps?q=22.626,120.2971"
  },
  {
    "id": 2592,
    "name": "高雄市道路 中華三路、民生二路(東南角)",
    "region": "其他",
    "city": "高雄市/屏東縣",
    "lat": 22.6258,
    "lng": 120.2974,
    "url": "https://cctv6.kctmc.nat.gov.tw/cf116a1c/",
    "map": "https://www.google.com/maps?q=22.6258,120.2974"
  },
  {
    "id": 2593,
    "name": "高雄市道路 中華二路、九如三路(西南角)",
    "region": "其他",
    "city": "高雄市/屏東縣",
    "lat": 22.6419,
    "lng": 120.2913,
    "url": "https://cctv2.kctmc.nat.gov.tw/e6637f2e/",
    "map": "https://www.google.com/maps?q=22.6419,120.2913"
  },
  {
    "id": 2594,
    "name": "高雄市道路 中華二路、九如二路(東南角)",
    "region": "其他",
    "city": "高雄市/屏東縣",
    "lat": 22.6419,
    "lng": 120.2918,
    "url": "https://cctv6.kctmc.nat.gov.tw/96f73cec/",
    "map": "https://www.google.com/maps?q=22.6419,120.2918"
  },
  {
    "id": 2595,
    "name": "高雄市道路 中華二路、同盟二路",
    "region": "其他",
    "city": "高雄市/屏東縣",
    "lat": 22.6492,
    "lng": 120.292,
    "url": "https://cctv2.kctmc.nat.gov.tw/76df029e/",
    "map": "https://www.google.com/maps?q=22.6492,120.292"
  },
  {
    "id": 2596,
    "name": "高雄市道路 中華五路、凱旋四路",
    "region": "其他",
    "city": "高雄市/屏東縣",
    "lat": 22.5937,
    "lng": 120.3098,
    "url": "https://cctv3.kctmc.nat.gov.tw/3d7b717d/",
    "map": "https://www.google.com/maps?q=22.5937,120.3098"
  },
  {
    "id": 2597,
    "name": "高雄市道路 中華五路、復興三路",
    "region": "其他",
    "city": "高雄市/屏東縣",
    "lat": 22.6065,
    "lng": 120.3048,
    "url": "https://cctv2.kctmc.nat.gov.tw/2c7578ed/",
    "map": "https://www.google.com/maps?q=22.6065,120.3048"
  },
  {
    "id": 2600,
    "name": "高雄市道路 中華四路、三多四路",
    "region": "其他",
    "city": "高雄市/屏東縣",
    "lat": 22.6133,
    "lng": 120.3021,
    "url": "https://cctv2.kctmc.nat.gov.tw/db9c47e1/",
    "map": "https://www.google.com/maps?q=22.6133,120.3021"
  },
  {
    "id": 2602,
    "name": "高雄市道路 中華四路、四維四路",
    "region": "其他",
    "city": "高雄市/屏東縣",
    "lat": 22.6162,
    "lng": 120.301,
    "url": "https://cctv3.kctmc.nat.gov.tw/98cf91d6/",
    "map": "https://www.google.com/maps?q=22.6162,120.301"
  },
  {
    "id": 2604,
    "name": "高雄市道路 中華四路、明誠三路",
    "region": "其他",
    "city": "高雄市/屏東縣",
    "lat": 22.6612,
    "lng": 120.2923,
    "url": "https://cctv1.kctmc.nat.gov.tw/55f8fc17/",
    "map": "https://www.google.com/maps?q=22.6612,120.2923"
  },
  {
    "id": 2605,
    "name": "高雄市道路 中華路、中學路(旗山醫院)",
    "region": "其他",
    "city": "高雄市/屏東縣",
    "lat": 22.8809,
    "lng": 120.4841,
    "url": "https://cctv-ss05.thb.gov.tw:443/T3-405K+950",
    "map": "https://www.google.com/maps?q=22.8809,120.4841"
  },
  {
    "id": 2606,
    "name": "高雄市道路 中華路、延平一路(7-11前)",
    "region": "其他",
    "city": "高雄市/屏東縣",
    "lat": 22.8915,
    "lng": 120.4833,
    "url": "https://cctv6.kctmc.nat.gov.tw/29a2af9a/",
    "map": "https://www.google.com/maps?q=22.8915,120.4833"
  },
  {
    "id": 2607,
    "name": "高雄市道路 中華路、延平二路",
    "region": "其他",
    "city": "高雄市/屏東縣",
    "lat": 22.8821,
    "lng": 120.4849,
    "url": "https://cctv-ss05.thb.gov.tw:443/T3-405K+700",
    "map": "https://www.google.com/maps?q=22.8821,120.4849"
  },
  {
    "id": 2608,
    "name": "高雄市道路 中華路、旗屏路",
    "region": "其他",
    "city": "高雄市/屏東縣",
    "lat": 22.8792,
    "lng": 120.4831,
    "url": "https://cctv7.kctmc.nat.gov.tw/play/jpg.php?devid={ff39948d-cf27-9c94-0108-49d10d808fd9}&L=dfe8885c1acbe4c5e5fb91e6d9bd3724",
    "map": "https://www.google.com/maps?q=22.8792,120.4831"
  },
  {
    "id": 2609,
    "name": "高雄市道路 中華路、美術館路",
    "region": "其他",
    "city": "高雄市/屏東縣",
    "lat": 22.6546,
    "lng": 120.2919,
    "url": "https://cctv1.kctmc.nat.gov.tw/304db5c4/",
    "map": "https://www.google.com/maps?q=22.6546,120.2919"
  },
  {
    "id": 2611,
    "name": "高雄市道路 九如一路、澄清路",
    "region": "其他",
    "city": "高雄市/屏東縣",
    "lat": 22.6362,
    "lng": 120.3443,
    "url": "https://cctv4.kctmc.nat.gov.tw/7bbb0e09/",
    "map": "https://www.google.com/maps?q=22.6362,120.3443"
  },
  {
    "id": 2613,
    "name": "高雄市道路 九如一路、高速公路(東側)",
    "region": "其他",
    "city": "高雄市/屏東縣",
    "lat": 22.6375,
    "lng": 120.3376,
    "url": "https://cctv4.kctmc.nat.gov.tw/ac996f46/",
    "map": "https://www.google.com/maps?q=22.6375,120.3376"
  },
  {
    "id": 2614,
    "name": "高雄市道路 九如一路、高速公路(西側)",
    "region": "其他",
    "city": "高雄市/屏東縣",
    "lat": 22.6375,
    "lng": 120.3367,
    "url": "https://cctv3.kctmc.nat.gov.tw/4f0415e9/",
    "map": "https://www.google.com/maps?q=22.6375,120.3367"
  },
  {
    "id": 2617,
    "name": "高雄市道路 九如二路、松江路",
    "region": "其他",
    "city": "高雄市/屏東縣",
    "lat": 22.6412,
    "lng": 120.3037,
    "url": "https://cctv1.kctmc.nat.gov.tw/6e559e58/",
    "map": "https://www.google.com/maps?q=22.6412,120.3037"
  },
  {
    "id": 2618,
    "name": "高雄市道路 九如二路、自由一路(西南角)",
    "region": "其他",
    "city": "高雄市/屏東縣",
    "lat": 22.6409,
    "lng": 120.3083,
    "url": "https://cctv1.kctmc.nat.gov.tw/b045c1d4/",
    "map": "https://www.google.com/maps?q=22.6409,120.3083"
  },
  {
    "id": 2619,
    "name": "高雄市道路 九如二路、自立一路",
    "region": "其他",
    "city": "高雄市/屏東縣",
    "lat": 22.6418,
    "lng": 120.2962,
    "url": "https://cctv3.kctmc.nat.gov.tw/51d496c0/",
    "map": "https://www.google.com/maps?q=22.6418,120.2962"
  },
  {
    "id": 2620,
    "name": "高雄市道路 九如二路、重慶街",
    "region": "其他",
    "city": "高雄市/屏東縣",
    "lat": 22.6413,
    "lng": 120.3018,
    "url": "https://cctv6.kctmc.nat.gov.tw/ae6689ba/",
    "map": "https://www.google.com/maps?q=22.6413,120.3018"
  },
  {
    "id": 2624,
    "name": "高雄市道路 五福四路、七賢三路",
    "region": "其他",
    "city": "高雄市/屏東縣",
    "lat": 22.6248,
    "lng": 120.2814,
    "url": "https://cctv4.kctmc.nat.gov.tw/ab1f7cfb/",
    "map": "https://www.google.com/maps?q=22.6248,120.2814"
  },
  {
    "id": 2626,
    "name": "高雄市道路 五福四路、大智路(大禮)",
    "region": "其他",
    "city": "高雄市/屏東縣",
    "lat": 22.6219,
    "lng": 120.2872,
    "url": "https://cctv4.kctmc.nat.gov.tw/d59616dd/",
    "map": "https://www.google.com/maps?q=22.6219,120.2872"
  },
  {
    "id": 2627,
    "name": "高雄市道路 五福四路、河西路",
    "region": "其他",
    "city": "高雄市/屏東縣",
    "lat": 22.6208,
    "lng": 120.2895,
    "url": "https://cctv4.kctmc.nat.gov.tw/d3d8fb44/",
    "map": "https://www.google.com/maps?q=22.6208,120.2895"
  },
  {
    "id": 2628,
    "name": "高雄市道路 五福四路、鼓山一路",
    "region": "其他",
    "city": "高雄市/屏東縣",
    "lat": 22.6264,
    "lng": 120.2781,
    "url": "https://cctv4.kctmc.nat.gov.tw/59887ec6/",
    "map": "https://www.google.com/maps?q=22.6264,120.2781"
  },
  {
    "id": 2629,
    "name": "高雄市道路 仁武區-鳳仁路與澄觀路交岔路口",
    "region": "其他",
    "city": "高雄市/屏東縣",
    "lat": 22.686,
    "lng": 120.3529,
    "url": "https://cctv4.kctmc.nat.gov.tw/b9891e63/",
    "map": "https://www.google.com/maps?q=22.686,120.3529"
  },
  {
    "id": 2631,
    "name": "高雄市道路 介壽路與(仁壽路、仁壽南路)",
    "region": "其他",
    "city": "高雄市/屏東縣",
    "lat": 22.7844,
    "lng": 120.2849,
    "url": "https://cctv6.kctmc.nat.gov.tw/23f4e54d/",
    "map": "https://www.google.com/maps?q=22.7844,120.2849"
  },
  {
    "id": 2632,
    "name": "高雄市道路 光復路、五權路",
    "region": "其他",
    "city": "高雄市/屏東縣",
    "lat": 22.6291,
    "lng": 120.3541,
    "url": "https://cctv6.kctmc.nat.gov.tw/465b35ba/",
    "map": "https://www.google.com/maps?q=22.6291,120.3541"
  },
  {
    "id": 2633,
    "name": "高雄市道路 光華一路、五福一路",
    "region": "其他",
    "city": "高雄市/屏東縣",
    "lat": 22.6275,
    "lng": 120.3142,
    "url": "https://cctv2.kctmc.nat.gov.tw/88b6eddf/",
    "map": "https://www.google.com/maps?q=22.6275,120.3142"
  },
  {
    "id": 2634,
    "name": "高雄市道路 光華二路、一心一路",
    "region": "其他",
    "city": "高雄市/屏東縣",
    "lat": 22.6087,
    "lng": 120.3167,
    "url": "https://cctv3.kctmc.nat.gov.tw/861c80fd/",
    "map": "https://www.google.com/maps?q=22.6087,120.3167"
  },
  {
    "id": 2635,
    "name": "高雄市道路 光華路、青年路一段",
    "region": "其他",
    "city": "高雄市/屏東縣",
    "lat": 22.622,
    "lng": 120.3493,
    "url": "https://cctv6.kctmc.nat.gov.tw/db91cb6d/",
    "map": "https://www.google.com/maps?q=22.622,120.3493"
  },
  {
    "id": 2636,
    "name": "高雄市道路 光遠路、經武路、維新路",
    "region": "其他",
    "city": "高雄市/屏東縣",
    "lat": 22.6255,
    "lng": 120.3619,
    "url": "https://cctv6.kctmc.nat.gov.tw/ef046a1d/",
    "map": "https://www.google.com/maps?q=22.6255,120.3619"
  },
  {
    "id": 2637,
    "name": "高雄市道路 八德南路、停車場出入口",
    "region": "其他",
    "city": "高雄市/屏東縣",
    "lat": 22.6729,
    "lng": 120.3424,
    "url": "https://cctv9.kctmc.nat.gov.tw/1fd76e12/",
    "map": "https://www.google.com/maps?q=22.6729,120.3424"
  },
  {
    "id": 2638,
    "name": "高雄市道路 公園二路、七賢三路",
    "region": "其他",
    "city": "高雄市/屏東縣",
    "lat": 22.6228,
    "lng": 120.2803,
    "url": "https://cctv4.kctmc.nat.gov.tw/f6272c2c/",
    "map": "https://www.google.com/maps?q=22.6228,120.2803"
  },
  {
    "id": 2639,
    "name": "高雄市道路 公園二路、真愛路",
    "region": "其他",
    "city": "高雄市/屏東縣",
    "lat": 22.6188,
    "lng": 120.2885,
    "url": "https://cctv10.kctmc.nat.gov.tw/cff7ae0c/",
    "map": "https://www.google.com/maps?q=22.6188,120.2885"
  },
  {
    "id": 2640,
    "name": "高雄市道路 凱旋二路、三多二路",
    "region": "其他",
    "city": "高雄市/屏東縣",
    "lat": 22.6207,
    "lng": 120.3253,
    "url": "https://cctv9.kctmc.nat.gov.tw/2c08d766/",
    "map": "https://www.google.com/maps?q=22.6207,120.3253"
  },
  {
    "id": 2641,
    "name": "高雄市道路 凱旋二路、同慶路",
    "region": "其他",
    "city": "高雄市/屏東縣",
    "lat": 22.628,
    "lng": 120.3223,
    "url": "https://cctv4.kctmc.nat.gov.tw/92abb4f2/",
    "map": "https://www.google.com/maps?q=22.628,120.3223"
  },
  {
    "id": 2642,
    "name": "高雄市道路 凱旋二路、四維一路",
    "region": "其他",
    "city": "高雄市/屏東縣",
    "lat": 22.6239,
    "lng": 120.3239,
    "url": "https://cctv4.kctmc.nat.gov.tw/d3b36c3a/",
    "map": "https://www.google.com/maps?q=22.6239,120.3239"
  },
  {
    "id": 2643,
    "name": "高雄市道路 凱旋四路、前鎮街",
    "region": "其他",
    "city": "高雄市/屏東縣",
    "lat": 22.5926,
    "lng": 120.308,
    "url": "https://cctv2.kctmc.nat.gov.tw/97358d57/",
    "map": "https://www.google.com/maps?q=22.5926,120.308"
  },
  {
    "id": 2644,
    "name": "高雄市道路 凱旋四路、忠誠路",
    "region": "其他",
    "city": "高雄市/屏東縣",
    "lat": 22.6017,
    "lng": 120.3225,
    "url": "https://cctv2.kctmc.nat.gov.tw/0feb1db0/",
    "map": "https://www.google.com/maps?q=22.6017,120.3225"
  },
  {
    "id": 2646,
    "name": "高雄市道路 凱旋四路、鎮興路",
    "region": "其他",
    "city": "高雄市/屏東縣",
    "lat": 22.5934,
    "lng": 120.3113,
    "url": "https://cctv4.kctmc.nat.gov.tw/128c9268/",
    "map": "https://www.google.com/maps?q=22.5934,120.3113"
  },
  {
    "id": 2647,
    "name": "高雄市道路 利昌街、北林路",
    "region": "其他",
    "city": "高雄市/屏東縣",
    "lat": 22.5577,
    "lng": 120.37,
    "url": "https://cctv6.kctmc.nat.gov.tw/281254c7/",
    "map": "https://www.google.com/maps?q=22.5577,120.37"
  },
  {
    "id": 2648,
    "name": "高雄市道路 加昌路、海專路(西北角)",
    "region": "其他",
    "city": "高雄市/屏東縣",
    "lat": 22.7228,
    "lng": 120.3171,
    "url": "https://cctv6.kctmc.nat.gov.tw/fb835fcc/",
    "map": "https://www.google.com/maps?q=22.7228,120.3171"
  },
  {
    "id": 2651,
    "name": "高雄市道路 南華一路、高速東側",
    "region": "其他",
    "city": "高雄市/屏東縣",
    "lat": 22.5982,
    "lng": 120.3414,
    "url": "https://cctv1.kctmc.nat.gov.tw/f70bba18/",
    "map": "https://www.google.com/maps?q=22.5982,120.3414"
  },
  {
    "id": 2652,
    "name": "高雄市道路 南華一路、高速西側",
    "region": "其他",
    "city": "高雄市/屏東縣",
    "lat": 22.5991,
    "lng": 120.341,
    "url": "https://cctv1.kctmc.nat.gov.tw/d727a621/",
    "map": "https://www.google.com/maps?q=22.5991,120.341"
  },
  {
    "id": 2653,
    "name": "高雄市道路 博愛一路、十全二路(西北角)",
    "region": "其他",
    "city": "高雄市/屏東縣",
    "lat": 22.6454,
    "lng": 120.3029,
    "url": "https://cctv2.kctmc.nat.gov.tw/36889489/",
    "map": "https://www.google.com/maps?q=22.6454,120.3029"
  },
  {
    "id": 2654,
    "name": "高雄市道路 博愛一路、同盟二路(西南角)",
    "region": "其他",
    "city": "高雄市/屏東縣",
    "lat": 22.6517,
    "lng": 120.3033,
    "url": "https://cctv6.kctmc.nat.gov.tw/ea05668e/",
    "map": "https://www.google.com/maps?q=22.6517,120.3033"
  },
  {
    "id": 2656,
    "name": "高雄市道路 博愛一路、熱河二街(西南角)",
    "region": "其他",
    "city": "高雄市/屏東縣",
    "lat": 22.6441,
    "lng": 120.303,
    "url": "https://cctv6.kctmc.nat.gov.tw/44942480/",
    "map": "https://www.google.com/maps?q=22.6441,120.303"
  },
  {
    "id": 2657,
    "name": "高雄市道路 博愛一路、龍德路(西南角)",
    "region": "其他",
    "city": "高雄市/屏東縣",
    "lat": 22.6543,
    "lng": 120.3033,
    "url": "https://cctv1.kctmc.nat.gov.tw/4ff10f0e/",
    "map": "https://www.google.com/maps?q=22.6543,120.3033"
  },
  {
    "id": 2658,
    "name": "高雄市道路 博愛三路、大中二路(西南角)",
    "region": "其他",
    "city": "高雄市/屏東縣",
    "lat": 22.6811,
    "lng": 120.3098,
    "url": "https://cctv6.kctmc.nat.gov.tw/b7923825/",
    "map": "https://www.google.com/maps?q=22.6811,120.3098"
  },
  {
    "id": 2661,
    "name": "高雄市道路 博愛二路、明誠二路",
    "region": "其他",
    "city": "高雄市/屏東縣",
    "lat": 22.6611,
    "lng": 120.303,
    "url": "https://cctv1.kctmc.nat.gov.tw/9e0ae049/",
    "map": "https://www.google.com/maps?q=22.6611,120.303"
  },
  {
    "id": 2662,
    "name": "高雄市道路 博愛二路、立信街266巷西北角(漢神巨蛋對面)",
    "region": "其他",
    "city": "高雄市/屏東縣",
    "lat": 22.6683,
    "lng": 120.3033,
    "url": "https://cctv2.kctmc.nat.gov.tw/a017d086/",
    "map": "https://www.google.com/maps?q=22.6683,120.3033"
  },
  {
    "id": 2663,
    "name": "高雄市道路 博愛二路、裕誠路",
    "region": "其他",
    "city": "高雄市/屏東縣",
    "lat": 22.6659,
    "lng": 120.3033,
    "url": "https://cctv4.kctmc.nat.gov.tw/cace7432/",
    "map": "https://www.google.com/maps?q=22.6659,120.3033"
  },
  {
    "id": 2664,
    "name": "高雄市道路 博愛四路、大中二路",
    "region": "其他",
    "city": "高雄市/屏東縣",
    "lat": 22.6813,
    "lng": 120.3105,
    "url": "https://cctv2.kctmc.nat.gov.tw/a276c8c1/",
    "map": "https://www.google.com/maps?q=22.6813,120.3105"
  },
  {
    "id": 2665,
    "name": "高雄市道路 台28、縣181",
    "region": "其他",
    "city": "高雄市/屏東縣",
    "lat": 22.886,
    "lng": 120.5343,
    "url": "https://cctv6.kctmc.nat.gov.tw/28b0364a/",
    "map": "https://www.google.com/maps?q=22.886,120.5343"
  },
  {
    "id": 2666,
    "name": "高雄市道路 台29(統嶺路)、台22(里嶺大橋)東南角",
    "region": "其他",
    "city": "高雄市/屏東縣",
    "lat": 22.7712,
    "lng": 120.4495,
    "url": "https://cctv2.kctmc.nat.gov.tw/d0dd6a4c/",
    "map": "https://www.google.com/maps?q=22.7712,120.4495"
  },
  {
    "id": 2667,
    "name": "高雄市道路 台29、斜張橋南側",
    "region": "其他",
    "city": "高雄市/屏東縣",
    "lat": 22.7649,
    "lng": 120.4471,
    "url": "https://cctv1.kctmc.nat.gov.tw/2a6048ac/",
    "map": "https://www.google.com/maps?q=22.7649,120.4471"
  },
  {
    "id": 2669,
    "name": "高雄市道路 哨船街、臨海二路",
    "region": "其他",
    "city": "高雄市/屏東縣",
    "lat": 22.6245,
    "lng": 120.2695,
    "url": "https://cctv10.kctmc.nat.gov.tw/63cb5e00/",
    "map": "https://www.google.com/maps?q=22.6245,120.2695"
  },
  {
    "id": 2670,
    "name": "高雄市道路 國10燕巢交流道北側",
    "region": "其他",
    "city": "高雄市/屏東縣",
    "lat": 22.7624,
    "lng": 120.3906,
    "url": "https://cctv2.kctmc.nat.gov.tw/e941a11c/",
    "map": "https://www.google.com/maps?q=22.7624,120.3906"
  },
  {
    "id": 2671,
    "name": "高雄市道路 國泰路二段、議會路(南京路)",
    "region": "其他",
    "city": "高雄市/屏東縣",
    "lat": 22.6212,
    "lng": 120.3454,
    "url": "https://cctv1.kctmc.nat.gov.tw/95ee1e78/",
    "map": "https://www.google.com/maps?q=22.6212,120.3454"
  },
  {
    "id": 2672,
    "name": "高雄市道路 圓山路、松藝路",
    "region": "其他",
    "city": "高雄市/屏東縣",
    "lat": 22.6574,
    "lng": 120.3431,
    "url": "https://cctv9.kctmc.nat.gov.tw/e3fe425a/",
    "map": "https://www.google.com/maps?q=22.6574,120.3431"
  },
  {
    "id": 2673,
    "name": "高雄市道路 大中一路、榮總路",
    "region": "其他",
    "city": "高雄市/屏東縣",
    "lat": 22.6775,
    "lng": 120.3218,
    "url": "https://cctv4.kctmc.nat.gov.tw/b2d221a4/",
    "map": "https://www.google.com/maps?q=22.6775,120.3218"
  },
  {
    "id": 2674,
    "name": "高雄市道路 大中一路、民族一路",
    "region": "其他",
    "city": "高雄市/屏東縣",
    "lat": 22.6789,
    "lng": 120.3191,
    "url": "https://cctv2.kctmc.nat.gov.tw/6d9cd242/",
    "map": "https://www.google.com/maps?q=22.6789,120.3191"
  },
  {
    "id": 2675,
    "name": "高雄市道路 大中一路、鼎中路(西南角)",
    "region": "其他",
    "city": "高雄市/屏東縣",
    "lat": 22.6766,
    "lng": 120.3232,
    "url": "https://cctvs.freeway.gov.tw/live-view/mjpg/video.cgi?camera=111",
    "map": "https://www.google.com/maps?q=22.6766,120.3232"
  },
  {
    "id": 2676,
    "name": "高雄市道路 大中一路、鼎中路北側",
    "region": "其他",
    "city": "高雄市/屏東縣",
    "lat": 22.677,
    "lng": 120.3233,
    "url": "https://cctv2.kctmc.nat.gov.tw/02c80573/",
    "map": "https://www.google.com/maps?q=22.677,120.3233"
  },
  {
    "id": 2677,
    "name": "高雄市道路 大中二路、博愛三路(東南1)",
    "region": "其他",
    "city": "高雄市/屏東縣",
    "lat": 22.6809,
    "lng": 120.3101,
    "url": "https://cctv6.kctmc.nat.gov.tw/990e20f2/",
    "map": "https://www.google.com/maps?q=22.6809,120.3101"
  },
  {
    "id": 2678,
    "name": "高雄市道路 大中二路、博愛三路(西南2)",
    "region": "其他",
    "city": "高雄市/屏東縣",
    "lat": 22.6812,
    "lng": 120.3099,
    "url": "https://cctv6.kctmc.nat.gov.tw/b7923825/",
    "map": "https://www.google.com/maps?q=22.6812,120.3099"
  },
  {
    "id": 2679,
    "name": "高雄市道路 大中二路、文自路(西南角)",
    "region": "其他",
    "city": "高雄市/屏東縣",
    "lat": 22.6802,
    "lng": 120.3115,
    "url": "https://cctv2.kctmc.nat.gov.tw/87a46a03/",
    "map": "https://www.google.com/maps?q=22.6802,120.3115"
  },
  {
    "id": 2680,
    "name": "高雄市道路 大中二路、民族一路(西北角)",
    "region": "其他",
    "city": "高雄市/屏東縣",
    "lat": 22.6793,
    "lng": 120.3187,
    "url": "https://cctv1.kctmc.nat.gov.tw/7e930c00/",
    "map": "https://www.google.com/maps?q=22.6793,120.3187"
  },
  {
    "id": 2681,
    "name": "高雄市道路 大中二路、自由三路(東南角)",
    "region": "其他",
    "city": "高雄市/屏東縣",
    "lat": 22.6791,
    "lng": 120.3136,
    "url": "https://cctv10.kctmc.nat.gov.tw/b41c1fee/",
    "map": "https://www.google.com/maps?q=22.6791,120.3136"
  },
  {
    "id": 2682,
    "name": "高雄市道路 大中高架道、左營高鐵站停車場出口",
    "region": "其他",
    "city": "高雄市/屏東縣",
    "lat": 22.684,
    "lng": 120.307,
    "url": "https://cctv3.kctmc.nat.gov.tw/f5924aae/",
    "map": "https://www.google.com/maps?q=22.684,120.307"
  },
  {
    "id": 2683,
    "name": "高雄市道路 大中高架道往東",
    "region": "其他",
    "city": "高雄市/屏東縣",
    "lat": 22.6858,
    "lng": 120.305,
    "url": "https://cctv2.kctmc.nat.gov.tw/e8ddc6a2/",
    "map": "https://www.google.com/maps?q=22.6858,120.305"
  },
  {
    "id": 2684,
    "name": "高雄市道路 大寮區-鳳林一路與會結路交岔路口",
    "region": "其他",
    "city": "高雄市/屏東縣",
    "lat": 22.5554,
    "lng": 120.4124,
    "url": "https://cctv4.kctmc.nat.gov.tw/4e5e2416/",
    "map": "https://www.google.com/maps?q=22.5554,120.4124"
  },
  {
    "id": 2685,
    "name": "高雄市道路 大寮區-鳳林路四段與鳳林一路交岔路口",
    "region": "其他",
    "city": "高雄市/屏東縣",
    "lat": 22.5473,
    "lng": 120.4114,
    "url": "https://cctv4.kctmc.nat.gov.tw/12a5ebed/",
    "map": "https://www.google.com/maps?q=22.5473,120.4114"
  },
  {
    "id": 2686,
    "name": "高雄市道路 大昌一路、建工路",
    "region": "其他",
    "city": "高雄市/屏東縣",
    "lat": 22.6523,
    "lng": 120.3294,
    "url": "https://cctv4.kctmc.nat.gov.tw/50204bfc/",
    "map": "https://www.google.com/maps?q=22.6523,120.3294"
  },
  {
    "id": 2691,
    "name": "高雄市道路 大業北路、中山四路",
    "region": "其他",
    "city": "高雄市/屏東縣",
    "lat": 22.5697,
    "lng": 120.343,
    "url": "https://cctv1.kctmc.nat.gov.tw/d5ae6edf/",
    "map": "https://www.google.com/maps?q=22.5697,120.343"
  },
  {
    "id": 2692,
    "name": "高雄市道路 大樹區-台29與統嶺路",
    "region": "其他",
    "city": "高雄市/屏東縣",
    "lat": 22.7546,
    "lng": 120.4482,
    "url": "https://cctv7.kctmc.nat.gov.tw/play/jpg.php?devid={579447c1-3211-b704-3d7c-2fc45a0d904a}&L=dfe8885c1acbe4c5e5fb91e6d9bd3724",
    "map": "https://www.google.com/maps?q=22.7546,120.4482"
  },
  {
    "id": 2693,
    "name": "高雄市道路 大樹區-台29與興田路",
    "region": "其他",
    "city": "高雄市/屏東縣",
    "lat": 22.7448,
    "lng": 120.4475,
    "url": "https://cctv4.kctmc.nat.gov.tw/15028711/",
    "map": "https://www.google.com/maps?q=22.7448,120.4475"
  },
  {
    "id": 2695,
    "name": "高雄市道路 大豐二路、大順二路",
    "region": "其他",
    "city": "高雄市/屏東縣",
    "lat": 22.6465,
    "lng": 120.3255,
    "url": "https://cctv2.kctmc.nat.gov.tw/cb75035b/",
    "map": "https://www.google.com/maps?q=22.6465,120.3255"
  },
  {
    "id": 2696,
    "name": "高雄市道路 大順、南屏(向北)",
    "region": "其他",
    "city": "高雄市/屏東縣",
    "lat": 22.6553,
    "lng": 120.3001,
    "url": "https://cctv4.kctmc.nat.gov.tw/f733f406/",
    "map": "https://www.google.com/maps?q=22.6553,120.3001"
  },
  {
    "id": 2697,
    "name": "高雄市道路 大順、南屏(向西)",
    "region": "其他",
    "city": "高雄市/屏東縣",
    "lat": 22.6554,
    "lng": 120.3001,
    "url": "https://cctv4.kctmc.nat.gov.tw/221bc3ee/",
    "map": "https://www.google.com/maps?q=22.6554,120.3001"
  },
  {
    "id": 2698,
    "name": "高雄市道路 大順、龍勝路口(向東)",
    "region": "其他",
    "city": "高雄市/屏東縣",
    "lat": 22.6544,
    "lng": 120.2957,
    "url": "https://cctv1.kctmc.nat.gov.tw/35c65666/",
    "map": "https://www.google.com/maps?q=22.6544,120.2957"
  },
  {
    "id": 2699,
    "name": "高雄市道路 大順、龍德新路口(向東)",
    "region": "其他",
    "city": "高雄市/屏東縣",
    "lat": 22.6563,
    "lng": 120.3108,
    "url": "https://cctv2.kctmc.nat.gov.tw/d945b3df/",
    "map": "https://www.google.com/maps?q=22.6563,120.3108"
  },
  {
    "id": 2702,
    "name": "高雄市道路 大順一路、河堤路",
    "region": "其他",
    "city": "高雄市/屏東縣",
    "lat": 22.656,
    "lng": 120.3127,
    "url": "https://cctv2.kctmc.nat.gov.tw/e62b2b58/",
    "map": "https://www.google.com/maps?q=22.656,120.3127"
  },
  {
    "id": 2703,
    "name": "高雄市道路 大順三路、中正一路",
    "region": "其他",
    "city": "高雄市/屏東縣",
    "lat": 22.63,
    "lng": 120.3232,
    "url": "https://cctv3.kctmc.nat.gov.tw/58445e74/",
    "map": "https://www.google.com/maps?q=22.63,120.3232"
  },