[
  {
    "id": 396,
    "name": "台北市政府 水利工程處 寶橋(十河局)",
    "region": "其他",
    "city": "桃園市/新竹縣市",
    "lat": 24.9799,
    "lng": 121.5538,
    "url": "https://heocctv3.gov.taipei/channel18",
    "map": "https://www.google.com/maps?q=24.9799,121.5538"
  },
  {
    "id": 400,
    "name": "台北市政府 水利工程處 恆光橋及道南遊戲區1",
    "region": "其他",
    "city": "桃園市/新竹縣市",
    "lat": 24.9816,
    "lng": 121.5676,
    "url": "https://heocctv4.gov.taipei/channel15",
    "map": "https://www.google.com/maps?q=24.9816,121.5676"
  },
  {
    "id": 401,
    "name": "台北市政府 水利工程處 恆光橋及道南遊戲區2",
    "region": "其他",
    "city": "桃園市/新竹縣市",
    "lat": 24.9815,
    "lng": 121.5664,
    "url": "https://heocctv4.gov.taipei/channel16",
    "map": "https://www.google.com/maps?q=24.9815,121.5664"
  },
  {
    "id": 402,
    "name": "台北市政府 水利工程處 恆光橋及道南遊戲區3",
    "region": "其他",
    "city": "桃園市/新竹縣市",
    "lat": 24.9815,
    "lng": 121.5664,
    "url": "https://heocctv4.gov.taipei/channel17",
    "map": "https://www.google.com/maps?q=24.9815,121.5664"
  },
  {
    "id": 404,
    "name": "台北市政府 水利工程處 指南溪斷面5",
    "region": "其他",
    "city": "桃園市/新竹縣市",
    "lat": 24.9839,
    "lng": 121.5789,
    "url": "https://heocctv2.gov.taipei/channel30",
    "map": "https://www.google.com/maps?q=24.9839,121.5789"
  },
  {
    "id": 406,
    "name": "台北市政府 水利工程處 文山滯洪池(池內)",
    "region": "其他",
    "city": "桃園市/新竹縣市",
    "lat": 24.9972,
    "lng": 121.5589,
    "url": "https://heocctv3.gov.taipei/channel80",
    "map": "https://www.google.com/maps?q=24.9972,121.5589"
  },
  {
    "id": 407,
    "name": "台北市政府 水利工程處 文山滯洪池1",
    "region": "其他",
    "city": "桃園市/新竹縣市",
    "lat": 24.9972,
    "lng": 121.559,
    "url": "https://heocctv3.gov.taipei/channel74",
    "map": "https://www.google.com/maps?q=24.9972,121.559"
  },
  {
    "id": 408,
    "name": "台北市政府 水利工程處 文山滯洪池2",
    "region": "其他",
    "city": "桃園市/新竹縣市",
    "lat": 24.9973,
    "lng": 121.5594,
    "url": "https://heocctv3.gov.taipei/channel73",
    "map": "https://www.google.com/maps?q=24.9973,121.5594"
  },
  {
    "id": 409,
    "name": "台北市政府 水利工程處 景美橋(世新)",
    "region": "其他",
    "city": "桃園市/新竹縣市",
    "lat": 24.9884,
    "lng": 121.5409,
    "url": "https://heocctv4.gov.taipei/channel25",
    "map": "https://www.google.com/maps?q=24.9884,121.5409"
  },
  {
    "id": 410,
    "name": "台北市政府 水利工程處 景美溪橋",
    "region": "其他",
    "city": "桃園市/新竹縣市",
    "lat": 24.9866,
    "lng": 121.5451,
    "url": "https://heocctv4.gov.taipei/channel18",
    "map": "https://www.google.com/maps?q=24.9866,121.5451"
  },
  {
    "id": 689,
    "name": "台北市道路 318-木柵路1段與和興路口號誌桿",
    "region": "其他",
    "city": "桃園市/新竹縣市",
    "lat": 24.9867,
    "lng": 121.546,
    "url": "https://heocctv4.gov.taipei/channel18",
    "map": "https://www.google.com/maps?q=24.9867,121.546"
  },
  {
    "id": 1398,
    "name": "宜蘭縣道路 國5交流道沿線 五結鄉五結中路二段、191線路口-1(4)-全景(北上)",
    "region": "其他",
    "city": "桃園市/新竹縣市",
    "lat": 24.7005,
    "lng": 121.7906,
    "url": "https://cctvn5.freeway.gov.tw/abs2mjpg/bmjpg?camera=71cf32c8-0785-47b3-9158-f45875adf094",
    "map": "https://www.google.com/maps?q=24.7005,121.7906"
  },
  {
    "id": 1401,
    "name": "宜蘭縣道路 國5交流道沿線 礁溪鄉礁溪路七段、白雲3路、6路路口(6)-往頭城方向全景",
    "region": "其他",
    "city": "桃園市/新竹縣市",
    "lat": 24.8366,
    "lng": 121.7859,
    "url": "https://cctv-ss02.thb.gov.tw:443/T9-070K+500",
    "map": "https://www.google.com/maps?q=24.8366,121.7859"
  },
  {
    "id": 1403,
    "name": "宜蘭縣道路 國5交流道沿線 蘇澳交流道 蘇澳鎮馬賽路、新城北路口-1(4)-往國五全景1",
    "region": "其他",
    "city": "桃園市/新竹縣市",
    "lat": 24.6161,
    "lng": 121.826,
    "url": "https://cctv-ss07.thb.gov.tw:443/T2E-006K+900",
    "map": "https://www.google.com/maps?q=24.6161,121.826"
  },
  {
    "id": 1405,
    "name": "宜蘭縣道路 國5交流道沿線 頭城鎮頭城交流道(6)-往礁溪方向全景",
    "region": "其他",
    "city": "桃園市/新竹縣市",
    "lat": 24.8384,
    "lng": 121.791,
    "url": "https://cctv-ss01.thb.gov.tw:443/T2G-003K+730",
    "map": "https://www.google.com/maps?q=24.8384,121.791"
  },
  {
    "id": 1598,
    "name": "新北市道路 中和-中正路637巷口(往國3)",
    "region": "其他",
    "city": "桃園市/新竹縣市",
    "lat": 24.9947,
    "lng": 121.4855,
    "url": "https://cctvn.freeway.gov.tw/abs2mjpg/bmjpg?camera=33580",
    "map": "https://www.google.com/maps?q=24.9947,121.4855"
  },
  {
    "id": 1607,
    "name": "新北市道路 中和區中正路、錦和路口(東側號誌桿上)",
    "region": "其他",
    "city": "桃園市/新竹縣市",
    "lat": 24.9943,
    "lng": 121.4905,
    "url": "https://cctv-ss08.thb.gov.tw:443/T64-25K+099",
    "map": "https://www.google.com/maps?q=24.9943,121.4905"
  },
  {
    "id": 1653,
    "name": "新北市道路 北宜路1段、能仁街",
    "region": "其他",
    "city": "桃園市/新竹縣市",
    "lat": 24.9533,
    "lng": 121.5405,
    "url": "https://cctv-ss03.thb.gov.tw:443/T9-11K+650",
    "map": "https://www.google.com/maps?q=24.9533,121.5405"
  },
  {
    "id": 1667,
    "name": "新北市道路 坪林區國中路坪林管制站前(往國5)",
    "region": "其他",
    "city": "桃園市/新竹縣市",
    "lat": 24.9418,
    "lng": 121.7126,
    "url": "https://cctvn5.freeway.gov.tw/abs2mjpg/bmjpg?camera=757d2523-ddc2-4650-aaa4-026a45976f0c",
    "map": "https://www.google.com/maps?q=24.9418,121.7126"
  },
  {
    "id": 1727,
    "name": "新北市道路 新店區祥和路安興路",
    "region": "其他",
    "city": "桃園市/新竹縣市",
    "lat": 24.9775,
    "lng": 121.5152,
    "url": "https://cctvn.freeway.gov.tw/abs2mjpg/bmjpg?camera=33250",
    "map": "https://www.google.com/maps?q=24.9775,121.5152"
  },
  {
    "id": 1767,
    "name": "新北市道路 板城路、合宜一路",
    "region": "其他",
    "city": "桃園市/新竹縣市",
    "lat": 24.9951,
    "lng": 121.4462,
    "url": "https://cctv-ss07.thb.gov.tw:443/T65-8K+100",
    "map": "https://www.google.com/maps?q=24.9951,121.4462"
  },
  {
    "id": 1768,
    "name": "新北市道路 板城路、資收場前路口",
    "region": "其他",
    "city": "桃園市/新竹縣市",
    "lat": 24.9944,
    "lng": 121.4464,
    "url": "https://cctv-ss07.thb.gov.tw:443/T65-8K+500",
    "map": "https://www.google.com/maps?q=24.9944,121.4464"
  },
  {
    "id": 1820,
    "name": "新北市道路 樹林區佳園路三段66巷",
    "region": "其他",
    "city": "桃園市/新竹縣市",
    "lat": 24.9521,
    "lng": 121.3875,
    "url": "https://cctvn.freeway.gov.tw/abs2mjpg/bmjpg?camera=34730",
    "map": "https://www.google.com/maps?q=24.9521,121.3875"
  },
  {
    "id": 1821,
    "name": "新北市道路 樹林區佳園路三段、學府路",
    "region": "其他",
    "city": "桃園市/新竹縣市",
    "lat": 24.9513,
    "lng": 121.3869,
    "url": "https://cctvn.freeway.gov.tw/abs2mjpg/bmjpg?camera=34731",
    "map": "https://www.google.com/maps?q=24.9513,121.3869"
  },
  {
    "id": 1827,
    "name": "新北市道路 橋頭路(第十河川局門口)",
    "region": "其他",
    "city": "桃園市/新竹縣市",
    "lat": 24.9939,
    "lng": 121.4469,
    "url": "https://cctv-ss07.thb.gov.tw:443/T65-8K+500",
    "map": "https://www.google.com/maps?q=24.9939,121.4469"
  },
  {
    "id": 1995,
    "name": "新竹市道路 光復路與北上交流道(往竹東)",
    "region": "其他",
    "city": "桃園市/新竹縣市",
    "lat": 24.7897,
    "lng": 121.0063,
    "url": "https://cctvn.freeway.gov.tw/abs2mjpg/bmjpg?camera=19490",
    "map": "https://www.google.com/maps?q=24.7897,121.0063"
  },
  {
    "id": 2002,
    "name": "新竹市道路 公道五路與交流道(北上匝道)",
    "region": "其他",
    "city": "桃園市/新竹縣市",
    "lat": 24.7977,
    "lng": 121.0084,
    "url": "https://cctvn.freeway.gov.tw/abs2mjpg/bmjpg?camera=19400",
    "map": "https://www.google.com/maps?q=24.7977,121.0084"
  },
  {
    "id": 2003,
    "name": "新竹市道路 公道五路與交流道(南下匝道)",
    "region": "其他",
    "city": "桃園市/新竹縣市",
    "lat": 24.7978,
    "lng": 121.0084,
    "url": "https://cctvn.freeway.gov.tw/abs2mjpg/bmjpg?camera=19400",
    "map": "https://www.google.com/maps?q=24.7978,121.0084"
  },
  {
    "id": 2004,
    "name": "新竹市道路 公道五路與交流道東側(往竹東)",
    "region": "其他",
    "city": "桃園市/新竹縣市",
    "lat": 24.7975,
    "lng": 121.0086,
    "url": "https://cctvn.freeway.gov.tw/abs2mjpg/bmjpg?camera=19400",
    "map": "https://www.google.com/maps?q=24.7975,121.0086"
  },
  {
    "id": 2011,
    "name": "新竹市道路 千甲路339巷涵洞，涵洞東側",
    "region": "其他",
    "city": "桃園市/新竹縣市",
    "lat": 24.8101,
    "lng": 121.011,
    "url": "https://cctvn.freeway.gov.tw/abs2mjpg/bmjpg?camera=19260",
    "map": "https://www.google.com/maps?q=24.8101,121.011"
  },
  {
    "id": 2012,
    "name": "新竹市道路 千甲路339巷涵洞，涵洞西側",
    "region": "其他",
    "city": "桃園市/新竹縣市",
    "lat": 24.8105,
    "lng": 121.0107,
    "url": "https://cctvn.freeway.gov.tw/abs2mjpg/bmjpg?camera=19260",
    "map": "https://www.google.com/maps?q=24.8105,121.0107"
  },
  {
    "id": 2021,
    "name": "新竹市道路 天府路與西濱路(西濱路往北)",
    "region": "其他",
    "city": "桃園市/新竹縣市",
    "lat": 24.8393,
    "lng": 120.9312,
    "url": "https://cctv-ss07.thb.gov.tw:443/T15-74K+250-1",
    "map": "https://www.google.com/maps?q=24.8393,120.9312"
  },
  {
    "id": 2060,
    "name": "新竹市道路 東大路與西濱路(往南寮)",
    "region": "其他",
    "city": "桃園市/新竹縣市",
    "lat": 24.8424,
    "lng": 120.934,
    "url": "https://cctv-ss01.thb.gov.tw:443/T15-73K+800",
    "map": "https://www.google.com/maps?q=24.8424,120.934"
  },
  {
    "id": 2119,
    "name": "桃園市道路 (CCTV007)楊梅區 校前路-校前交流道南閘路口",
    "region": "其他",
    "city": "桃園市/新竹縣市",
    "lat": 24.9007,
    "lng": 121.1507,
    "url": "https://cctvn.freeway.gov.tw/abs2mjpg/bmjpg?camera=17100",
    "map": "https://www.google.com/maps?q=24.9007,121.1507"
  },
  {
    "id": 2125,
    "name": "桃園市道路 (CCTV014)大溪區 介壽路-員林路",
    "region": "其他",
    "city": "桃園市/新竹縣市",
    "lat": 24.8986,
    "lng": 121.2847,
    "url": "https://cctv-ss02.thb.gov.tw:443/T3-39K+100",
    "map": "https://www.google.com/maps?q=24.8986,121.2847"
  },
  {
    "id": 2126,
    "name": "桃園市道路 (CCTV016)大溪區 員林路-連絡道",
    "region": "其他",
    "city": "桃園市/新竹縣市",
    "lat": 24.8892,
    "lng": 121.2703,
    "url": "https://cctv-ss02.thb.gov.tw:443/T3-41K+050",
    "map": "https://www.google.com/maps?q=24.8892,121.2703"
  },
  {
    "id": 2172,
    "name": "桃園市道路 (CCTV065)桃園區 萬壽路山鶯路口(龜山工業區 牌樓前號誌桿)",
    "region": "其他",
    "city": "桃園市/新竹縣市",
    "lat": 24.9919,
    "lng": 121.3226,
    "url": "https://cctv-ss01.thb.gov.tw:443/T1A-25K+450",
    "map": "https://www.google.com/maps?q=24.9919,121.3226"
  },
  {
    "id": 2187,
    "name": "桃園市道路 (CCTV083)大溪區 康莊路武嶺橋口(中島號誌桿(有多支天羅地網)",
    "region": "其他",
    "city": "桃園市/新竹縣市",
    "lat": 24.8919,
    "lng": 121.2784,
    "url": "https://cctv-ss02.thb.gov.tw:443/T3-37K+920",
    "map": "https://www.google.com/maps?q=24.8919,121.2784"
  },
  {
    "id": 2191,
    "name": "桃園市道路 (CCTV087)大溪區 康莊路與信義路口(餐廳對面號誌桿)",
    "region": "其他",
    "city": "桃園市/新竹縣市",
    "lat": 24.8846,
    "lng": 121.2893,
    "url": "https://cctv-ss03.thb.gov.tw:443/T7-0K+100",
    "map": "https://www.google.com/maps?q=24.8846,121.2893"
  },
  {
    "id": 2215,
    "name": "桃園市道路 (CCTV113)龍潭區 中豐路中山段與聖亭路",
    "region": "其他",
    "city": "桃園市/新竹縣市",
    "lat": 24.8651,
    "lng": 121.2098,
    "url": "https://cctv-ss02.thb.gov.tw:443/T3-49K+000",
    "map": "https://www.google.com/maps?q=24.8651,121.2098"
  },
  {
    "id": 2219,
    "name": "桃園市道路 (CCTV117)桃園區 萬壽路與山鶯路(18米桿)",
    "region": "其他",
    "city": "桃園市/新竹縣市",
    "lat": 24.992,
    "lng": 121.3225,
    "url": "https://cctv-ss01.thb.gov.tw:443/T1A-25K+450",
    "map": "https://www.google.com/maps?q=24.992,121.3225"
  },
  {
    "id": 2220,
    "name": "桃園市道路 (CCTV118)大溪區 武嶺橋西端(18米桿)",
    "region": "其他",
    "city": "桃園市/新竹縣市",
    "lat": 24.892,
    "lng": 121.2786,
    "url": "https://cctv-ss02.thb.gov.tw:443/T3-37K+920",
    "map": "https://www.google.com/maps?q=24.892,121.2786"
  },
  {
    "id": 2247,
    "name": "桃園市道路 (CCTV147)中壢區 中華路二段與中華路二段189巷",
    "region": "其他",
    "city": "桃園市/新竹縣市",
    "lat": 24.9654,
    "lng": 121.2395,
    "url": "https://cctv-ss01.thb.gov.tw:443/T1-34K+300",
    "map": "https://www.google.com/maps?q=24.9654,121.2395"
  },
  {
    "id": 2264,
    "name": "桃園市道路 (CCTV167)大溪區 武嶺橋西側路口(1-1)",
    "region": "其他",
    "city": "桃園市/新竹縣市",
    "lat": 24.8919,
    "lng": 121.2787,
    "url": "https://cctv-ss02.thb.gov.tw:443/T3-37K+920",
    "map": "https://www.google.com/maps?q=24.8919,121.2787"
  },
  {
    "id": 2265,
    "name": "桃園市道路 (CCTV168)大溪區 武嶺橋西側路口(1-2)",
    "region": "其他",
    "city": "桃園市/新竹縣市",
    "lat": 24.8917,
    "lng": 121.279,
    "url": "https://cctv-ss02.thb.gov.tw:443/T3-37K+920",
    "map": "https://www.google.com/maps?q=24.8917,121.279"
  },
  {
    "id": 2266,
    "name": "桃園市道路 (CCTV169)大溪區 武嶺橋東側路口(1-11)",
    "region": "其他",
    "city": "桃園市/新竹縣市",
    "lat": 24.8876,
    "lng": 121.2863,
    "url": "https://cctv-ss02.thb.gov.tw:443/T3-36K+970",
    "map": "https://www.google.com/maps?q=24.8876,121.2863"
  },
  {
    "id": 2267,
    "name": "桃園市道路 (CCTV170)大溪區 武嶺橋西側路口(1-4)",
    "region": "其他",
    "city": "桃園市/新竹縣市",
    "lat": 24.8919,
    "lng": 121.2783,
    "url": "https://cctv-ss02.thb.gov.tw:443/T3-37K+920",
    "map": "https://www.google.com/maps?q=24.8919,121.2783"
  },
  {
    "id": 2268,
    "name": "桃園市道路 (CCTV171)大溪區 武嶺橋西側路口(1-5)",
    "region": "其他",
    "city": "桃園市/新竹縣市",
    "lat": 24.8916,
    "lng": 121.2783,
    "url": "https://cctv-ss02.thb.gov.tw:443/T3-37K+920",
    "map": "https://www.google.com/maps?q=24.8916,121.2783"
  },
  {
    "id": 2275,
    "name": "桃園市道路 (CCTV178)龍潭區 高原路與高原交流道",
    "region": "其他",
    "city": "桃園市/新竹縣市",
    "lat": 24.8312,
    "lng": 121.1996,
    "url": "https://cctvn.freeway.gov.tw/abs2mjpg/bmjpg?camera=37302",
    "map": "https://www.google.com/maps?q=24.8312,121.1996"
  },
  {
    "id": 2277,
    "name": "桃園市道路 (CCTV181)楊梅區 校前路與老莊路",
    "region": "其他",
    "city": "桃園市/新竹縣市",
    "lat": 24.8994,
    "lng": 121.1511,
    "url": "https://cctvn.freeway.gov.tw/abs2mjpg/bmjpg?camera=17100",
    "map": "https://www.google.com/maps?q=24.8994,121.1511"
  },
  {
    "id": 2340,
    "name": "桃園市道路 (CCTV249)大溪區 武嶺橋東端-月眉路",
    "region": "其他",
    "city": "桃園市/新竹縣市",
    "lat": 24.8875,
    "lng": 121.2864,
    "url": "https://cctv-ss02.thb.gov.tw:443/T3-36K+970",
    "map": "https://www.google.com/maps?q=24.8875,121.2864"
  },
  {
    "id": 2348,
    "name": "桃園市道路 (CCTV261)大溪區  康莊路-瑞安路一段3巷",
    "region": "其他",
    "city": "桃園市/新竹縣市",
    "lat": 24.8917,
    "lng": 121.2788,
    "url": "https://cctv-ss02.thb.gov.tw:443/T3-37K+920",
    "map": "https://www.google.com/maps?q=24.8917,121.2788"
  },
  {
    "id": 2990,
    "name": "國道一號 100K+400 北向 頭份交流道到新竹系統交流道",
    "region": "國道一號",
    "city": "桃園市/新竹市",
    "lat": 24.7502,
    "lng": 120.981,
    "url": "https://cctvn.freeway.gov.tw/abs2mjpg/bmjpg?camera=19990",
    "map": "https://www.google.com/maps?q=24.7502,120.981"
  },
  {
    "id": 2991,
    "name": "國道一號 101K+040 南向 新竹系統交流道到頭份交流道",
    "region": "國道一號",
    "city": "桃園市/新竹市",
    "lat": 24.747,
    "lng": 120.9764,
    "url": "https://cctvn.freeway.gov.tw/abs2mjpg/bmjpg?camera=19991",
    "map": "https://www.google.com/maps?q=24.747,120.9764"
  },
  {
    "id": 2992,
    "name": "國道一號 101K+040 南向 新竹系統交流道到頭份交流道",
    "region": "國道一號",
    "city": "桃園市/新竹市",
    "lat": 24.747,
    "lng": 120.9764,
    "url": "https://cctvc.freeway.gov.tw/abs2mjpg/bmjpg?camera=495",
    "map": "https://www.google.com/maps?q=24.747,120.9764"
  },
  {
    "id": 2993,
    "name": "國道一號 101K+205 北向 頭份交流道到新竹系統交流道",
    "region": "國道一號",
    "city": "桃園市/新竹市",
    "lat": 24.7453,
    "lng": 120.9755,
    "url": "https://cctvc.freeway.gov.tw/abs2mjpg/bmjpg?camera=564",
    "map": "https://www.google.com/maps?q=24.7453,120.9755"
  },
  {
    "id": 2994,
    "name": "國道一號 102K+046 北向 頭份交流道到新竹系統交流道",
    "region": "國道一號",
    "city": "桃園市/新竹市",
    "lat": 24.7389,
    "lng": 120.9722,
    "url": "https://cctvc.freeway.gov.tw/abs2mjpg/bmjpg?camera=350",
    "map": "https://www.google.com/maps?q=24.7389,120.9722"
  },
  {
    "id": 2995,
    "name": "國道一號 103K+005 南向 新竹系統交流道到頭份交流道",
    "region": "國道一號",
    "city": "桃園市/新竹市",
    "lat": 24.7334,
    "lng": 120.9647,
    "url": "https://cctvc.freeway.gov.tw/abs2mjpg/bmjpg?camera=566",
    "map": "https://www.google.com/maps?q=24.7334,120.9647"
  },
  {
    "id": 2996,
    "name": "國道一號 103K+987 北向 頭份交流道到新竹系統交流道",
    "region": "國道一號",
    "city": "桃園市/新竹市",
    "lat": 24.7277,
    "lng": 120.9571,
    "url": "https://cctvc.freeway.gov.tw/abs2mjpg/bmjpg?camera=351",
    "map": "https://www.google.com/maps?q=24.7277,120.9571"
  },
  {
    "id": 2997,
    "name": "國道一號 104K+890 南向 新竹系統交流道到頭份交流道",
    "region": "國道一號",
    "city": "桃園市/新竹市",
    "lat": 24.7271,
    "lng": 120.9485,
    "url": "https://cctvc.freeway.gov.tw/abs2mjpg/bmjpg?camera=617",
    "map": "https://www.google.com/maps?q=24.7271,120.9485"
  },
  {
    "id": 2998,
    "name": "國道一號 105K+695 南向 新竹系統交流道到頭份交流道",
    "region": "國道一號",
    "city": "桃園市/新竹市",
    "lat": 24.7264,
    "lng": 120.9413,
    "url": "https://cctvc.freeway.gov.tw/abs2mjpg/bmjpg?camera=7",
    "map": "https://www.google.com/maps?q=24.7264,120.9413"
  },
  {
    "id": 2999,
    "name": "國道一號 106K+400 南向 新竹系統交流道到頭份交流道",
    "region": "國道一號",
    "city": "桃園市/新竹市",
    "lat": 24.7229,
    "lng": 120.9344,
    "url": "https://cctvc.freeway.gov.tw/abs2mjpg/bmjpg?camera=352",
    "map": "https://www.google.com/maps?q=24.7229,120.9344"
  },
  {
    "id": 3000,
    "name": "國道一號 107K+340 南向 新竹系統交流道到頭份交流道",
    "region": "國道一號",
    "city": "桃園市/新竹市",
    "lat": 24.7158,
    "lng": 120.9297,
    "url": "https://cctvc.freeway.gov.tw/abs2mjpg/bmjpg?camera=353",
    "map": "https://www.google.com/maps?q=24.7158,120.9297"
  },
  {
    "id": 3001,
    "name": "國道一號 108K+175 南向 新竹系統交流道到頭份交流道",
    "region": "國道一號",
    "city": "桃園市/新竹市",
    "lat": 24.7086,
    "lng": 120.9291,
    "url": "https://cctvc.freeway.gov.tw/abs2mjpg/bmjpg?camera=618",
    "map": "https://www.google.com/maps?q=24.7086,120.9291"
  },
  {
    "id": 3002,
    "name": "國道一號 109K+010 南向 新竹系統交流道到頭份交流道",
    "region": "國道一號",
    "city": "桃園市/新竹市",
    "lat": 24.7015,
    "lng": 120.9259,
    "url": "https://cctvc.freeway.gov.tw/abs2mjpg/bmjpg?camera=8",
    "map": "https://www.google.com/maps?q=24.7015,120.9259"
  },
  {
    "id": 3003,
    "name": "國道一號 109K+620 北向 頭份交流道到新竹系統交流道",
    "region": "國道一號",
    "city": "桃園市/新竹市",
    "lat": 24.6974,
    "lng": 120.9222,
    "url": "https://cctvc.freeway.gov.tw/abs2mjpg/bmjpg?camera=463",
    "map": "https://www.google.com/maps?q=24.6974,120.9222"
  },
  {
    "id": 3004,
    "name": "國道一號 109K+735 北向 頭份交流道到新竹系統交流道",
    "region": "國道一號",
    "city": "桃園市/新竹市",
    "lat": 24.6966,
    "lng": 120.9215,
    "url": "https://cctvc.freeway.gov.tw/abs2mjpg/bmjpg?camera=550",
    "map": "https://www.google.com/maps?q=24.6966,120.9215"
  },
  {
    "id": 3007,
    "name": "國道一號 110K+000 北向 頭份交流道到新竹系統交流道",
    "region": "國道一號",
    "city": "桃園市/新竹市",
    "lat": 24.6933,
    "lng": 120.92,
    "url": "https://cctvc.freeway.gov.tw/abs2mjpg/bmjpg?camera=178",
    "map": "https://www.google.com/maps?q=24.6933,120.92"
  },
  {
    "id": 3008,
    "name": "國道一號 110K+000 頭份交流道到新竹系統交流道",
    "region": "國道一號",
    "city": "桃園市/新竹市",
    "lat": 24.6932,
    "lng": 120.9153,
    "url": "https://cctvc.freeway.gov.tw/abs2mjpg/bmjpg?camera=179",
    "map": "https://www.google.com/maps?q=24.6932,120.9153"
  },
  {
    "id": 3016,
    "name": "國道一號 117K+150 南向 造橋南地磅站",
    "region": "國道一號",
    "city": "桃園市/新竹縣市",
    "lat": 24.648,
    "lng": 120.877,
    "url": "https://cctvc.freeway.gov.tw/abs2mjpg/bmjpg?camera=409",
    "map": "https://www.google.com/maps?q=24.648,120.877"
  },
  {
    "id": 3406,
    "name": "國道一號 36K+120 南向 泰山轉接道交流道到林口交流道",
    "region": "國道一號",
    "city": "桃園市/新竹市",
    "lat": 25.0587,
    "lng": 121.4105,
    "url": "https://cctvn.freeway.gov.tw/abs2mjpg/bmjpg?camera=13610",
    "map": "https://www.google.com/maps?q=25.0587,121.4105"
  },
  {
    "id": 3418,
    "name": "國道一號 37K+050 北向 林口交流道到泰山轉接道交流道",
    "region": "國道一號",
    "city": "桃園市/新竹市",
    "lat": 25.0555,
    "lng": 121.4017,
    "url": "https://cctvn.freeway.gov.tw/abs2mjpg/bmjpg?camera=13700",
    "map": "https://www.google.com/maps?q=25.0555,121.4017"
  },
  {
    "id": 3419,
    "name": "國道一號 38K+300 南向 泰山轉接道交流道到林口交流道",
    "region": "國道一號",
    "city": "桃園市/新竹市",
    "lat": 25.0632,
    "lng": 121.3932,
    "url": "https://cctvn.freeway.gov.tw/abs2mjpg/bmjpg?camera=13830",
    "map": "https://www.google.com/maps?q=25.0632,121.3932"
  },
  {
    "id": 3420,
    "name": "國道一號 39K+470 北向 林口交流道到泰山轉接道交流道",
    "region": "國道一號",
    "city": "桃園市/新竹市",
    "lat": 25.0645,
    "lng": 121.382,
    "url": "https://cctvn.freeway.gov.tw/abs2mjpg/bmjpg?camera=13940",
    "map": "https://www.google.com/maps?q=25.0645,121.382"
  },
  {
    "id": 3423,
    "name": "國道一號 40K+830 南向 泰山轉接道交流道到林口交流道",
    "region": "國道一號",
    "city": "桃園市/新竹市",
    "lat": 25.0656,
    "lng": 121.3688,
    "url": "https://cctvn.freeway.gov.tw/abs2mjpg/bmjpg?camera=14080",
    "map": "https://www.google.com/maps?q=25.0656,121.3688"
  },
  {
    "id": 3424,
    "name": "國道一號 41K+000 南向 泰山轉接道交流道到林口交流道",
    "region": "國道一號",
    "city": "桃園市/新竹市",
    "lat": 25.0659,
    "lng": 121.3668,
    "url": "https://cctvn.freeway.gov.tw/abs2mjpg/bmjpg?camera=14100",
    "map": "https://www.google.com/maps?q=25.0659,121.3668"
  },
  {
    "id": 3425,
    "name": "國道一號 41K+850 南向 林口交流道到桃園交流道",
    "region": "國道一號",
    "city": "桃園市/新竹市",
    "lat": 25.0651,
    "lng": 121.3585,
    "url": "https://cctvn.freeway.gov.tw/abs2mjpg/bmjpg?camera=14180",
    "map": "https://www.google.com/maps?q=25.0651,121.3585"
  },
  {
    "id": 3426,
    "name": "國道一號 44K+380 南向 林口交流道到桃園交流道",
    "region": "國道一號",
    "city": "桃園市/新竹市",
    "lat": 25.0621,
    "lng": 121.3349,
    "url": "https://cctvn.freeway.gov.tw/abs2mjpg/bmjpg?camera=14430",
    "map": "https://www.google.com/maps?q=25.0621,121.3349"
  },
  {
    "id": 3427,
    "name": "國道一號 47K+300 北向 桃園交流道到林口交流道",
    "region": "國道一號",
    "city": "桃園市/新竹市",
    "lat": 25.0443,
    "lng": 121.3109,
    "url": "https://cctvn.freeway.gov.tw/abs2mjpg/bmjpg?camera=14730",
    "map": "https://www.google.com/maps?q=25.0443,121.3109"
  },
  {
    "id": 3428,
    "name": "國道一號 47K+505 南向 林口交流道到桃園交流道",
    "region": "國道一號",
    "city": "桃園市/新竹市",
    "lat": 25.0447,
    "lng": 121.3111,
    "url": "https://cctvn.freeway.gov.tw/abs2mjpg/bmjpg?camera=14750",
    "map": "https://www.google.com/maps?q=25.0447,121.3111"
  },
  {
    "id": 3429,
    "name": "國道一號 49K+000 北向 桃園交流道到林口交流道",
    "region": "國道一號",
    "city": "桃園市/新竹市",
    "lat": 25.0378,
    "lng": 121.298,
    "url": "https://cctvn.freeway.gov.tw/abs2mjpg/bmjpg?camera=14900",
    "map": "https://www.google.com/maps?q=25.0378,121.298"
  },
  {
    "id": 3434,
    "name": "國道一號 50K+185 北向 機場系統交流道到桃園交流道",
    "region": "國道一號",
    "city": "桃園市/新竹市",
    "lat": 25.0319,
    "lng": 121.2885,
    "url": "https://cctvn.freeway.gov.tw/abs2mjpg/bmjpg?camera=15010",
    "map": "https://www.google.com/maps?q=25.0319,121.2885"
  },
  {
    "id": 3435,
    "name": "國道一號 51K+000 南向 桃園交流道到機場系統交流道",
    "region": "國道一號",
    "city": "桃園市/新竹市",
    "lat": 25.0321,
    "lng": 121.2892,
    "url": "https://cctvn.freeway.gov.tw/abs2mjpg/bmjpg?camera=15100",
    "map": "https://www.google.com/maps?q=25.0321,121.2892"
  },
  {
    "id": 3436,
    "name": "國道一號 51K+380 南向 桃園交流道到機場系統交流道",
    "region": "國道一號",
    "city": "桃園市/新竹市",
    "lat": 25.0241,
    "lng": 121.2791,
    "url": "https://cctvn.freeway.gov.tw/abs2mjpg/bmjpg?camera=15130",
    "map": "https://www.google.com/maps?q=25.0241,121.2791"
  },
  {
    "id": 3437,
    "name": "國道一號 52K+800 南向 機場系統交流道到中壢服務區",
    "region": "國道一號",
    "city": "桃園市/新竹市",
    "lat": 25.0159,
    "lng": 121.2695,
    "url": "https://cctvn.freeway.gov.tw/abs2mjpg/bmjpg?camera=15280",
    "map": "https://www.google.com/maps?q=25.0159,121.2695"
  },
  {
    "id": 3438,
    "name": "國道一號 55K+000 北向 中壢服務區到機場系統交流道",
    "region": "國道一號",
    "city": "桃園市/新竹市",
    "lat": 25.0018,
    "lng": 121.2527,
    "url": "https://cctvn.freeway.gov.tw/abs2mjpg/bmjpg?camera=15502",
    "map": "https://www.google.com/maps?q=25.0018,121.2527"
  },
  {
    "id": 3439,
    "name": "國道一號 55K+000 南向 中壢服務區到內壢交流道",
    "region": "國道一號",
    "city": "桃園市/新竹市",
    "lat": 25.0028,
    "lng": 121.2517,
    "url": "https://cctvn.freeway.gov.tw/abs2mjpg/bmjpg?camera=15501",
    "map": "https://www.google.com/maps?q=25.0028,121.2517"
  },
  {
    "id": 3440,
    "name": "國道一號 55K+000 南向 機場系統交流道到中壢服務區",
    "region": "國道一號",
    "city": "桃園市/新竹市",
    "lat": 25.0028,
    "lng": 121.2528,
    "url": "https://cctvn.freeway.gov.tw/abs2mjpg/bmjpg?camera=15500",
    "map": "https://www.google.com/maps?q=25.0028,121.2528"
  },
  {
    "id": 3441,
    "name": "國道一號 56K+980 北向 內壢交流道到中壢服務區",
    "region": "國道一號",
    "city": "桃園市/新竹市",
    "lat": 24.9902,
    "lng": 121.2393,
    "url": "https://cctvn.freeway.gov.tw/abs2mjpg/bmjpg?camera=15690",
    "map": "https://www.google.com/maps?q=24.9902,121.2393"
  },
  {
    "id": 3442,
    "name": "國道一號 56K+990 北向 內壢交流道到中壢服務區",
    "region": "國道一號",
    "city": "桃園市/新竹市",
    "lat": 24.9881,
    "lng": 121.2394,
    "url": "https://cctvn.freeway.gov.tw/abs2mjpg/bmjpg?camera=15691",
    "map": "https://www.google.com/maps?q=24.9881,121.2394"
  },
  {
    "id": 3443,
    "name": "國道一號 57K+950 南向 內壢交流道到中壢轉接一交流道",
    "region": "國道一號",
    "city": "桃園市/新竹市",
    "lat": 24.9841,
    "lng": 121.2327,
    "url": "https://cctvn.freeway.gov.tw/abs2mjpg/bmjpg?camera=15790",
    "map": "https://www.google.com/maps?q=24.9841,121.2327"
  },
  {
    "id": 3446,
    "name": "國道一號 61K+000 北向 中壢交流道到中壢轉接二交流道",
    "region": "國道一號",
    "city": "桃園市/新竹市",
    "lat": 24.9658,
    "lng": 121.2114,
    "url": "https://cctvn.freeway.gov.tw/abs2mjpg/bmjpg?camera=16100",
    "map": "https://www.google.com/maps?q=24.9658,121.2114"
  },
  {
    "id": 3447,
    "name": "國道一號 62K+205 南向 中壢交流道到平鎮系統交流道",
    "region": "國道一號",
    "city": "桃園市/新竹市",
    "lat": 24.9586,
    "lng": 121.2009,
    "url": "https://cctvn.freeway.gov.tw/abs2mjpg/bmjpg?camera=16220",
    "map": "https://www.google.com/maps?q=24.9586,121.2009"
  },
  {
    "id": 3448,
    "name": "國道一號 63K+020 南向 中壢交流道到平鎮系統交流道",
    "region": "國道一號",
    "city": "桃園市/新竹市",
    "lat": 24.9524,
    "lng": 121.1966,
    "url": "https://cctvn.freeway.gov.tw/abs2mjpg/bmjpg?camera=16301",
    "map": "https://www.google.com/maps?q=24.9524,121.1966"
  },
  {
    "id": 3449,
    "name": "國道一號 64K+000 南向 中壢交流道到平鎮系統交流道",
    "region": "國道一號",
    "city": "桃園市/新竹市",
    "lat": 24.9436,
    "lng": 121.1939,
    "url": "https://cctvn.freeway.gov.tw/abs2mjpg/bmjpg?camera=16400",
    "map": "https://www.google.com/maps?q=24.9436,121.1939"
  },
  {
    "id": 3450,
    "name": "國道一號 64K+600 北向 平鎮系統交流道到中壢交流道",
    "region": "國道一號",
    "city": "桃園市/新竹市",
    "lat": 24.9385,
    "lng": 121.192,
    "url": "https://cctvn.freeway.gov.tw/abs2mjpg/bmjpg?camera=16460",
    "map": "https://www.google.com/maps?q=24.9385,121.192"
  },
  {
    "id": 3451,
    "name": "國道一號 65K+000 北向 平鎮系統交流道到中壢交流道",
    "region": "國道一號",
    "city": "桃園市/新竹市",
    "lat": 24.9354,
    "lng": 121.1903,
    "url": "https://cctvn.freeway.gov.tw/abs2mjpg/bmjpg?camera=16500",
    "map": "https://www.google.com/maps?q=24.9354,121.1903"
  },
  {
    "id": 3452,
    "name": "國道一號 65K+920 南向 平鎮系統交流道到幼獅交流道",
    "region": "國道一號",
    "city": "桃園市/新竹市",
    "lat": 24.9314,
    "lng": 121.1819,
    "url": "https://cctvn.freeway.gov.tw/abs2mjpg/bmjpg?camera=16590",
    "map": "https://www.google.com/maps?q=24.9314,121.1819"
  },
  {
    "id": 3453,
    "name": "國道一號 67K+300 南向 平鎮系統交流道到幼獅交流道",
    "region": "國道一號",
    "city": "桃園市/新竹市",
    "lat": 24.9249,
    "lng": 121.1707,
    "url": "https://cctvn.freeway.gov.tw/abs2mjpg/bmjpg?camera=16730",
    "map": "https://www.google.com/maps?q=24.9249,121.1707"
  },
  {
    "id": 3454,
    "name": "國道一號 67K+395 南向 幼獅交流道到楊梅交流道",
    "region": "國道一號",
    "city": "桃園市/新竹市",
    "lat": 24.9239,
    "lng": 121.1702,
    "url": "https://cctvn.freeway.gov.tw/abs2mjpg/bmjpg?camera=16731",
    "map": "https://www.google.com/maps?q=24.9239,121.1702"
  },
  {
    "id": 3455,
    "name": "國道一號 69K+190 南向 楊梅交流道到高架楊梅端",
    "region": "國道一號",
    "city": "桃園市/新竹縣市",
    "lat": 24.9087,
    "lng": 121.1642,
    "url": "https://cctvn.freeway.gov.tw/abs2mjpg/bmjpg?camera=16910",
    "map": "https://www.google.com/maps?q=24.9087,121.1642"
  },
  {
    "id": 3457,
    "name": "國道一號 70K+150 北向 高架楊梅端到楊梅交流道",
    "region": "國道一號",
    "city": "桃園市/新竹縣市",
    "lat": 24.9022,
    "lng": 121.1581,
    "url": "https://cctvn.freeway.gov.tw/abs2mjpg/bmjpg?camera=17010",
    "map": "https://www.google.com/maps?q=24.9022,121.1581"
  },
  {
    "id": 3458,
    "name": "國道一號 70K+220 北向 高架楊梅端到楊梅交流道",
    "region": "國道一號",
    "city": "桃園市/新竹縣市",
    "lat": 24.902,
    "lng": 121.1577,
    "url": "https://cctvn.freeway.gov.tw/abs2mjpg/bmjpg?camera=17027",
    "map": "https://www.google.com/maps?q=24.902,121.1577"
  },
  {
    "id": 3459,
    "name": "國道一號 71K+900 北向 湖口交流道到高架楊梅端",
    "region": "國道一號",
    "city": "桃園市/新竹縣市",
    "lat": 24.8975,
    "lng": 121.1417,
    "url": "https://cctvn.freeway.gov.tw/abs2mjpg/bmjpg?camera=17190",
    "map": "https://www.google.com/maps?q=24.8975,121.1417"
  },
  {
    "id": 3460,
    "name": "國道一號 72K+675 南向 高架楊梅端到湖口交流道",
    "region": "國道一號",
    "city": "桃園市/新竹縣市",
    "lat": 24.8958,
    "lng": 121.1342,
    "url": "https://cctvn.freeway.gov.tw/abs2mjpg/bmjpg?camera=17260",
    "map": "https://www.google.com/maps?q=24.8958,121.1342"
  },
  {
    "id": 3461,
    "name": "國道一號 73K+950 北向 湖口交流道到高架楊梅端",
    "region": "國道一號",
    "city": "桃園市/新竹縣市",
    "lat": 24.8928,
    "lng": 121.1219,
    "url": "https://cctvn.freeway.gov.tw/abs2mjpg/bmjpg?camera=17390",
    "map": "https://www.google.com/maps?q=24.8928,121.1219"
  },
  {
    "id": 3462,
    "name": "國道一號 74K+500 北向 湖口交流道到高架楊梅端",
    "region": "國道一號",
    "city": "桃園市/新竹縣市",
    "lat": 24.8931,
    "lng": 121.1164,
    "url": "https://cctvn.freeway.gov.tw/abs2mjpg/bmjpg?camera=17450",
    "map": "https://www.google.com/maps?q=24.8931,121.1164"
  },
  {
    "id": 3463,
    "name": "國道一號 75K+390 南向 高架楊梅端到湖口交流道",
    "region": "國道一號",
    "city": "桃園市/新竹縣市",
    "lat": 24.8933,
    "lng": 121.1078,
    "url": "https://cctvn.freeway.gov.tw/abs2mjpg/bmjpg?camera=17530",
    "map": "https://www.google.com/maps?q=24.8933,121.1078"
  },
  {
    "id": 3464,
    "name": "國道一號 76K+453 南向 高架楊梅端到湖口交流道",
    "region": "國道一號",
    "city": "桃園市/新竹縣市",
    "lat": 24.8902,
    "lng": 121.098,
    "url": "https://cctvn.freeway.gov.tw/abs2mjpg/bmjpg?camera=17640",
    "map": "https://www.google.com/maps?q=24.8902,121.098"
  },
  {
    "id": 3465,
    "name": "國道一號 77K+530 北向 湖口交流道到高架楊梅端",
    "region": "國道一號",
    "city": "桃園市/新竹縣市",
    "lat": 24.885,
    "lng": 121.0889,
    "url": "https://cctvn.freeway.gov.tw/abs2mjpg/bmjpg?camera=17750",
    "map": "https://www.google.com/maps?q=24.885,121.0889"
  },
  {
    "id": 3466,
    "name": "國道一號 78K+600 南向 高架楊梅端到湖口交流道",
    "region": "國道一號",
    "city": "桃園市/新竹縣市",
    "lat": 24.8839,
    "lng": 121.0781,
    "url": "https://cctvn.freeway.gov.tw/abs2mjpg/bmjpg?camera=17860",
    "map": "https://www.google.com/maps?q=24.8839,121.0781"
  },
  {
    "id": 3467,
    "name": "國道一號 79K+850 北向 湖口交流道到高架楊梅端",
    "region": "國道一號",
    "city": "桃園市/新竹縣市",
    "lat": 24.8784,
    "lng": 121.0677,
    "url": "https://cctvn.freeway.gov.tw/abs2mjpg/bmjpg?camera=17980",
    "map": "https://www.google.com/maps?q=24.8784,121.0677"
  },
  {
    "id": 3469,
    "name": "國道一號 80K+300 北向 湖口交流道到高架楊梅端",
    "region": "國道一號",
    "city": "桃園市/新竹縣市",
    "lat": 24.8767,
    "lng": 121.0635,
    "url": "https://cctvn.freeway.gov.tw/abs2mjpg/bmjpg?camera=18030",
    "map": "https://www.google.com/maps?q=24.8767,121.0635"
  },
  {
    "id": 3470,
    "name": "國道一號 81K+100 北向 湖口交流道到高架楊梅端",
    "region": "國道一號",
    "city": "桃園市/新竹縣市",
    "lat": 24.8758,
    "lng": 121.0556,
    "url": "https://cctvn.freeway.gov.tw/abs2mjpg/bmjpg?camera=18110",
    "map": "https://www.google.com/maps?q=24.8758,121.0556"
  },
  {
    "id": 3471,
    "name": "國道一號 82K+020 南向 高架楊梅端到湖口交流道",
    "region": "國道一號",
    "city": "桃園市/新竹縣市",
    "lat": 24.8767,
    "lng": 121.0467,
    "url": "https://cctvn.freeway.gov.tw/abs2mjpg/bmjpg?camera=18200",
    "map": "https://www.google.com/maps?q=24.8767,121.0467"
  },
  {
    "id": 3472,
    "name": "國道一號 82K+900 南向 高架楊梅端到湖口交流道",
    "region": "國道一號",
    "city": "桃園市/新竹縣市",
    "lat": 24.8769,
    "lng": 121.0378,
    "url": "https://cctvn.freeway.gov.tw/abs2mjpg/bmjpg?camera=18290",
    "map": "https://www.google.com/maps?q=24.8769,121.0378"
  },
  {
    "id": 3473,
    "name": "國道一號 83K+750 南向 高架楊梅端到湖口交流道",
    "region": "國道一號",
    "city": "桃園市/新竹縣市",
    "lat": 24.8763,
    "lng": 121.0295,
    "url": "https://cctvn.freeway.gov.tw/abs2mjpg/bmjpg?camera=18370",
    "map": "https://www.google.com/maps?q=24.8763,121.0295"
  },
  {
    "id": 3474,
    "name": "國道一號 84K+600 南向 湖口交流道到湖口服務區",
    "region": "國道一號",
    "city": "桃園市/新竹縣市",
    "lat": 24.8731,
    "lng": 121.0214,
    "url": "https://cctvn.freeway.gov.tw/abs2mjpg/bmjpg?camera=18460",
    "map": "https://www.google.com/maps?q=24.8731,121.0214"
  },
  {
    "id": 3475,
    "name": "國道一號 85K+460 南向 湖口交流道到湖口服務區",
    "region": "國道一號",
    "city": "桃園市/新竹縣市",
    "lat": 24.8678,
    "lng": 121.0148,
    "url": "https://cctvn.freeway.gov.tw/abs2mjpg/bmjpg?camera=18540",
    "map": "https://www.google.com/maps?q=24.8678,121.0148"
  },
  {
    "id": 3476,
    "name": "國道一號 86K+000 北向 竹北交流道到湖口服務區",
    "region": "國道一號",
    "city": "桃園市/新竹縣市",
    "lat": 24.8623,
    "lng": 121.0119,
    "url": "https://cctvn.freeway.gov.tw/abs2mjpg/bmjpg?camera=18600",
    "map": "https://www.google.com/maps?q=24.8623,121.0119"
  },
  {
    "id": 3477,
    "name": "國道一號 86K+000 北向 竹北交流道到湖口服務區",
    "region": "國道一號",
    "city": "桃園市/新竹縣市",
    "lat": 24.8612,
    "lng": 121.0121,
    "url": "https://cctvn.freeway.gov.tw/abs2mjpg/bmjpg?camera=18601",
    "map": "https://www.google.com/maps?q=24.8612,121.0121"
  },
  {
    "id": 3478,
    "name": "國道一號 86K+000 南向 湖口交流道到湖口服務區",
    "region": "國道一號",
    "city": "桃園市/新竹縣市",
    "lat": 24.8569,
    "lng": 121.0085,
    "url": "https://cctvn.freeway.gov.tw/abs2mjpg/bmjpg?camera=18604",
    "map": "https://www.google.com/maps?q=24.8569,121.0085"
  },
  {
    "id": 3479,
    "name": "國道一號 86K+000 南向 湖口交流道到湖口服務區",
    "region": "國道一號",
    "city": "桃園市/新竹縣市",
    "lat": 24.8578,
    "lng": 121.0091,
    "url": "https://cctvn.freeway.gov.tw/abs2mjpg/bmjpg?camera=18603",
    "map": "https://www.google.com/maps?q=24.8578,121.0091"
  },
  {
    "id": 3480,
    "name": "國道一號 86K+090 南向 湖口交流道到湖口服務區",
    "region": "國道一號",
    "city": "桃園市/新竹縣市",
    "lat": 24.8634,
    "lng": 121.0118,
    "url": "https://cctvn.freeway.gov.tw/abs2mjpg/bmjpg?camera=18602",
    "map": "https://www.google.com/maps?q=24.8634,121.0118"
  },
  {
    "id": 3481,
    "name": "國道一號 86K+750 南向 湖口服務區到竹北交流道",
    "region": "國道一號",
    "city": "桃園市/新竹縣市",
    "lat": 24.8574,
    "lng": 121.0104,
    "url": "https://cctvn.freeway.gov.tw/abs2mjpg/bmjpg?camera=18670",
    "map": "https://www.google.com/maps?q=24.8574,121.0104"
  },
  {
    "id": 3482,
    "name": "國道一號 87K+050 南向 湖口服務區到竹北交流道",
    "region": "國道一號",
    "city": "桃園市/新竹縣市",
    "lat": 24.8549,
    "lng": 121.0117,
    "url": "https://cctvn.freeway.gov.tw/abs2mjpg/bmjpg?camera=18700",
    "map": "https://www.google.com/maps?q=24.8549,121.0117"
  },
  {
    "id": 3483,
    "name": "國道一號 87K+490 北向 竹北交流道到湖口服務區",
    "region": "國道一號",
    "city": "桃園市/新竹縣市",
    "lat": 24.8521,
    "lng": 121.015,
    "url": "https://cctvn.freeway.gov.tw/abs2mjpg/bmjpg?camera=18740",
    "map": "https://www.google.com/maps?q=24.8521,121.015"
  },
  {
    "id": 3484,
    "name": "國道一號 88K+590 南向 湖口服務區到竹北交流道",
    "region": "國道一號",
    "city": "桃園市/新竹縣市",
    "lat": 24.8444,
    "lng": 121.0214,
    "url": "https://cctvn.freeway.gov.tw/abs2mjpg/bmjpg?camera=18850",
    "map": "https://www.google.com/maps?q=24.8444,121.0214"
  },
  {
    "id": 3485,
    "name": "國道一號 89K+300 北向 竹北交流道到湖口服務區",
    "region": "國道一號",
    "city": "桃園市/新竹縣市",
    "lat": 24.8383,
    "lng": 121.0225,
    "url": "https://cctvn.freeway.gov.tw/abs2mjpg/bmjpg?camera=18930",
    "map": "https://www.google.com/maps?q=24.8383,121.0225"
  },
  {
    "id": 3488,
    "name": "國道一號 90K+010 北向 竹北交流道到湖口服務區",
    "region": "國道一號",
    "city": "桃園市/新竹縣市",
    "lat": 24.8319,
    "lng": 121.0217,
    "url": "https://cctvn.freeway.gov.tw/abs2mjpg/bmjpg?camera=19000",
    "map": "https://www.google.com/maps?q=24.8319,121.0217"
  },
  {
    "id": 3489,
    "name": "國道一號 90K+470 北向 竹北交流道到湖口服務區",
    "region": "國道一號",
    "city": "桃園市/新竹縣市",
    "lat": 24.8282,
    "lng": 121.0201,
    "url": "https://cctvn.freeway.gov.tw/abs2mjpg/bmjpg?camera=19040",
    "map": "https://www.google.com/maps?q=24.8282,121.0201"
  },
  {
    "id": 3490,
    "name": "國道一號 91K+000 南向 湖口服務區到竹北交流道",
    "region": "國道一號",
    "city": "桃園市/新竹縣市",
    "lat": 24.8239,
    "lng": 121.0172,
    "url": "https://cctvn.freeway.gov.tw/abs2mjpg/bmjpg?camera=19101",
    "map": "https://www.google.com/maps?q=24.8239,121.0172"
  },
  {
    "id": 3491,
    "name": "國道一號 91K+000 南向 湖口服務區到竹北交流道",
    "region": "國道一號",
    "city": "桃園市/新竹縣市",
    "lat": 24.8239,
    "lng": 121.0172,
    "url": "https://cctvn.freeway.gov.tw/abs2mjpg/bmjpg?camera=19100",
    "map": "https://www.google.com/maps?q=24.8239,121.0172"
  },
  {
    "id": 3492,
    "name": "國道一號 91K+800 南向 竹北交流道到新竹交流道",
    "region": "國道一號",
    "city": "桃園市/新竹市",
    "lat": 24.8175,
    "lng": 121.0133,
    "url": "https://cctvn.freeway.gov.tw/abs2mjpg/bmjpg?camera=19180",
    "map": "https://www.google.com/maps?q=24.8175,121.0133"
  },
  {
    "id": 3493,
    "name": "國道一號 92K+675 北向 新竹交流道到竹北交流道",
    "region": "國道一號",
    "city": "桃園市/新竹市",
    "lat": 24.81,
    "lng": 121.0108,
    "url": "https://cctvn.freeway.gov.tw/abs2mjpg/bmjpg?camera=19260",
    "map": "https://www.google.com/maps?q=24.81,121.0108"
  },
  {
    "id": 3494,
    "name": "國道一號 93K+080 南向 竹北交流道到新竹交流道",
    "region": "國道一號",
    "city": "桃園市/新竹市",
    "lat": 24.8065,
    "lng": 121.0099,
    "url": "https://cctvn.freeway.gov.tw/abs2mjpg/bmjpg?camera=19300",
    "map": "https://www.google.com/maps?q=24.8065,121.0099"
  },
  {
    "id": 3495,
    "name": "國道一號 94K+030 北向 新竹交流道到竹北交流道",
    "region": "國道一號",
    "city": "桃園市/新竹市",
    "lat": 24.7976,
    "lng": 121.009,
    "url": "https://cctvn.freeway.gov.tw/abs2mjpg/bmjpg?camera=19400",
    "map": "https://www.google.com/maps?q=24.7976,121.009"
  },
  {
    "id": 3496,
    "name": "國道一號 94K+900 南向 竹北交流道到新竹交流道",
    "region": "國道一號",
    "city": "桃園市/新竹市",
    "lat": 24.7898,
    "lng": 121.0055,
    "url": "https://cctvn.freeway.gov.tw/abs2mjpg/bmjpg?camera=19490",
    "map": "https://www.google.com/maps?q=24.7898,121.0055"
  },
  {
    "id": 3497,
    "name": "國道一號 95K+920 北向 新竹系統交流道到新竹交流道",
    "region": "國道一號",
    "city": "桃園市/新竹市",
    "lat": 24.7815,
    "lng": 121.0038,
    "url": "https://cctvn.freeway.gov.tw/abs2mjpg/bmjpg?camera=19591",
    "map": "https://www.google.com/maps?q=24.7815,121.0038"
  },
  {
    "id": 3498,
    "name": "國道一號 95K+950 南向 新竹交流道到新竹系統交流道",
    "region": "國道一號",
    "city": "桃園市/新竹市",
    "lat": 24.7814,
    "lng": 121.0033,
    "url": "https://cctvn.freeway.gov.tw/abs2mjpg/bmjpg?camera=19592",
    "map": "https://www.google.com/maps?q=24.7814,121.0033"
  },
  {
    "id": 3499,
    "name": "國道一號 96K+600 北向 新竹系統交流道到新竹交流道",
    "region": "國道一號",
    "city": "桃園市/新竹市",
    "lat": 24.7752,
    "lng": 121.004,
    "url": "https://cctvn.freeway.gov.tw/abs2mjpg/bmjpg?camera=19660",
    "map": "https://www.google.com/maps?q=24.7752,121.004"
  },
  {
    "id": 3500,
    "name": "國道一號 97K+450 北向 新竹系統交流道到新竹交流道",
    "region": "國道一號",
    "city": "桃園市/新竹市",
    "lat": 24.7681,
    "lng": 121.0022,
    "url": "https://cctvn.freeway.gov.tw/abs2mjpg/bmjpg?camera=19740",
    "map": "https://www.google.com/maps?q=24.7681,121.0022"
  },
  {
    "id": 3501,
    "name": "國道一號 98K+000 北向 新竹系統交流道到新竹交流道",
    "region": "國道一號",
    "city": "桃園市/新竹市",
    "lat": 24.7635,
    "lng": 120.999,
    "url": "https://cctvn.freeway.gov.tw/abs2mjpg/bmjpg?camera=19800",
    "map": "https://www.google.com/maps?q=24.7635,120.999"
  },
  {
    "id": 3502,
    "name": "國道一號 98K+890 南向 新竹交流道到新竹系統交流道",
    "region": "國道一號",
    "city": "桃園市/新竹市",
    "lat": 24.7606,
    "lng": 120.9911,
    "url": "https://cctvn.freeway.gov.tw/abs2mjpg/bmjpg?camera=19880",
    "map": "https://www.google.com/maps?q=24.7606,120.9911"
  },
  {
    "id": 3503,
    "name": "國道一號 99K+300 北向 頭份交流道到新竹系統交流道",
    "region": "國道一號",
    "city": "桃園市/新竹市",
    "lat": 24.7572,
    "lng": 120.9888,
    "url": "https://cctvn.freeway.gov.tw/abs2mjpg/bmjpg?camera=19930",
    "map": "https://www.google.com/maps?q=24.7572,120.9888"
  },
  {
    "id": 3504,
    "name": "國道一號 99K+630 北向 頭份交流道到新竹系統交流道",
    "region": "國道一號",
    "city": "桃園市/新竹市",
    "lat": 24.7554,
    "lng": 120.9864,
    "url": "https://cctvn.freeway.gov.tw/abs2mjpg/bmjpg?camera=19960",
    "map": "https://www.google.com/maps?q=24.7554,120.9864"
  },
  {
    "id": 3510,
    "name": "國道一號 北向110.34km",
    "region": "國道一號",
    "city": "桃園市/新竹縣市",
    "lat": 24.6913,
    "lng": 120.9191,
    "url": "https://cctvc.freeway.gov.tw/abs2mjpg/bmjpg?camera=1636",
    "map": "https://www.google.com/maps?q=24.6913,120.9191"
  },
  {
    "id": 3511,
    "name": "國道一號 北向110.53km",
    "region": "國道一號",
    "city": "桃園市/新竹縣市",
    "lat": 24.6904,
    "lng": 120.9169,
    "url": "https://cctvc.freeway.gov.tw/abs2mjpg/bmjpg?camera=1637",
    "map": "https://www.google.com/maps?q=24.6904,120.9169"
  },
  {
    "id": 3536,
    "name": "國道一號 南向110.24km",
    "region": "國道一號",
    "city": "桃園市/新竹縣市",
    "lat": 24.693,
    "lng": 120.9179,
    "url": "https://cctvc.freeway.gov.tw/abs2mjpg/bmjpg?camera=1635",
    "map": "https://www.google.com/maps?q=24.693,120.9179"
  },
  {
    "id": 3594,
    "name": "國道一號五股楊梅高架道路 52K+100 南向 機場系統交流道到中壢轉接道交流道",
    "region": "國道一號",
    "city": "桃園市/新竹市",
    "lat": 25.0204,
    "lng": 121.2744,
    "url": "https://cctvn.freeway.gov.tw/abs2mjpg/bmjpg?camera=15210",
    "map": "https://www.google.com/maps?q=25.0204,121.2744"
  },
  {
    "id": 3595,
    "name": "國道一號五股楊梅高架道路 52K+640 南向 機場系統交流道到中壢轉接道交流道",
    "region": "國道一號",
    "city": "桃園市/新竹市",
    "lat": 25.0168,
    "lng": 121.2704,
    "url": "https://cctvn.freeway.gov.tw/abs2mjpg/bmjpg?camera=15260",
    "map": "https://www.google.com/maps?q=25.0168,121.2704"
  },
  {
    "id": 3596,
    "name": "國道一號五股楊梅高架道路 52K+653 北向 中壢轉接道交流道到機場系統交流道",
    "region": "國道一號",
    "city": "桃園市/新竹市",
    "lat": 25.0164,
    "lng": 121.2711,
    "url": "https://cctvn.freeway.gov.tw/abs2mjpg/bmjpg?camera=15261",
    "map": "https://www.google.com/maps?q=25.0164,121.2711"
  },
  {
    "id": 3597,
    "name": "國道一號五股楊梅高架道路 53K+448 北向 中壢轉接道交流道到機場系統交流道",
    "region": "國道一號",
    "city": "桃園市/新竹市",
    "lat": 25.0113,
    "lng": 121.2642,
    "url": "https://cctvn.freeway.gov.tw/abs2mjpg/bmjpg?camera=15340",
    "map": "https://www.google.com/maps?q=25.0113,121.2642"
  },
  {
    "id": 3598,
    "name": "國道一號五股楊梅高架道路 53K+710 南向 機場系統交流道到中壢轉接道交流道",
    "region": "國道一號",
    "city": "桃園市/新竹市",
    "lat": 25.0107,
    "lng": 121.2624,
    "url": "https://cctvn.freeway.gov.tw/abs2mjpg/bmjpg?camera=15370",
    "map": "https://www.google.com/maps?q=25.0107,121.2624"
  },
  {
    "id": 3599,
    "name": "國道一號五股楊梅高架道路 54K+323 北向 中壢轉接道交流道到機場系統交流道",
    "region": "國道一號",
    "city": "桃園市/新竹市",
    "lat": 25.0067,
    "lng": 121.2584,
    "url": "https://cctvn.freeway.gov.tw/abs2mjpg/bmjpg?camera=15430",
    "map": "https://www.google.com/maps?q=25.0067,121.2584"
  },
  {
    "id": 3600,
    "name": "國道一號五股楊梅高架道路 55K+010 南向 機場系統交流道到中壢轉接道交流道",
    "region": "國道一號",
    "city": "桃園市/新竹市",
    "lat": 25.003,
    "lng": 121.2527,
    "url": "https://cctvn.freeway.gov.tw/abs2mjpg/bmjpg?camera=15503",
    "map": "https://www.google.com/maps?q=25.003,121.2527"
  },
  {
    "id": 3601,
    "name": "國道一號五股楊梅高架道路 55K+550 北向 中壢轉接道交流道到機場系統交流道",
    "region": "國道一號",
    "city": "桃園市/新竹市",
    "lat": 24.9994,
    "lng": 121.249,
    "url": "https://cctvn.freeway.gov.tw/abs2mjpg/bmjpg?camera=15550",
    "map": "https://www.google.com/maps?q=24.9994,121.249"
  },
  {
    "id": 3602,
    "name": "國道一號五股楊梅高架道路 55K+720 南向 機場系統交流道到中壢轉接道交流道",
    "region": "國道一號",
    "city": "桃園市/新竹市",
    "lat": 24.9988,
    "lng": 121.2474,
    "url": "https://cctvn.freeway.gov.tw/abs2mjpg/bmjpg?camera=15570",
    "map": "https://www.google.com/maps?q=24.9988,121.2474"
  },
  {
    "id": 3603,
    "name": "國道一號五股楊梅高架道路 56K+585 北向 中壢轉接道交流道到機場系統交流道",
    "region": "國道一號",
    "city": "桃園市/新竹市",
    "lat": 24.9927,
    "lng": 121.2421,
    "url": "https://cctvn.freeway.gov.tw/abs2mjpg/bmjpg?camera=15650",
    "map": "https://www.google.com/maps?q=24.9927,121.2421"
  },
  {
    "id": 3604,
    "name": "國道一號五股楊梅高架道路 56K+770 南向 機場系統交流道到中壢轉接道交流道",
    "region": "國道一號",
    "city": "桃園市/新竹市",
    "lat": 24.9919,
    "lng": 121.2402,
    "url": "https://cctvn.freeway.gov.tw/abs2mjpg/bmjpg?camera=15670",
    "map": "https://www.google.com/maps?q=24.9919,121.2402"
  },
  {
    "id": 3605,
    "name": "國道一號五股楊梅高架道路 57K+063 北向 中壢轉接道交流道到機場系統交流道",
    "region": "國道一號",
    "city": "桃園市/新竹市",
    "lat": 24.9895,
    "lng": 121.2388,
    "url": "https://cctvn.freeway.gov.tw/abs2mjpg/bmjpg?camera=15700",
    "map": "https://www.google.com/maps?q=24.9895,121.2388"
  },
  {
    "id": 3606,
    "name": "國道一號五股楊梅高架道路 57K+725 南向 機場系統交流道到中壢轉接道交流道",
    "region": "國道一號",
    "city": "桃園市/新竹市",
    "lat": 24.9854,
    "lng": 121.2339,
    "url": "https://cctvn.freeway.gov.tw/abs2mjpg/bmjpg?camera=15770",
    "map": "https://www.google.com/maps?q=24.9854,121.2339"
  },
  {
    "id": 3607,
    "name": "國道一號五股楊梅高架道路 57K+738 北向 中壢轉接道交流道到機場系統交流道",
    "region": "國道一號",
    "city": "桃園市/新竹市",
    "lat": 24.9851,
    "lng": 121.2344,
    "url": "https://cctvn.freeway.gov.tw/abs2mjpg/bmjpg?camera=15771",
    "map": "https://www.google.com/maps?q=24.9851,121.2344"
  },
  {
    "id": 3608,
    "name": "國道一號五股楊梅高架道路 58K+783 北向 中壢轉接道交流道到機場系統交流道",
    "region": "國道一號",
    "city": "桃園市/新竹市",
    "lat": 24.9786,
    "lng": 121.2269,
    "url": "https://cctvn.freeway.gov.tw/abs2mjpg/bmjpg?camera=15870",
    "map": "https://www.google.com/maps?q=24.9786,121.2269"
  },
  {
    "id": 3609,
    "name": "國道一號五股楊梅高架道路 58K+793 南向 機場系統交流道到中壢轉接道交流道",
    "region": "國道一號",
    "city": "桃園市/新竹市",
    "lat": 24.9787,
    "lng": 121.2262,
    "url": "https://cctvn.freeway.gov.tw/abs2mjpg/bmjpg?camera=15871",
    "map": "https://www.google.com/maps?q=24.9787,121.2262"
  },
  {
    "id": 3610,
    "name": "國道一號五股楊梅高架道路 59K+500 北向 校前路交流道到中壢轉接道交流道",
    "region": "國道一號",
    "city": "桃園市/新竹市",
    "lat": 24.9743,
    "lng": 121.2219,
    "url": "https://cctvn.freeway.gov.tw/abs2mjpg/bmjpg?camera=15950",
    "map": "https://www.google.com/maps?q=24.9743,121.2219"
  },
  {
    "id": 3611,
    "name": "國道一號五股楊梅高架道路 60K+200 北向 校前路交流道到中壢轉接道交流道",
    "region": "國道一號",
    "city": "桃園市/新竹市",
    "lat": 25.0638,
    "lng": 121.4198,
    "url": "https://cctvn.freeway.gov.tw/abs2mjpg/bmjpg?camera=16021",
    "map": "https://www.google.com/maps?q=25.0638,121.4198"
  },
  {
    "id": 3612,
    "name": "國道一號五股楊梅高架道路 60K+200 南向 中壢轉接道交流道到校前路交流道",
    "region": "國道一號",
    "city": "桃園市/新竹市",
    "lat": 24.97,
    "lng": 121.2161,
    "url": "https://cctvn.freeway.gov.tw/abs2mjpg/bmjpg?camera=16020",
    "map": "https://www.google.com/maps?q=24.97,121.2161"
  },
  {
    "id": 3613,
    "name": "國道一號五股楊梅高架道路 61K+100 南向 中壢轉接道交流道到校前路交流道",
    "region": "國道一號",
    "city": "桃園市/新竹市",
    "lat": 24.9647,
    "lng": 121.2087,
    "url": "https://cctvn.freeway.gov.tw/abs2mjpg/bmjpg?camera=16110",
    "map": "https://www.google.com/maps?q=24.9647,121.2087"
  },
  {
    "id": 3614,
    "name": "國道一號五股楊梅高架道路 61K+708 北向 校前路交流道到中壢轉接道交流道",
    "region": "國道一號",
    "city": "桃園市/新竹市",
    "lat": 24.9617,
    "lng": 121.2053,
    "url": "https://cctvn.freeway.gov.tw/abs2mjpg/bmjpg?camera=16170",
    "map": "https://www.google.com/maps?q=24.9617,121.2053"
  },
  {
    "id": 3615,
    "name": "國道一號五股楊梅高架道路 62K+000 南向 中壢轉接道交流道到校前路交流道",
    "region": "國道一號",
    "city": "桃園市/新竹市",
    "lat": 24.9598,
    "lng": 121.2018,
    "url": "https://cctvn.freeway.gov.tw/abs2mjpg/bmjpg?camera=16200",
    "map": "https://www.google.com/maps?q=24.9598,121.2018"
  },
  {
    "id": 3616,
    "name": "國道一號五股楊梅高架道路 63K+045 南向 中壢轉接道交流道到校前路交流道",
    "region": "國道一號",
    "city": "桃園市/新竹市",
    "lat": 24.9522,
    "lng": 121.1965,
    "url": "https://cctvn.freeway.gov.tw/abs2mjpg/bmjpg?camera=16300",
    "map": "https://www.google.com/maps?q=24.9522,121.1965"
  },
  {
    "id": 3617,
    "name": "國道一號五股楊梅高架道路 63K+265 北向 校前路交流道到中壢轉接道交流道",
    "region": "國道一號",
    "city": "桃園市/新竹市",
    "lat": 24.9497,
    "lng": 121.1961,
    "url": "https://cctvn.freeway.gov.tw/abs2mjpg/bmjpg?camera=16320",
    "map": "https://www.google.com/maps?q=24.9497,121.1961"
  },
  {
    "id": 3618,
    "name": "國道一號五股楊梅高架道路 64K+360 北向 校前路交流道到中壢轉接道交流道",
    "region": "國道一號",
    "city": "桃園市/新竹市",
    "lat": 24.9406,
    "lng": 121.1934,
    "url": "https://cctvn.freeway.gov.tw/abs2mjpg/bmjpg?camera=16430",
    "map": "https://www.google.com/maps?q=24.9406,121.1934"
  },
  {
    "id": 3619,
    "name": "國道一號五股楊梅高架道路 65K+024 南向 中壢轉接道交流道到校前路交流道",
    "region": "國道一號",
    "city": "桃園市/新竹市",
    "lat": 24.936,
    "lng": 121.1889,
    "url": "https://cctvn.freeway.gov.tw/abs2mjpg/bmjpg?camera=16501",
    "map": "https://www.google.com/maps?q=24.936,121.1889"
  },
  {
    "id": 3620,
    "name": "國道一號五股楊梅高架道路 65K+500 北向 校前路交流道到中壢轉接道交流道",
    "region": "國道一號",
    "city": "桃園市/新竹市",
    "lat": 24.9331,
    "lng": 121.1868,
    "url": "https://cctvn.freeway.gov.tw/abs2mjpg/bmjpg?camera=16550",
    "map": "https://www.google.com/maps?q=24.9331,121.1868"
  },
  {
    "id": 3621,
    "name": "國道一號五股楊梅高架道路 66K+000 南向 中壢轉接道交流道到校前路交流道",
    "region": "國道一號",
    "city": "桃園市/新竹市",
    "lat": 24.9316,
    "lng": 121.1813,
    "url": "https://cctvn.freeway.gov.tw/abs2mjpg/bmjpg?camera=16600",
    "map": "https://www.google.com/maps?q=24.9316,121.1813"
  },
  {
    "id": 3622,
    "name": "國道一號五股楊梅高架道路 67K+000 北向 校前路交流道到中壢轉接道交流道",
    "region": "國道一號",
    "city": "桃園市/新竹市",
    "lat": 24.9271,
    "lng": 121.1739,
    "url": "https://cctvn.freeway.gov.tw/abs2mjpg/bmjpg?camera=16701",
    "map": "https://www.google.com/maps?q=24.9271,121.1739"
  },
  {
    "id": 3623,
    "name": "國道一號五股楊梅高架道路 67K+000 南向 中壢轉接道交流道到校前路交流道",
    "region": "國道一號",
    "city": "桃園市/新竹市",
    "lat": 24.9265,
    "lng": 121.1719,
    "url": "https://cctvn.freeway.gov.tw/abs2mjpg/bmjpg?camera=16700",
    "map": "https://www.google.com/maps?q=24.9265,121.1719"
  },
  {
    "id": 3624,
    "name": "國道一號五股楊梅高架道路 68K+340 南向 中壢轉接道交流道到校前路交流道",
    "region": "國道一號",
    "city": "桃園市/新竹市",
    "lat": 24.9165,
    "lng": 121.1667,
    "url": "https://cctvn.freeway.gov.tw/abs2mjpg/bmjpg?camera=16830",
    "map": "https://www.google.com/maps?q=24.9165,121.1667"
  },
  {
    "id": 3625,
    "name": "國道一號五股楊梅高架道路 69K+500 北向 校前路交流道到中壢轉接道交流道",
    "region": "國道一號",
    "city": "桃園市/新竹市",
    "lat": 24.9059,
    "lng": 121.1632,
    "url": "https://cctvn.freeway.gov.tw/abs2mjpg/bmjpg?camera=16950",
    "map": "https://www.google.com/maps?q=24.9059,121.1632"
  },
  {
    "id": 3626,
    "name": "國道一號五股楊梅高架道路 69K+505 南向 中壢轉接道交流道到校前路交流道",
    "region": "國道一號",
    "city": "桃園市/新竹市",
    "lat": 24.9073,
    "lng": 121.1633,
    "url": "https://cctvn.freeway.gov.tw/abs2mjpg/bmjpg?camera=16951",
    "map": "https://www.google.com/maps?q=24.9073,121.1633"
  },
  {
    "id": 3627,
    "name": "國道一號五股楊梅高架道路 70K+500 南向 校前路交流道到楊梅端",
    "region": "國道一號",
    "city": "桃園市/新竹縣市",
    "lat": 24.9014,
    "lng": 121.1545,
    "url": "https://cctvn.freeway.gov.tw/abs2mjpg/bmjpg?camera=17051",
    "map": "https://www.google.com/maps?q=24.9014,121.1545"
  },
  {
    "id": 3628,
    "name": "國道一號五股楊梅高架道路 70K+500 南向 校前路交流道到楊梅端",
    "region": "國道一號",
    "city": "桃園市/新竹縣市",
    "lat": 24.9014,
    "lng": 121.1546,
    "url": "https://cctvn.freeway.gov.tw/abs2mjpg/bmjpg?camera=17050",
    "map": "https://www.google.com/maps?q=24.9014,121.1546"
  },
  {
    "id": 3629,
    "name": "國道一號五股楊梅高架道路 70K+900 北向 楊梅端到校前路交流道",
    "region": "國道一號",
    "city": "桃園市/新竹縣市",
    "lat": 24.9003,
    "lng": 121.1524,
    "url": "https://cctvn.freeway.gov.tw/abs2mjpg/bmjpg?camera=17090",
    "map": "https://www.google.com/maps?q=24.9003,121.1524"
  },
  {
    "id": 3630,
    "name": "國道一號五股楊梅高架道路 71K+000 北向 楊梅端到校前路交流道",
    "region": "國道一號",
    "city": "桃園市/新竹縣市",
    "lat": 24.8999,
    "lng": 121.1504,
    "url": "https://cctvn.freeway.gov.tw/abs2mjpg/bmjpg?camera=17100",
    "map": "https://www.google.com/maps?q=24.8999,121.1504"
  },
  {
    "id": 3631,
    "name": "國道一號五股楊梅高架道路 71K+400 南向 校前路交流道到楊梅端",
    "region": "國道一號",
    "city": "桃園市/新竹縣市",
    "lat": 24.8994,
    "lng": 121.1463,
    "url": "https://cctvn.freeway.gov.tw/abs2mjpg/bmjpg?camera=17140",
    "map": "https://www.google.com/maps?q=24.8994,121.1463"
  },
  {
    "id": 3632,
    "name": "國道一號五股楊梅高架道路 北向59.8km",
    "region": "國道一號",
    "city": "桃園市/新竹縣市",
    "lat": 24.9741,
    "lng": 121.2214,
    "url": "https://cctvn.freeway.gov.tw/abs2mjpg/bmjpg?camera=15982",
    "map": "https://www.google.com/maps?q=24.9741,121.2214"
  },
  {
    "id": 3758,
    "name": "國道三號 124K+530 南向 大山交流道 南下入口",
    "region": "國道三號",
    "city": "桃園市/新竹縣市",
    "lat": 24.6355,
    "lng": 120.8169,
    "url": "https://cctvc.freeway.gov.tw/abs2mjpg/bmjpg?camera=1679",
    "map": "https://www.google.com/maps?q=24.6355,120.8169"
  },
  {
    "id": 3759,
    "name": "國道三號 124K+580 北向 大山交流道",
    "region": "國道三號",
    "city": "桃園市/新竹縣市",
    "lat": 24.6361,
    "lng": 120.8178,
    "url": "https://cctvc.freeway.gov.tw/abs2mjpg/bmjpg?camera=1678",
    "map": "https://www.google.com/maps?q=24.6361,120.8178"
  },
  {
    "id": 3760,
    "name": "國道三號 125K+240 北向 後龍交流道到大山交流道",
    "region": "國道三號",
    "city": "桃園市/新竹縣市",
    "lat": 24.6309,
    "lng": 120.8152,
    "url": "https://cctvc.freeway.gov.tw/abs2mjpg/bmjpg?camera=682",
    "map": "https://www.google.com/maps?q=24.6309,120.8152"
  },
  {
    "id": 3761,
    "name": "國道三號 125K+995 南向 大山交流道到後龍交流道",
    "region": "國道三號",
    "city": "桃園市/新竹縣市",
    "lat": 24.6242,
    "lng": 120.8134,
    "url": "https://cctvc.freeway.gov.tw/abs2mjpg/bmjpg?camera=363",
    "map": "https://www.google.com/maps?q=24.6242,120.8134"
  },
  {
    "id": 3762,
    "name": "國道三號 127K+465 北向 後龍交流道到大山交流道",
    "region": "國道三號",
    "city": "桃園市/新竹縣市",
    "lat": 24.6125,
    "lng": 120.8072,
    "url": "https://cctvc.freeway.gov.tw/abs2mjpg/bmjpg?camera=583",
    "map": "https://www.google.com/maps?q=24.6125,120.8072"
  },
  {
    "id": 3763,
    "name": "國道三號 128K+385 南向 大山交流道到後龍交流道",
    "region": "國道三號",
    "city": "桃園市/新竹縣市",
    "lat": 24.6083,
    "lng": 120.7995,
    "url": "https://cctvc.freeway.gov.tw/abs2mjpg/bmjpg?camera=11",
    "map": "https://www.google.com/maps?q=24.6083,120.7995"
  },
  {
    "id": 3764,
    "name": "國道三號 129K+241 南向 大山交流道到後龍交流道",
    "region": "國道三號",
    "city": "桃園市/新竹縣市",
    "lat": 24.6044,
    "lng": 120.7921,
    "url": "https://cctvc.freeway.gov.tw/abs2mjpg/bmjpg?camera=683",
    "map": "https://www.google.com/maps?q=24.6044,120.7921"
  },
  {
    "id": 4324,
    "name": "國道三號 46K+470 南向 樹林交流道到三鶯交流道",
    "region": "國道三號",
    "city": "桃園市/新竹縣市",
    "lat": 24.9518,
    "lng": 121.3955,
    "url": "https://cctvn.freeway.gov.tw/abs2mjpg/bmjpg?camera=34641",
    "map": "https://www.google.com/maps?q=24.9518,121.3955"
  },
  {
    "id": 4325,
    "name": "國道三號 46K+481 北向 三鶯交流道到樹林交流道",
    "region": "國道三號",
    "city": "桃園市/新竹縣市",
    "lat": 24.9508,
    "lng": 121.3958,
    "url": "https://cctvn.freeway.gov.tw/abs2mjpg/bmjpg?camera=34640",
    "map": "https://www.google.com/maps?q=24.9508,121.3958"
  },
  {
    "id": 4326,
    "name": "國道三號 47K+100 北向 三鶯交流道到樹林交流道",
    "region": "國道三號",
    "city": "桃園市/新竹縣市",
    "lat": 24.9515,
    "lng": 121.3899,
    "url": "https://cctvn.freeway.gov.tw/abs2mjpg/bmjpg?camera=34710",
    "map": "https://www.google.com/maps?q=24.9515,121.3899"
  },
  {
    "id": 4327,
    "name": "國道三號 47K+200 北向 三鶯交流道到樹林交流道",
    "region": "國道三號",
    "city": "桃園市/新竹縣市",
    "lat": 24.9516,
    "lng": 121.3892,
    "url": "https://cctvn.freeway.gov.tw/abs2mjpg/bmjpg?camera=34720",
    "map": "https://www.google.com/maps?q=24.9516,121.3892"
  },
  {
    "id": 4328,
    "name": "國道三號 47K+350 北向 三鶯交流道到樹林交流道",
    "region": "國道三號",
    "city": "桃園市/新竹縣市",
    "lat": 24.9517,
    "lng": 121.3869,
    "url": "https://cctvn.freeway.gov.tw/abs2mjpg/bmjpg?camera=34731",
    "map": "https://www.google.com/maps?q=24.9517,121.3869"
  },
  {
    "id": 4329,
    "name": "國道三號 47K+350 南向 樹林交流道到三鶯交流道",
    "region": "國道三號",
    "city": "桃園市/新竹縣市",
    "lat": 24.9519,
    "lng": 121.3875,
    "url": "https://cctvn.freeway.gov.tw/abs2mjpg/bmjpg?camera=34730",
    "map": "https://www.google.com/maps?q=24.9519,121.3875"
  },
  {
    "id": 4330,
    "name": "國道三號 47K+550 北向 三鶯交流道到樹林交流道",
    "region": "國道三號",
    "city": "桃園市/新竹縣市",
    "lat": 24.9518,
    "lng": 121.3853,
    "url": "https://cctvn.freeway.gov.tw/abs2mjpg/bmjpg?camera=34750",
    "map": "https://www.google.com/maps?q=24.9518,121.3853"
  },
  {
    "id": 4331,
    "name": "國道三號 47K+550 北向 三鶯交流道到樹林交流道",
    "region": "國道三號",
    "city": "桃園市/新竹縣市",
    "lat": 24.9517,
    "lng": 121.3853,
    "url": "https://cctvn.freeway.gov.tw/abs2mjpg/bmjpg?camera=34757",
    "map": "https://www.google.com/maps?q=24.9517,121.3853"
  },
  {
    "id": 4332,
    "name": "國道三號 48K+100 南向 樹林交流道到三鶯交流道",
    "region": "國道三號",
    "city": "桃園市/新竹縣市",
    "lat": 24.9514,
    "lng": 121.3799,
    "url": "https://cctvn.freeway.gov.tw/abs2mjpg/bmjpg?camera=34810",
    "map": "https://www.google.com/maps?q=24.9514,121.3799"
  },
  {
    "id": 4333,
    "name": "國道三號 49K+010 南向 樹林交流道到三鶯交流道",
    "region": "國道三號",
    "city": "桃園市/新竹縣市",
    "lat": 24.9451,
    "lng": 121.3664,
    "url": "https://cctvn.freeway.gov.tw/abs2mjpg/bmjpg?camera=34900",
    "map": "https://www.google.com/maps?q=24.9451,121.3664"
  },
  {
    "id": 4334,
    "name": "國道三號 49K+730 南向 樹林交流道到三鶯交流道",
    "region": "國道三號",
    "city": "桃園市/新竹縣市",
    "lat": 24.9444,
    "lng": 121.3658,
    "url": "https://cctvn.freeway.gov.tw/abs2mjpg/bmjpg?camera=34970",
    "map": "https://www.google.com/maps?q=24.9444,121.3658"
  },
  {
    "id": 4339,
    "name": "國道三號 50K+572 南向 三鶯交流道到鶯歌系統交流道",
    "region": "國道三號",
    "city": "桃園市/新竹縣市",
    "lat": 24.9392,
    "lng": 121.3602,
    "url": "https://cctvn.freeway.gov.tw/abs2mjpg/bmjpg?camera=35050",
    "map": "https://www.google.com/maps?q=24.9392,121.3602"
  },
  {
    "id": 4340,
    "name": "國道三號 50K+840 北向 鶯歌系統交流道到三鶯交流道",
    "region": "國道三號",
    "city": "桃園市/新竹縣市",
    "lat": 24.9372,
    "lng": 121.3581,
    "url": "https://cctvn.freeway.gov.tw/abs2mjpg/bmjpg?camera=35080",
    "map": "https://www.google.com/maps?q=24.9372,121.3581"
  },
  {
    "id": 4341,
    "name": "國道三號 50K+900 北向 鶯歌系統交流道到三鶯交流道",
    "region": "國道三號",
    "city": "桃園市/新竹縣市",
    "lat": 24.9356,
    "lng": 121.3559,
    "url": "https://cctvn.freeway.gov.tw/abs2mjpg/bmjpg?camera=35090",
    "map": "https://www.google.com/maps?q=24.9356,121.3559"
  },
  {
    "id": 4342,
    "name": "國道三號 51K+490 北向 鶯歌系統交流道到三鶯交流道",
    "region": "國道三號",
    "city": "桃園市/新竹縣市",
    "lat": 24.9347,
    "lng": 121.3522,
    "url": "https://cctvn.freeway.gov.tw/abs2mjpg/bmjpg?camera=35140",
    "map": "https://www.google.com/maps?q=24.9347,121.3522"
  },
  {
    "id": 4343,
    "name": "國道三號 52K+490 南向 三鶯交流道到鶯歌系統交流道",
    "region": "國道三號",
    "city": "桃園市/新竹縣市",
    "lat": 24.9358,
    "lng": 121.3425,
    "url": "https://cctvn.freeway.gov.tw/abs2mjpg/bmjpg?camera=35240",
    "map": "https://www.google.com/maps?q=24.9358,121.3425"
  },
  {
    "id": 4344,
    "name": "國道三號 53K+600 南向 三鶯交流道到鶯歌系統交流道",
    "region": "國道三號",
    "city": "桃園市/新竹縣市",
    "lat": 24.9392,
    "lng": 121.332,
    "url": "https://cctvn.freeway.gov.tw/abs2mjpg/bmjpg?camera=35360",
    "map": "https://www.google.com/maps?q=24.9392,121.332"
  },
  {
    "id": 4345,
    "name": "國道三號 54K+315 北向 大溪交流道到鶯歌系統交流道",
    "region": "國道三號",
    "city": "桃園市/新竹縣",
    "lat": 24.9389,
    "lng": 121.3266,
    "url": "https://cctvn.freeway.gov.tw/abs2mjpg/bmjpg?camera=35431",
    "map": "https://www.google.com/maps?q=24.9389,121.3266"
  },
  {
    "id": 4346,
    "name": "國道三號 54K+340 南向 三鶯交流道到鶯歌系統交流道",
    "region": "國道三號",
    "city": "桃園市/新竹縣市",
    "lat": 24.9417,
    "lng": 121.3248,
    "url": "https://cctvn.freeway.gov.tw/abs2mjpg/bmjpg?camera=35430",
    "map": "https://www.google.com/maps?q=24.9417,121.3248"
  },
  {
    "id": 4347,
    "name": "國道三號 54K+400 南向 三鶯交流道到鶯歌系統交流道",
    "region": "國道三號",
    "city": "桃園市/新竹縣市",
    "lat": 24.9392,
    "lng": 121.3239,
    "url": "https://cctvn.freeway.gov.tw/abs2mjpg/bmjpg?camera=35440",
    "map": "https://www.google.com/maps?q=24.9392,121.3239"
  },
  {
    "id": 4348,
    "name": "國道三號 55K+200 南向 鶯歌系統交流道到大溪交流道",
    "region": "國道三號",
    "city": "桃園市/新竹縣",
    "lat": 24.9358,
    "lng": 121.3172,
    "url": "https://cctvn.freeway.gov.tw/abs2mjpg/bmjpg?camera=35520",
    "map": "https://www.google.com/maps?q=24.9358,121.3172"
  },
  {
    "id": 4349,
    "name": "國道三號 56K+020 北向 大溪交流道到鶯歌系統交流道",
    "region": "國道三號",
    "city": "桃園市/新竹縣",
    "lat": 24.9297,
    "lng": 121.3122,
    "url": "https://cctvn.freeway.gov.tw/abs2mjpg/bmjpg?camera=35600",
    "map": "https://www.google.com/maps?q=24.9297,121.3122"
  },
  {
    "id": 4350,
    "name": "國道三號 56K+820 北向 大溪交流道到鶯歌系統交流道",
    "region": "國道三號",
    "city": "桃園市/新竹縣",
    "lat": 24.9253,
    "lng": 121.3064,
    "url": "https://cctvn.freeway.gov.tw/abs2mjpg/bmjpg?camera=35680",
    "map": "https://www.google.com/maps?q=24.9253,121.3064"
  },
  {
    "id": 4351,
    "name": "國道三號 57K+650 南向 鶯歌系統交流道到大溪交流道",
    "region": "國道三號",
    "city": "桃園市/新竹縣",
    "lat": 24.9214,
    "lng": 121.2989,
    "url": "https://cctvn.freeway.gov.tw/abs2mjpg/bmjpg?camera=35760",
    "map": "https://www.google.com/maps?q=24.9214,121.2989"
  },
  {
    "id": 4352,
    "name": "國道三號 58K+410 南向 鶯歌系統交流道到大溪交流道",
    "region": "國道三號",
    "city": "桃園市/新竹縣",
    "lat": 24.9158,
    "lng": 121.2944,
    "url": "https://cctvn.freeway.gov.tw/abs2mjpg/bmjpg?camera=35840",
    "map": "https://www.google.com/maps?q=24.9158,121.2944"
  },
  {
    "id": 4353,
    "name": "國道三號 58K+985 南向 鶯歌系統交流道到大溪交流道",
    "region": "國道三號",
    "city": "桃園市/新竹縣",
    "lat": 24.9115,
    "lng": 121.292,
    "url": "https://cctvn.freeway.gov.tw/abs2mjpg/bmjpg?camera=35890",
    "map": "https://www.google.com/maps?q=24.9115,121.292"
  },
  {
    "id": 4354,
    "name": "國道三號 59K+380 北向 大溪交流道到鶯歌系統交流道",
    "region": "國道三號",
    "city": "桃園市/新竹縣",
    "lat": 24.9091,
    "lng": 121.2892,
    "url": "https://cctvn.freeway.gov.tw/abs2mjpg/bmjpg?camera=35930",
    "map": "https://www.google.com/maps?q=24.9091,121.2892"
  },
  {
    "id": 4355,
    "name": "國道三號 59K+520 南向 鶯歌系統交流道到大溪交流道",
    "region": "國道三號",
    "city": "桃園市/新竹縣",
    "lat": 24.9088,
    "lng": 121.2878,
    "url": "https://cctvn.freeway.gov.tw/abs2mjpg/bmjpg?camera=75950",
    "map": "https://www.google.com/maps?q=24.9088,121.2878"
  },
  {
    "id": 4356,
    "name": "國道三號 59K+690 北向 大溪交流道到鶯歌系統交流道",
    "region": "國道三號",
    "city": "桃園市/新竹縣",
    "lat": 24.9081,
    "lng": 121.2864,
    "url": "https://cctvn.freeway.gov.tw/abs2mjpg/bmjpg?camera=85960",
    "map": "https://www.google.com/maps?q=24.9081,121.2864"
  },
  {
    "id": 4357,
    "name": "國道三號 59K+690 南向 鶯歌系統交流道到大溪交流道",
    "region": "國道三號",
    "city": "桃園市/新竹縣",
    "lat": 24.908,
    "lng": 121.2839,
    "url": "https://cctvn.freeway.gov.tw/abs2mjpg/bmjpg?camera=75960",
    "map": "https://www.google.com/maps?q=24.908,121.2839"
  },
  {
    "id": 4358,
    "name": "國道三號 59K+860 北向 大溪交流道到鶯歌系統交流道",
    "region": "國道三號",
    "city": "桃園市/新竹縣",
    "lat": 24.9075,
    "lng": 121.284,
    "url": "https://cctvn.freeway.gov.tw/abs2mjpg/bmjpg?camera=85980",
    "map": "https://www.google.com/maps?q=24.9075,121.284"
  },
  {
    "id": 4359,
    "name": "國道三號 59K+870 南向 鶯歌系統交流道到大溪交流道",
    "region": "國道三號",
    "city": "桃園市/新竹縣",
    "lat": 24.908,
    "lng": 121.2839,
    "url": "https://cctvn.freeway.gov.tw/abs2mjpg/bmjpg?camera=75980",
    "map": "https://www.google.com/maps?q=24.908,121.2839"
  },
  {
    "id": 4364,
    "name": "國道三號 60K+030 南向 鶯歌系統交流道到大溪交流道",
    "region": "國道三號",
    "city": "桃園市/新竹縣",
    "lat": 24.9076,
    "lng": 121.283,
    "url": "https://cctvn.freeway.gov.tw/abs2mjpg/bmjpg?camera=76000",
    "map": "https://www.google.com/maps?q=24.9076,121.283"
  },
  {
    "id": 4365,
    "name": "國道三號 60K+040 北向 大溪交流道到鶯歌系統交流道",
    "region": "國道三號",
    "city": "桃園市/新竹縣",
    "lat": 24.9075,
    "lng": 121.284,
    "url": "https://cctvn.freeway.gov.tw/abs2mjpg/bmjpg?camera=86000",
    "map": "https://www.google.com/maps?q=24.9075,121.284"
  },
  {
    "id": 4366,
    "name": "國道三號 60K+175 南向 鶯歌系統交流道到大溪交流道",
    "region": "國道三號",
    "city": "桃園市/新竹縣",
    "lat": 24.9072,
    "lng": 121.2814,
    "url": "https://cctvn.freeway.gov.tw/abs2mjpg/bmjpg?camera=36010",
    "map": "https://www.google.com/maps?q=24.9072,121.2814"
  },
  {
    "id": 4367,
    "name": "國道三號 60K+200 北向 大溪交流道到鶯歌系統交流道",
    "region": "國道三號",
    "city": "桃園市/新竹縣",
    "lat": 24.9071,
    "lng": 121.2812,
    "url": "https://cctvn.freeway.gov.tw/abs2mjpg/bmjpg?camera=36020",
    "map": "https://www.google.com/maps?q=24.9071,121.2812"
  },
  {
    "id": 4368,
    "name": "國道三號 60K+320 南向 鶯歌系統交流道到大溪交流道",
    "region": "國道三號",
    "city": "桃園市/新竹縣",
    "lat": 24.9072,
    "lng": 121.2802,
    "url": "https://cctvn.freeway.gov.tw/abs2mjpg/bmjpg?camera=76030",
    "map": "https://www.google.com/maps?q=24.9072,121.2802"
  },
  {
    "id": 4369,
    "name": "國道三號 60K+335 北向 大溪交流道到鶯歌系統交流道",
    "region": "國道三號",
    "city": "桃園市/新竹縣",
    "lat": 24.9068,
    "lng": 121.2799,
    "url": "https://cctvn.freeway.gov.tw/abs2mjpg/bmjpg?camera=86030",
    "map": "https://www.google.com/maps?q=24.9068,121.2799"
  },
  {
    "id": 4370,
    "name": "國道三號 60K+450 北向 大溪交流道到鶯歌系統交流道",
    "region": "國道三號",
    "city": "桃園市/新竹縣",
    "lat": 24.9066,
    "lng": 121.2788,
    "url": "https://cctvn.freeway.gov.tw/abs2mjpg/bmjpg?camera=86040",
    "map": "https://www.google.com/maps?q=24.9066,121.2788"
  },
  {
    "id": 4371,
    "name": "國道三號 60K+500 南向 鶯歌系統交流道到大溪交流道",
    "region": "國道三號",
    "city": "桃園市/新竹縣",
    "lat": 24.9068,
    "lng": 121.281,
    "url": "https://cctvn.freeway.gov.tw/abs2mjpg/bmjpg?camera=76050",
    "map": "https://www.google.com/maps?q=24.9068,121.281"
  },
  {
    "id": 4372,
    "name": "國道三號 60K+650 北向 大溪交流道到鶯歌系統交流道",
    "region": "國道三號",
    "city": "桃園市/新竹縣",
    "lat": 24.9061,
    "lng": 121.2776,
    "url": "https://cctvn.freeway.gov.tw/abs2mjpg/bmjpg?camera=86060",
    "map": "https://www.google.com/maps?q=24.9061,121.2776"
  },
  {
    "id": 4373,
    "name": "國道三號 60K+840 北向 大溪交流道到鶯歌系統交流道",
    "region": "國道三號",
    "city": "桃園市/新竹縣",
    "lat": 24.9048,
    "lng": 121.2751,
    "url": "https://cctvn.freeway.gov.tw/abs2mjpg/bmjpg?camera=36080",
    "map": "https://www.google.com/maps?q=24.9048,121.2751"
  },
  {
    "id": 4374,
    "name": "國道三號 61K+110 南向 大溪路段",
    "region": "國道三號",
    "city": "桃園市/新竹縣",
    "lat": 24.9038,
    "lng": 121.273,
    "url": "https://cctvn.freeway.gov.tw/abs2mjpg/bmjpg?camera=36110",
    "map": "https://www.google.com/maps?q=24.9038,121.273"
  },
  {
    "id": 4375,
    "name": "國道三號 61K+860 南向 鶯歌系統交流道到大溪交流道",
    "region": "國道三號",
    "city": "桃園市/新竹縣",
    "lat": 24.9,
    "lng": 121.2691,
    "url": "https://cctvn.freeway.gov.tw/abs2mjpg/bmjpg?camera=36180",
    "map": "https://www.google.com/maps?q=24.9,121.2691"
  },
  {
    "id": 4376,
    "name": "國道三號 62K+100 南向 大溪交流道到龍潭交流道",
    "region": "國道三號",
    "city": "桃園市/新竹縣",
    "lat": 24.8972,
    "lng": 121.2625,
    "url": "https://cctvn.freeway.gov.tw/abs2mjpg/bmjpg?camera=36210",
    "map": "https://www.google.com/maps?q=24.8972,121.2625"
  },
  {
    "id": 4377,
    "name": "國道三號 62K+620 北向 龍潭交流道到大溪交流道",
    "region": "國道三號",
    "city": "桃園市/新竹縣",
    "lat": 24.8924,
    "lng": 121.2648,
    "url": "https://cctvn.freeway.gov.tw/abs2mjpg/bmjpg?camera=36260",
    "map": "https://www.google.com/maps?q=24.8924,121.2648"
  },
  {
    "id": 4378,
    "name": "國道三號 62K+625 北向 龍潭交流道到大溪交流道",
    "region": "國道三號",
    "city": "桃園市/新竹縣",
    "lat": 24.8926,
    "lng": 121.2644,
    "url": "https://cctvn.freeway.gov.tw/abs2mjpg/bmjpg?camera=36261",
    "map": "https://www.google.com/maps?q=24.8926,121.2644"
  },
  {
    "id": 4379,
    "name": "國道三號 63K+002 北向 龍潭交流道到大溪交流道",
    "region": "國道三號",
    "city": "桃園市/新竹縣",
    "lat": 24.8895,
    "lng": 121.2635,
    "url": "https://cctvn.freeway.gov.tw/abs2mjpg/bmjpg?camera=36300",
    "map": "https://www.google.com/maps?q=24.8895,121.2635"
  },
  {
    "id": 4380,
    "name": "國道三號 63K+986 北向 龍潭交流道到大溪交流道",
    "region": "國道三號",
    "city": "桃園市/新竹縣",
    "lat": 24.8824,
    "lng": 121.2578,
    "url": "https://cctvn.freeway.gov.tw/abs2mjpg/bmjpg?camera=36390",
    "map": "https://www.google.com/maps?q=24.8824,121.2578"
  },
  {
    "id": 4381,
    "name": "國道三號 64K+550 北向 龍潭交流道到大溪交流道",
    "region": "國道三號",
    "city": "桃園市/新竹縣",
    "lat": 24.8797,
    "lng": 121.2528,
    "url": "https://cctvn.freeway.gov.tw/abs2mjpg/bmjpg?camera=36450",
    "map": "https://www.google.com/maps?q=24.8797,121.2528"
  },
  {
    "id": 4382,
    "name": "國道三號 65K+000 南向 大溪交流道到龍潭交流道",
    "region": "國道三號",
    "city": "桃園市/新竹縣",
    "lat": 24.8781,
    "lng": 121.2489,
    "url": "https://cctvn.freeway.gov.tw/abs2mjpg/bmjpg?camera=36500",
    "map": "https://www.google.com/maps?q=24.8781,121.2489"
  },
  {
    "id": 4383,
    "name": "國道三號 65K+450 南向 大溪交流道到龍潭交流道",
    "region": "國道三號",
    "city": "桃園市/新竹縣",
    "lat": 24.8757,
    "lng": 121.2451,
    "url": "https://cctvn.freeway.gov.tw/abs2mjpg/bmjpg?camera=36540",
    "map": "https://www.google.com/maps?q=24.8757,121.2451"
  },
  {
    "id": 4384,
    "name": "國道三號 66K+150 南向 大溪交流道到龍潭交流道",
    "region": "國道三號",
    "city": "桃園市/新竹縣",
    "lat": 24.8711,
    "lng": 121.2403,
    "url": "https://cctvn.freeway.gov.tw/abs2mjpg/bmjpg?camera=36610",
    "map": "https://www.google.com/maps?q=24.8711,121.2403"
  },
  {
    "id": 4385,
    "name": "國道三號 66K+600 北向 龍潭交流道到大溪交流道",
    "region": "國道三號",
    "city": "桃園市/新竹縣",
    "lat": 24.8678,
    "lng": 121.2375,
    "url": "https://cctvn.freeway.gov.tw/abs2mjpg/bmjpg?camera=36660",
    "map": "https://www.google.com/maps?q=24.8678,121.2375"
  },
  {
    "id": 4386,
    "name": "國道三號 67K+200 南向 大溪交流道到龍潭交流道",
    "region": "國道三號",
    "city": "桃園市/新竹縣",
    "lat": 24.8645,
    "lng": 121.2324,
    "url": "https://cctvn.freeway.gov.tw/abs2mjpg/bmjpg?camera=36720",
    "map": "https://www.google.com/maps?q=24.8645,121.2324"
  },
  {
    "id": 4387,
    "name": "國道三號 67K+900 南向 大溪交流道到龍潭交流道",
    "region": "國道三號",
    "city": "桃園市/新竹縣",
    "lat": 24.8625,
    "lng": 121.2263,
    "url": "https://cctvn.freeway.gov.tw/abs2mjpg/bmjpg?camera=36790",
    "map": "https://www.google.com/maps?q=24.8625,121.2263"
  },
  {
    "id": 4388,
    "name": "國道三號 68K+170 南向 大溪交流道到龍潭交流道",
    "region": "國道三號",
    "city": "桃園市/新竹縣",
    "lat": 24.8619,
    "lng": 121.2239,
    "url": "https://cctvn.freeway.gov.tw/abs2mjpg/bmjpg?camera=36810",
    "map": "https://www.google.com/maps?q=24.8619,121.2239"
  },
  {
    "id": 4389,
    "name": "國道三號 68K+480 南向 龍潭交流道到高原交流道",
    "region": "國道三號",
    "city": "桃園市/新竹縣",
    "lat": 24.8611,
    "lng": 121.2206,
    "url": "https://cctvn.freeway.gov.tw/abs2mjpg/bmjpg?camera=36840",
    "map": "https://www.google.com/maps?q=24.8611,121.2206"
  },
  {
    "id": 4390,
    "name": "國道三號 69K+700 南向 龍潭交流道到關西服務區",
    "region": "國道三號",
    "city": "桃園市/新竹縣",
    "lat": 24.8572,
    "lng": 121.2094,
    "url": "https://cctvn.freeway.gov.tw/abs2mjpg/bmjpg?camera=36970",
    "map": "https://www.google.com/maps?q=24.8572,121.2094"
  },
  {
    "id": 4394,
    "name": "國道三號 70K+300 南向 龍潭交流道到關西服務區",
    "region": "國道三號",
    "city": "桃園市/新竹縣",
    "lat": 24.854,
    "lng": 121.2046,
    "url": "https://cctvn.freeway.gov.tw/abs2mjpg/bmjpg?camera=37030",
    "map": "https://www.google.com/maps?q=24.854,121.2046"
  },
  {
    "id": 4395,
    "name": "國道三號 70K+973 南向 龍潭交流道到關西服務區",
    "region": "國道三號",
    "city": "桃園市/新竹縣",
    "lat": 24.8489,
    "lng": 121.2008,
    "url": "https://cctvn.freeway.gov.tw/abs2mjpg/bmjpg?camera=37097",
    "map": "https://www.google.com/maps?q=24.8489,121.2008"
  },
  {
    "id": 4396,
    "name": "國道三號 70K+973 南向 龍潭交流道到關西服務區",
    "region": "國道三號",
    "city": "桃園市/新竹縣",
    "lat": 24.8489,
    "lng": 121.2008,
    "url": "https://cctvn.freeway.gov.tw/abs2mjpg/bmjpg?camera=37090",
    "map": "https://www.google.com/maps?q=24.8489,121.2008"
  },
  {
    "id": 4397,
    "name": "國道三號 71K+680 南向 龍潭交流道到關西服務區",
    "region": "國道三號",
    "city": "桃園市/新竹縣",
    "lat": 24.843,
    "lng": 121.1989,
    "url": "https://cctvn.freeway.gov.tw/abs2mjpg/bmjpg?camera=37160",
    "map": "https://www.google.com/maps?q=24.843,121.1989"
  },
  {
    "id": 4398,
    "name": "國道三號 72K+486 北向 關西服務區到龍潭交流道",
    "region": "國道三號",
    "city": "桃園市/新竹縣",
    "lat": 24.8364,
    "lng": 121.1994,
    "url": "https://cctvn.freeway.gov.tw/abs2mjpg/bmjpg?camera=37240",
    "map": "https://www.google.com/maps?q=24.8364,121.1994"
  },
  {
    "id": 4399,
    "name": "國道三號 73K+000 北向 關西服務區到高原交流道",
    "region": "國道三號",
    "city": "桃園市/新竹縣",
    "lat": 24.8311,
    "lng": 121.1999,
    "url": "https://cctvn.freeway.gov.tw/abs2mjpg/bmjpg?camera=37302",
    "map": "https://www.google.com/maps?q=24.8311,121.1999"
  },
  {
    "id": 4400,
    "name": "國道三號 73K+000 南向 龍潭交流道到關西服務區",
    "region": "國道三號",
    "city": "桃園市/新竹縣",
    "lat": 24.8311,
    "lng": 121.1993,
    "url": "https://cctvn.freeway.gov.tw/abs2mjpg/bmjpg?camera=37301",
    "map": "https://www.google.com/maps?q=24.8311,121.1993"
  },
  {
    "id": 4401,
    "name": "國道三號 73K+030 南向 高原交流道到關西服務區",
    "region": "國道三號",
    "city": "桃園市/新竹縣",
    "lat": 24.8306,
    "lng": 121.1994,
    "url": "https://cctvn.freeway.gov.tw/abs2mjpg/bmjpg?camera=37300",
    "map": "https://www.google.com/maps?q=24.8306,121.1994"
  },
  {
    "id": 4402,
    "name": "國道三號 73K+120 北向 關西服務區到高原交流道",
    "region": "國道三號",
    "city": "桃園市/新竹縣",
    "lat": 24.83,
    "lng": 121.1998,
    "url": "https://cctvn.freeway.gov.tw/abs2mjpg/bmjpg?camera=37310",
    "map": "https://www.google.com/maps?q=24.83,121.1998"
  },
  {
    "id": 4403,
    "name": "國道三號 73K+430 北向 關西服務區到高原交流道",
    "region": "國道三號",
    "city": "桃園市/新竹縣",
    "lat": 24.8272,
    "lng": 121.1998,
    "url": "https://cctvn.freeway.gov.tw/abs2mjpg/bmjpg?camera=37347",
    "map": "https://www.google.com/maps?q=24.8272,121.1998"
  },
  {
    "id": 4404,
    "name": "國道三號 74K+200 南向 龍潭交流道到關西服務區",
    "region": "國道三號",
    "city": "桃園市/新竹縣",
    "lat": 24.82,
    "lng": 121.2,
    "url": "https://cctvn.freeway.gov.tw/abs2mjpg/bmjpg?camera=37420",
    "map": "https://www.google.com/maps?q=24.82,121.2"
  },
  {
    "id": 4405,
    "name": "國道三號 74K+735 北向 關西服務區到高原交流道",
    "region": "國道三號",
    "city": "桃園市/新竹縣",
    "lat": 24.8153,
    "lng": 121.2005,
    "url": "https://cctvn.freeway.gov.tw/abs2mjpg/bmjpg?camera=37470",
    "map": "https://www.google.com/maps?q=24.8153,121.2005"
  },
  {
    "id": 4406,
    "name": "國道三號 75K+400 南向 龍潭交流道到關西服務區",
    "region": "國道三號",
    "city": "桃園市/新竹縣",
    "lat": 24.8092,
    "lng": 121.2,
    "url": "https://cctvn.freeway.gov.tw/abs2mjpg/bmjpg?camera=37540",
    "map": "https://www.google.com/maps?q=24.8092,121.2"
  },
  {
    "id": 4407,
    "name": "國道三號 76K+000 北向 關西交流道到關西服務區",
    "region": "國道三號",
    "city": "桃園市/新竹縣",
    "lat": 24.8039,
    "lng": 121.1986,
    "url": "https://cctvn.freeway.gov.tw/abs2mjpg/bmjpg?camera=37600",
    "map": "https://www.google.com/maps?q=24.8039,121.1986"
  },
  {
    "id": 4408,
    "name": "國道三號 76K+000 南向 關西服務區到關西交流道",
    "region": "國道三號",
    "city": "桃園市/新竹縣",
    "lat": 24.8011,
    "lng": 121.1924,
    "url": "https://cctvn.freeway.gov.tw/abs2mjpg/bmjpg?camera=37605",
    "map": "https://www.google.com/maps?q=24.8011,121.1924"
  },
  {
    "id": 4409,
    "name": "國道三號 76K+000 南向 關西服務區到關西交流道",
    "region": "國道三號",
    "city": "桃園市/新竹縣",
    "lat": 24.8008,
    "lng": 121.192,
    "url": "https://cctvn.freeway.gov.tw/abs2mjpg/bmjpg?camera=37603",
    "map": "https://www.google.com/maps?q=24.8008,121.192"
  },
  {
    "id": 4410,
    "name": "國道三號 76K+000 南向 關西服務區到關西交流道",
    "region": "國道三號",
    "city": "桃園市/新竹縣",
    "lat": 24.7996,
    "lng": 121.1904,
    "url": "https://cctvn.freeway.gov.tw/abs2mjpg/bmjpg?camera=37602",
    "map": "https://www.google.com/maps?q=24.7996,121.1904"
  },
  {
    "id": 4411,
    "name": "國道三號 76K+000 南向 關西服務區到關西交流道",
    "region": "國道三號",
    "city": "桃園市/新竹縣",
    "lat": 24.7994,
    "lng": 121.1929,
    "url": "https://cctvn.freeway.gov.tw/abs2mjpg/bmjpg?camera=37601",
    "map": "https://www.google.com/maps?q=24.7994,121.1929"
  },
  {
    "id": 4412,
    "name": "國道三號 76K+000 南向 關西服務區到關西交流道",
    "region": "國道三號",
    "city": "桃園市/新竹縣",
    "lat": 24.8012,
    "lng": 121.1926,
    "url": "https://cctvn.freeway.gov.tw/abs2mjpg/bmjpg?camera=37604",
    "map": "https://www.google.com/maps?q=24.8012,121.1926"
  },
  {
    "id": 4413,
    "name": "國道三號 76K+500 北向 關西交流道到關西服務區",
    "region": "國道三號",
    "city": "桃園市/新竹縣",
    "lat": 24.8005,
    "lng": 121.1957,
    "url": "https://cctvn.freeway.gov.tw/abs2mjpg/bmjpg?camera=37650",
    "map": "https://www.google.com/maps?q=24.8005,121.1957"
  },
  {
    "id": 4414,
    "name": "國道三號 77K+000 北向 關西交流道到關西服務區",
    "region": "國道三號",
    "city": "桃園市/新竹縣",
    "lat": 24.7979,
    "lng": 121.1916,
    "url": "https://cctvn.freeway.gov.tw/abs2mjpg/bmjpg?camera=37700",
    "map": "https://www.google.com/maps?q=24.7979,121.1916"
  },
  {
    "id": 4415,
    "name": "國道三號 77K+175 北向 關西交流道到關西服務區",
    "region": "國道三號",
    "city": "桃園市/新竹縣",
    "lat": 24.7972,
    "lng": 121.19,
    "url": "https://cctvn.freeway.gov.tw/abs2mjpg/bmjpg?camera=37710",
    "map": "https://www.google.com/maps?q=24.7972,121.19"
  },
  {
    "id": 4416,
    "name": "國道三號 77K+950 北向 關西交流道到關西服務區",
    "region": "國道三號",
    "city": "桃園市/新竹縣",
    "lat": 24.7965,
    "lng": 121.182,
    "url": "https://cctvn.freeway.gov.tw/abs2mjpg/bmjpg?camera=37790",
    "map": "https://www.google.com/maps?q=24.7965,121.182"
  },
  {
    "id": 4417,
    "name": "國道三號 78K+185 南向 關西服務區到關西交流道",
    "region": "國道三號",
    "city": "桃園市/新竹縣",
    "lat": 24.7972,
    "lng": 121.18,
    "url": "https://cctvn.freeway.gov.tw/abs2mjpg/bmjpg?camera=37810",
    "map": "https://www.google.com/maps?q=24.7972,121.18"
  },
  {
    "id": 4418,
    "name": "國道三號 78K+800 北向 關西交流道到關西服務區",
    "region": "國道三號",
    "city": "桃園市/新竹縣",
    "lat": 24.7991,
    "lng": 121.1749,
    "url": "https://cctvn.freeway.gov.tw/abs2mjpg/bmjpg?camera=37880",
    "map": "https://www.google.com/maps?q=24.7991,121.1749"
  },
  {
    "id": 4419,
    "name": "國道三號 79K+000 南向 關西服務區到關西交流道",
    "region": "國道三號",
    "city": "桃園市/新竹縣",
    "lat": 24.8001,
    "lng": 121.1684,
    "url": "https://cctvn.freeway.gov.tw/abs2mjpg/bmjpg?camera=37900",
    "map": "https://www.google.com/maps?q=24.8001,121.1684"
  },
  {
    "id": 4420,
    "name": "國道三號 79K+130 南向 關西服務區到關西交流道",
    "region": "國道三號",
    "city": "桃園市/新竹縣",
    "lat": 24.8012,
    "lng": 121.1721,
    "url": "https://cctvn.freeway.gov.tw/abs2mjpg/bmjpg?camera=37910",
    "map": "https://www.google.com/maps?q=24.8012,121.1721"
  },
  {
    "id": 4423,
    "name": "國道三號 80K+373 北向 竹林交流道到關西交流道",
    "region": "國道三號",
    "city": "桃園市/新竹縣",
    "lat": 24.8062,
    "lng": 121.1611,
    "url": "https://cctvn.freeway.gov.tw/abs2mjpg/bmjpg?camera=38030",
    "map": "https://www.google.com/maps?q=24.8062,121.1611"
  },
  {
    "id": 4424,
    "name": "國道三號 81K+530 南向 關西交流道到竹林交流道",
    "region": "國道三號",
    "city": "桃園市/新竹縣",
    "lat": 24.8069,
    "lng": 121.1497,
    "url": "https://cctvn.freeway.gov.tw/abs2mjpg/bmjpg?camera=38150",
    "map": "https://www.google.com/maps?q=24.8069,121.1497"
  },
  {
    "id": 4425,
    "name": "國道三號 82K+510 南向 關西交流道到竹林交流道",
    "region": "國道三號",
    "city": "桃園市/新竹縣",
    "lat": 24.8047,
    "lng": 121.1403,
    "url": "https://cctvn.freeway.gov.tw/abs2mjpg/bmjpg?camera=38251",
    "map": "https://www.google.com/maps?q=24.8047,121.1403"
  },
  {
    "id": 4426,
    "name": "國道三號 83K+750 南向 關西交流道到竹林交流道",
    "region": "國道三號",
    "city": "桃園市/新竹縣",
    "lat": 24.7981,
    "lng": 121.1306,
    "url": "https://cctvn.freeway.gov.tw/abs2mjpg/bmjpg?camera=38370",
    "map": "https://www.google.com/maps?q=24.7981,121.1306"
  },
  {
    "id": 4427,
    "name": "國道三號 84K+550 南向 關西交流道到竹林交流道",
    "region": "國道三號",
    "city": "桃園市/新竹縣",
    "lat": 24.7919,
    "lng": 121.1261,
    "url": "https://cctvn.freeway.gov.tw/abs2mjpg/bmjpg?camera=38450",
    "map": "https://www.google.com/maps?q=24.7919,121.1261"
  },
  {
    "id": 4428,
    "name": "國道三號 85K+100 北向 竹林交流道到關西交流道",
    "region": "國道三號",
    "city": "桃園市/新竹縣",
    "lat": 24.787,
    "lng": 121.1239,
    "url": "https://cctvn.freeway.gov.tw/abs2mjpg/bmjpg?camera=38510",
    "map": "https://www.google.com/maps?q=24.787,121.1239"
  },
  {
    "id": 4429,
    "name": "國道三號 85K+636 北向 竹林交流道到關西交流道",
    "region": "國道三號",
    "city": "桃園市/新竹縣",
    "lat": 24.7835,
    "lng": 121.1212,
    "url": "https://cctvn.freeway.gov.tw/abs2mjpg/bmjpg?camera=38560",
    "map": "https://www.google.com/maps?q=24.7835,121.1212"
  },
  {
    "id": 4430,
    "name": "國道三號 86K+250 北向 竹林交流道到關西交流道",
    "region": "國道三號",
    "city": "桃園市/新竹縣",
    "lat": 24.7804,
    "lng": 121.1163,
    "url": "https://cctvn.freeway.gov.tw/abs2mjpg/bmjpg?camera=38620",
    "map": "https://www.google.com/maps?q=24.7804,121.1163"
  },
  {
    "id": 4431,
    "name": "國道三號 87K+005 北向 竹林交流道到關西交流道",
    "region": "國道三號",
    "city": "桃園市/新竹縣",
    "lat": 24.7792,
    "lng": 121.1089,
    "url": "https://cctvn.freeway.gov.tw/abs2mjpg/bmjpg?camera=38700",
    "map": "https://www.google.com/maps?q=24.7792,121.1089"
  },
  {
    "id": 4432,
    "name": "國道三號 88K+300 南向 關西交流道到竹林交流道",
    "region": "國道三號",
    "city": "桃園市/新竹縣",
    "lat": 24.7778,
    "lng": 121.0961,
    "url": "https://cctvn.freeway.gov.tw/abs2mjpg/bmjpg?camera=38830",
    "map": "https://www.google.com/maps?q=24.7778,121.0961"
  },
  {
    "id": 4433,
    "name": "國道三號 89K+350 南向 關西交流道到竹林交流道",
    "region": "國道三號",
    "city": "桃園市/新竹縣",
    "lat": 24.7728,
    "lng": 121.0869,
    "url": "https://cctvn.freeway.gov.tw/abs2mjpg/bmjpg?camera=38930",
    "map": "https://www.google.com/maps?q=24.7728,121.0869"
  },
  {
    "id": 4441,
    "name": "國道三號 90K+000 南向 關西交流道到竹林交流道",
    "region": "國道三號",
    "city": "桃園市/新竹縣",
    "lat": 24.7688,
    "lng": 121.0829,
    "url": "https://cctvn.freeway.gov.tw/abs2mjpg/bmjpg?camera=39000",
    "map": "https://www.google.com/maps?q=24.7688,121.0829"
  },
  {
    "id": 4519,
    "name": "國道二號 0K+000 東向 圳頭交流道到大園交流道",
    "region": "國道二號",
    "city": "桃園市",
    "lat": 25.0733,
    "lng": 121.2008,
    "url": "https://cctvn.freeway.gov.tw/abs2mjpg/bmjpg?camera=92000",
    "map": "https://www.google.com/maps?q=25.0733,121.2008"
  },
  {
    "id": 4520,
    "name": "國道二號 0K+000 東向 機場端到大園交流道",
    "region": "國道二號",
    "city": "桃園市",
    "lat": 25.0658,
    "lng": 121.2175,
    "url": "https://cctvn.freeway.gov.tw/abs2mjpg/bmjpg?camera=20000",
    "map": "https://www.google.com/maps?q=25.0658,121.2175"
  },
  {
    "id": 4521,
    "name": "國道二號 0K+400 東向 大竹交流道到機場系統交流道",
    "region": "國道二號",
    "city": "桃園市",
    "lat": 25.0637,
    "lng": 121.2148,
    "url": "https://cctvn.freeway.gov.tw/abs2mjpg/bmjpg?camera=20040",
    "map": "https://www.google.com/maps?q=25.0637,121.2148"
  },
  {
    "id": 4522,
    "name": "國道二號 0K+900 西向 大園交流道到桃園機場端",
    "region": "國道二號",
    "city": "桃園市",
    "lat": 25.0618,
    "lng": 121.2133,
    "url": "https://cctvn.freeway.gov.tw/abs2mjpg/bmjpg?camera=20090",
    "map": "https://www.google.com/maps?q=25.0618,121.2133"
  },
  {
    "id": 4523,
    "name": "國道二號 10K+656 西向 南桃園交流道到機場系統交流道",
    "region": "國道二號",
    "city": "桃園市",
    "lat": 25.0072,
    "lng": 121.2817,
    "url": "https://cctvn.freeway.gov.tw/abs2mjpg/bmjpg?camera=21060",
    "map": "https://www.google.com/maps?q=25.0072,121.2817"
  },
  {
    "id": 4524,
    "name": "國道二號 11K+590 東向 機場系統交流道到南桃園交流道",
    "region": "國道二號",
    "city": "桃園市",
    "lat": 24.9989,
    "lng": 121.2831,
    "url": "https://cctvn.freeway.gov.tw/abs2mjpg/bmjpg?camera=21150",
    "map": "https://www.google.com/maps?q=24.9989,121.2831"
  },
  {
    "id": 4525,
    "name": "國道二號 12K+000 西向 大湳交流道到南桃園交流道",
    "region": "國道二號",
    "city": "桃園市",
    "lat": 24.9954,
    "lng": 121.2835,
    "url": "https://cctvn.freeway.gov.tw/abs2mjpg/bmjpg?camera=21200",
    "map": "https://www.google.com/maps?q=24.9954,121.2835"
  },
  {
    "id": 4526,
    "name": "國道二號 12K+540 東向 南桃園交流道到大湳交流道",
    "region": "國道二號",
    "city": "桃園市",
    "lat": 24.9906,
    "lng": 121.2816,
    "url": "https://cctvn.freeway.gov.tw/abs2mjpg/bmjpg?camera=21250",
    "map": "https://www.google.com/maps?q=24.9906,121.2816"
  },
  {
    "id": 4527,
    "name": "國道二號 13K+010 東向 南桃園交流道到大湳交流道",
    "region": "國道二號",
    "city": "桃園市",
    "lat": 24.9864,
    "lng": 121.2819,
    "url": "https://cctvn.freeway.gov.tw/abs2mjpg/bmjpg?camera=21300",
    "map": "https://www.google.com/maps?q=24.9864,121.2819"
  },
  {
    "id": 4528,
    "name": "國道二號 13K+305 西向 大湳交流道到南桃園交流道",
    "region": "國道二號",
    "city": "桃園市",
    "lat": 24.9837,
    "lng": 121.2827,
    "url": "https://cctvn.freeway.gov.tw/abs2mjpg/bmjpg?camera=21330",
    "map": "https://www.google.com/maps?q=24.9837,121.2827"
  },
  {
    "id": 4529,
    "name": "國道二號 13K+900 西向 大湳交流道到南桃園交流道",
    "region": "國道二號",
    "city": "桃園市",
    "lat": 24.9794,
    "lng": 121.2859,
    "url": "https://cctvn.freeway.gov.tw/abs2mjpg/bmjpg?camera=21390",
    "map": "https://www.google.com/maps?q=24.9794,121.2859"
  },
  {
    "id": 4530,
    "name": "國道二號 14K+458 東向 南桃園交流道到大湳交流道",
    "region": "國道二號",
    "city": "桃園市",
    "lat": 24.9764,
    "lng": 121.2905,
    "url": "https://cctvn.freeway.gov.tw/abs2mjpg/bmjpg?camera=21440",
    "map": "https://www.google.com/maps?q=24.9764,121.2905"
  },
  {
    "id": 4531,
    "name": "國道二號 15K+100 東向 南桃園交流道到大湳交流道",
    "region": "國道二號",
    "city": "桃園市",
    "lat": 24.9752,
    "lng": 121.2965,
    "url": "https://cctvn.freeway.gov.tw/abs2mjpg/bmjpg?camera=21510",
    "map": "https://www.google.com/maps?q=24.9752,121.2965"
  },
  {
    "id": 4532,
    "name": "國道二號 16K+039 西向 大湳交流道到南桃園交流道",
    "region": "國道二號",
    "city": "桃園市",
    "lat": 24.9741,
    "lng": 121.3052,
    "url": "https://cctvn.freeway.gov.tw/abs2mjpg/bmjpg?camera=21600",
    "map": "https://www.google.com/maps?q=24.9741,121.3052"
  },
  {
    "id": 4533,
    "name": "國道二號 16K+388 西向 大湳交流道到南桃園交流道",
    "region": "國道二號",
    "city": "桃園市",
    "lat": 24.9733,
    "lng": 121.3089,
    "url": "https://cctvn.freeway.gov.tw/abs2mjpg/bmjpg?camera=21630",
    "map": "https://www.google.com/maps?q=24.9733,121.3089"
  },
  {
    "id": 4534,
    "name": "國道二號 16K+830 西向 大湳交流道到南桃園交流道",
    "region": "國道二號",
    "city": "桃園市",
    "lat": 24.9717,
    "lng": 121.3131,
    "url": "https://cctvn.freeway.gov.tw/abs2mjpg/bmjpg?camera=21680",
    "map": "https://www.google.com/maps?q=24.9717,121.3131"
  },
  {
    "id": 4535,
    "name": "國道二號 17K+600 東向 南桃園交流道到大湳交流道",
    "region": "國道二號",
    "city": "桃園市",
    "lat": 24.9681,
    "lng": 121.3199,
    "url": "https://cctvn.freeway.gov.tw/abs2mjpg/bmjpg?camera=21760",
    "map": "https://www.google.com/maps?q=24.9681,121.3199"
  },
  {
    "id": 4536,
    "name": "國道二號 18K+060 東向 南桃園交流道到大湳交流道",
    "region": "國道二號",
    "city": "桃園市",
    "lat": 24.9633,
    "lng": 121.3235,
    "url": "https://cctvn.freeway.gov.tw/abs2mjpg/bmjpg?camera=21800",
    "map": "https://www.google.com/maps?q=24.9633,121.3235"
  },
  {
    "id": 4537,
    "name": "國道二號 18K+460 西向 大湳交流道到南桃園交流道",
    "region": "國道二號",
    "city": "桃園市",
    "lat": 24.962,
    "lng": 121.3245,
    "url": "https://cctvn.freeway.gov.tw/abs2mjpg/bmjpg?camera=21840",
    "map": "https://www.google.com/maps?q=24.962,121.3245"
  },
  {
    "id": 4538,
    "name": "國道二號 18K+950 西向 鶯歌系統交流道到大湳交流道",
    "region": "國道二號",
    "city": "桃園市",
    "lat": 24.9582,
    "lng": 121.3252,
    "url": "https://cctvn.freeway.gov.tw/abs2mjpg/bmjpg?camera=21890",
    "map": "https://www.google.com/maps?q=24.9582,121.3252"
  },
  {
    "id": 4539,
    "name": "國道二號 19K+300 東向 大湳交流道到鶯歌系統交流道",
    "region": "國道二號",
    "city": "桃園市",
    "lat": 24.9522,
    "lng": 121.3246,
    "url": "https://cctvn.freeway.gov.tw/abs2mjpg/bmjpg?camera=21930",
    "map": "https://www.google.com/maps?q=24.9522,121.3246"
  },
  {
    "id": 4540,
    "name": "國道二號 19K+580 西向 鶯歌系統交流道到大湳交流道",
    "region": "國道二號",
    "city": "桃園市",
    "lat": 24.9569,
    "lng": 121.325,
    "url": "https://cctvn.freeway.gov.tw/abs2mjpg/bmjpg?camera=21950",
    "map": "https://www.google.com/maps?q=24.9569,121.325"
  },
  {
    "id": 4541,
    "name": "國道二號 1K+000 西向 大園交流道到桃園機場端",
    "region": "國道二號",
    "city": "桃園市",
    "lat": 25.0587,
    "lng": 121.2137,
    "url": "https://cctvn.freeway.gov.tw/abs2mjpg/bmjpg?camera=20100",
    "map": "https://www.google.com/maps?q=25.0587,121.2137"
  },
  {
    "id": 4542,
    "name": "國道二號 1K+018 東向 圳頭交流道到大園交流道",
    "region": "國道二號",
    "city": "桃園市",
    "lat": 25.0671,
    "lng": 121.2074,
    "url": "https://cctvn.freeway.gov.tw/abs2mjpg/bmjpg?camera=92010",
    "map": "https://www.google.com/maps?q=25.0671,121.2074"
  },
  {
    "id": 4543,
    "name": "國道二號 1K+904 西向 大竹交流道到大園交流道",
    "region": "國道二號",
    "city": "桃園市",
    "lat": 25.0507,
    "lng": 121.2169,
    "url": "https://cctvn.freeway.gov.tw/abs2mjpg/bmjpg?camera=20190",
    "map": "https://www.google.com/maps?q=25.0507,121.2169"
  },
  {
    "id": 4544,
    "name": "國道二號 20K+430 東向 大湳交流道到鶯歌系統交流道",
    "region": "國道二號",
    "city": "桃園市",
    "lat": 24.9421,
    "lng": 121.3237,
    "url": "https://cctvn.freeway.gov.tw/abs2mjpg/bmjpg?camera=22040",
    "map": "https://www.google.com/maps?q=24.9421,121.3237"
  },
  {
    "id": 4545,
    "name": "國道二號 2K+900 東向 大園交流道到大竹交流道",
    "region": "國道二號",
    "city": "桃園市",
    "lat": 25.0423,
    "lng": 121.2205,
    "url": "https://cctvn.freeway.gov.tw/abs2mjpg/bmjpg?camera=20290",
    "map": "https://www.google.com/maps?q=25.0423,121.2205"
  },
  {
    "id": 4546,
    "name": "國道二號 3K+350 東向 大園交流道到大竹交流道",
    "region": "國道二號",
    "city": "桃園市",
    "lat": 25.0389,
    "lng": 121.2233,
    "url": "https://cctvn.freeway.gov.tw/abs2mjpg/bmjpg?camera=20330",
    "map": "https://www.google.com/maps?q=25.0389,121.2233"
  },
  {
    "id": 4547,
    "name": "國道二號 4K+200 西向 大竹交流道到大園交流道",
    "region": "國道二號",
    "city": "桃園市",
    "lat": 25.0367,
    "lng": 121.2317,
    "url": "https://cctvn.freeway.gov.tw/abs2mjpg/bmjpg?camera=20420",
    "map": "https://www.google.com/maps?q=25.0367,121.2317"
  },
  {
    "id": 4548,
    "name": "國道二號 5K+250 西向 機場系統交流道到大竹交流道",
    "region": "國道二號",
    "city": "桃園市",
    "lat": 25.0338,
    "lng": 121.2412,
    "url": "https://cctvn.freeway.gov.tw/abs2mjpg/bmjpg?camera=20520",
    "map": "https://www.google.com/maps?q=25.0338,121.2412"
  },
  {
    "id": 4549,
    "name": "國道二號 6K+400 西向 機場系統交流道到大竹交流道",
    "region": "國道二號",
    "city": "桃園市",
    "lat": 25.0285,
    "lng": 121.2512,
    "url": "https://cctvn.freeway.gov.tw/abs2mjpg/bmjpg?camera=20640",
    "map": "https://www.google.com/maps?q=25.0285,121.2512"
  },
  {
    "id": 4550,
    "name": "國道二號 7K+450 東向 大竹交流道到機場系統交流道",
    "region": "國道二號",
    "city": "桃園市",
    "lat": 25.0275,
    "lng": 121.2614,
    "url": "https://cctvn.freeway.gov.tw/abs2mjpg/bmjpg?camera=20740",
    "map": "https://www.google.com/maps?q=25.0275,121.2614"
  },
  {
    "id": 4551,
    "name": "國道二號 8K+310 西向 機場系統交流道到大竹交流道",
    "region": "國道二號",
    "city": "桃園市",
    "lat": 25.0249,
    "lng": 121.2693,
    "url": "https://cctvn.freeway.gov.tw/abs2mjpg/bmjpg?camera=20830",
    "map": "https://www.google.com/maps?q=25.0249,121.2693"
  },
  {
    "id": 4552,
    "name": "國道二號 9K+090 東向 機場系統交流道到南桃園交流道",
    "region": "國道二號",
    "city": "桃園市",
    "lat": 25.0199,
    "lng": 121.2758,
    "url": "https://cctvn.freeway.gov.tw/abs2mjpg/bmjpg?camera=20900",
    "map": "https://www.google.com/maps?q=25.0199,121.2758"
  },
  {
    "id": 4553,
    "name": "國道二號 9K+180 東向 機場系統交流道到南桃園交流道",
    "region": "國道二號",
    "city": "桃園市",
    "lat": 25.0209,
    "lng": 121.2735,
    "url": "https://cctvn.freeway.gov.tw/abs2mjpg/bmjpg?camera=20910",
    "map": "https://www.google.com/maps?q=25.0209,121.2735"
  },
  {
    "id": 4554,
    "name": "國道二號 9K+605 西向 南桃園交流道到機場系統交流道",
    "region": "國道二號",
    "city": "桃園市",
    "lat": 25.0153,
    "lng": 121.2763,
    "url": "https://cctvn.freeway.gov.tw/abs2mjpg/bmjpg?camera=20960",
    "map": "https://www.google.com/maps?q=25.0153,121.2763"
  },
  {
    "id": 5435,
    "name": "新竹市道路 公道五路與交流道東側(往市區)",
    "region": "市區道路",
    "city": "桃園市/新竹縣市",
    "lat": 24.7977,
    "lng": 121.0087,
    "url": "https://cctvn.freeway.gov.tw/abs2mjpg/bmjpg?camera=19400",
    "map": "https://www.google.com/maps?q=24.7977,121.0087"
  },
  {
    "id": 5447,
    "name": "新竹市道路 東大路與西濱路(往市區)",
    "region": "市區道路",
    "city": "桃園市/新竹縣市",
    "lat": 24.8423,
    "lng": 120.9343,
    "url": "https://cctv-ss01.thb.gov.tw:443/T15-73K+800",
    "map": "https://www.google.com/maps?q=24.8423,120.9343"
  },
  {
    "id": 5461,
    "name": "台61線 102K+790",
    "region": "快速公路-台61線",
    "city": "桃園市/新竹縣市",
    "lat": 24.6263,
    "lng": 120.7745,
    "url": "https://cctv-ss03.thb.gov.tw:443/T61-102K+790",
    "map": "https://www.google.com/maps?q=24.6263,120.7745"
  },
  {
    "id": 5462,
    "name": "台61線 103K+100",
    "region": "快速公路-台61線",
    "city": "桃園市/新竹縣市",
    "lat": 24.6243,
    "lng": 120.7727,
    "url": "https://cctv-ss04.thb.gov.tw:443/T61-103K+100",
    "map": "https://www.google.com/maps?q=24.6243,120.7727"
  },
  {
    "id": 5463,
    "name": "台61線 104K+065",
    "region": "快速公路-台61線",
    "city": "桃園市/新竹縣市",
    "lat": 24.6181,
    "lng": 120.7659,
    "url": "https://cctv-ss03.thb.gov.tw:443/T61-104K+065",
    "map": "https://www.google.com/maps?q=24.6181,120.7659"
  },
  {
    "id": 5464,
    "name": "台61線 105K+350",
    "region": "快速公路-台61線",
    "city": "桃園市/新竹縣市",
    "lat": 24.6108,
    "lng": 120.7572,
    "url": "https://cctv-ss03.thb.gov.tw:443/T61-105K+350",
    "map": "https://www.google.com/maps?q=24.6108,120.7572"
  },
  {
    "id": 5602,
    "name": "台61線 48K+350",
    "region": "快速公路-台61線",
    "city": "桃園市/新竹縣市",
    "lat": 24.9878,
    "lng": 121.0204,
    "url": "https://cctv-ss08.thb.gov.tw:443/T61-48K+350",
    "map": "https://www.google.com/maps?q=24.9878,121.0204"
  },
  {
    "id": 5603,
    "name": "台61線 48K+730",
    "region": "快速公路-台61線",
    "city": "桃園市/新竹縣市",
    "lat": 24.9846,
    "lng": 121.0197,
    "url": "https://cctv-ss02.thb.gov.tw:443/T61-48K+730",
    "map": "https://www.google.com/maps?q=24.9846,121.0197"
  },
  {
    "id": 5604,
    "name": "台61線 48K+850",
    "region": "快速公路-台61線",
    "city": "桃園市/新竹縣市",
    "lat": 24.9836,
    "lng": 121.0197,
    "url": "https://cctv-ss08.thb.gov.tw:443/T61-48K+850",
    "map": "https://www.google.com/maps?q=24.9836,121.0197"
  },
  {
    "id": 5605,
    "name": "台61線 49K+750",
    "region": "快速公路-台61線",
    "city": "桃園市/新竹縣市",
    "lat": 24.9749,
    "lng": 121.0179,
    "url": "https://cctv-ss08.thb.gov.tw:443/T61-49K+750",
    "map": "https://www.google.com/maps?q=24.9749,121.0179"
  },
  {
    "id": 5608,
    "name": "台61線 57K+200",
    "region": "快速公路-台61線",
    "city": "桃園市/新竹縣市",
    "lat": 24.9221,
    "lng": 120.973,
    "url": "https://cctv-ss08.thb.gov.tw:443/T61-57K+200",
    "map": "https://www.google.com/maps?q=24.9221,120.973"
  },
  {
    "id": 5609,
    "name": "台61線 58K+000",
    "region": "快速公路-台61線",
    "city": "桃園市/新竹縣市",
    "lat": 24.9156,
    "lng": 120.9724,
    "url": "https://cctv-ss08.thb.gov.tw:443/T61-58K+000",
    "map": "https://www.google.com/maps?q=24.9156,120.9724"
  },
  {
    "id": 5610,
    "name": "台61線 58K+230",
    "region": "快速公路-台61線",
    "city": "桃園市/新竹縣市",
    "lat": 24.9143,
    "lng": 120.9726,
    "url": "https://cctv-ss08.thb.gov.tw:443/T61-58K+230",
    "map": "https://www.google.com/maps?q=24.9143,120.9726"
  },
  {
    "id": 5611,
    "name": "台61線 60K+733",
    "region": "快速公路-台61線",
    "city": "桃園市/新竹縣市",
    "lat": 24.8975,
    "lng": 120.9671,
    "url": "https://cctv-ss08.thb.gov.tw:443/T61-60K+733",
    "map": "https://www.google.com/maps?q=24.8975,120.9671"
  },
  {
    "id": 5612,
    "name": "台61線 61K+074",
    "region": "快速公路-台61線",
    "city": "桃園市/新竹縣市",
    "lat": 24.8955,
    "lng": 120.9644,
    "url": "https://cctv-ss08.thb.gov.tw:443/T61K+074(S)",
    "map": "https://www.google.com/maps?q=24.8955,120.9644"
  },
  {
    "id": 5613,
    "name": "台61線 61K+161",
    "region": "快速公路-台61線",
    "city": "桃園市/新竹縣市",
    "lat": 24.895,
    "lng": 120.9638,
    "url": "https://cctv-ss08.thb.gov.tw:443/T61-61K+161(N)",
    "map": "https://www.google.com/maps?q=24.895,120.9638"
  },
  {
    "id": 5614,
    "name": "台61線 61K+161",
    "region": "快速公路-台61線",
    "city": "桃園市/新竹縣市",
    "lat": 24.895,
    "lng": 120.9637,
    "url": "https://cctv-ss08.thb.gov.tw:443/T61-61K+161(S)",
    "map": "https://www.google.com/maps?q=24.895,120.9637"
  },
  {
    "id": 5615,
    "name": "台61線 61K+336",
    "region": "快速公路-台61線",
    "city": "桃園市/新竹縣市",
    "lat": 24.894,
    "lng": 120.9625,
    "url": "https://cctv-ss02.thb.gov.tw:443/T61-61K+336(N)",
    "map": "https://www.google.com/maps?q=24.894,120.9625"
  },
  {
    "id": 5616,
    "name": "台61線 61K+336",
    "region": "快速公路-台61線",
    "city": "桃園市/新竹縣市",
    "lat": 24.894,
    "lng": 120.9625,
    "url": "https://cctv-ss02.thb.gov.tw:443/T61-61K+336(S)",
    "map": "https://www.google.com/maps?q=24.894,120.9625"
  },
  {
    "id": 5617,
    "name": "台61線 61K+424",
    "region": "快速公路-台61線",
    "city": "桃園市/新竹縣市",
    "lat": 24.8934,
    "lng": 120.9619,
    "url": "https://cctv-ss08.thb.gov.tw:443/T61-61K+424(N)",
    "map": "https://www.google.com/maps?q=24.8934,120.9619"
  },
  {
    "id": 5618,
    "name": "台61線 61K+511",
    "region": "快速公路-台61線",
    "city": "桃園市/新竹縣市",
    "lat": 24.8928,
    "lng": 120.9612,
    "url": "https://cctv-ss02.thb.gov.tw:443/T61-61K+511(N)",
    "map": "https://www.google.com/maps?q=24.8928,120.9612"
  },
  {
    "id": 5619,
    "name": "台61線 61K+511",
    "region": "快速公路-台61線",
    "city": "桃園市/新竹縣市",
    "lat": 24.8929,
    "lng": 120.9612,
    "url": "https://cctv-ss08.thb.gov.tw:443/T61-61K+511(S)",
    "map": "https://www.google.com/maps?q=24.8929,120.9612"
  },
  {
    "id": 5620,
    "name": "台61線 61K+599",
    "region": "快速公路-台61線",
    "city": "桃園市/新竹縣市",
    "lat": 24.8923,
    "lng": 120.9607,
    "url": "https://cctv-ss08.thb.gov.tw:443/T61-61K+599(N)",
    "map": "https://www.google.com/maps?q=24.8923,120.9607"
  },
  {
    "id": 5621,
    "name": "台61線 61K+599",
    "region": "快速公路-台61線",
    "city": "桃園市/新竹縣市",
    "lat": 24.8923,
    "lng": 120.9606,
    "url": "https://cctv-ss02.thb.gov.tw:443/T61-61K+599(S)",
    "map": "https://www.google.com/maps?q=24.8923,120.9606"
  },